QoS	station	code	latitude	longitude	revision
good	Casa Blanca	MX	19.04222	-98.11889	2019-11-27
building	Mikhaylovka	RU	50.06	43.2379	07/26/2017, 00:00:00
building	Shahre Jadide Andisheh	IR	35.6803	51.0193	01 Jun 2013
building	Aracaju	BR	-10.91111	-37.07167	2012/12/29
maintenance	Parola	IN	20.88098	75.11937	2019/07/05
excellent	Kheda	IN	22.75218	72.68533	10/29/2014, 00:00:00
maintenance	Caldas Novas	BR	-17.74431	-48.62789	2022-08-02
good	Freetown	SL	8.48714	-13.2356	2021/10/25
excellent	Frankston South	AU	-38.16604	145.13643	2022-02-27
average	Gorakhpur	IN	26.76628	83.36889	12 Mar 2021
maintenance	Robertsonpet	IN	12.95629	78.27539	10/24/2013, 00:00:00
accep	Houthalen	BE	51.03427	5.37429	16 Sep 2019
acceptable	Riverbank	US	37.73604	-120.93549	02/25/2021, 00:00:00
accep	Nonoichi	JP	36.53333	136.61667	04/15/2018, 00:00:00
accep	Barmbek-Nord	DE	53.6052	10.03988	2015/01/24
good	Burscheid	DE	51.08468	7.11393	02 Oct 2013
good	Dumont	US	40.94065	-73.99681	12/01/2014, 00:00:00
average	Tsuen Wan	HK	22.37066	114.10479	2014/09/13
building	San Juan	US	26.18924	-98.15529	2016-12-05
maintenance	Arbroath	GB	56.56317	-2.58736	2015-07-11
accep	Kushtia	BD	23.9028	89.11943	06/26/2021, 00:00:00
excellent	Ajdabiya	LY	30.75545	20.22625	30 May 2018
accep	Zaozhuang	CN	34.86472	117.55417	05/28/2014, 00:00:00
excellent	Honda	CO	5.20856	-74.73584	09/28/2018, 00:00:00
building	Brierley Hill	GB	52.48173	-2.12139	2018/10/26
maintenance	Odessa	US	31.84568	-102.36764	2020/11/17
good	Lino Lakes	US	45.16024	-93.08883	2016-08-23
building	Mikhaylovka	RU	50.06	43.2379	11/29/2020, 00:00:00
accep	Kyzylorda	KZ	44.85278	65.50917	11/19/2014, 00:00:00
excellent	Crystal Lake	US	42.24113	-88.3162	08/19/2020, 00:00:00
excellent	Milledgeville	US	33.08014	-83.2321	2018-09-13
average	Valletta	MT	35.89972	14.51472	2019-04-25
good	Cardedeu	ES	41.63976	2.35739	2020-07-21
average	Oulmes	MA	33.42585	-6.00137	20 Sep 2018
accep	Tupiza	BO	-21.44345	-65.71875	2013-08-26
average	Arzamas	RU	55.39485	43.83992	2015-02-12
average	Zeitz	DE	51.04962	12.1369	11/21/2018, 00:00:00
good	Sun City Center	US	27.71809	-82.35176	2017-04-07
excellent	Schwalmtal	DE	51.21667	6.26667	06/06/2018, 00:00:00
average	Sakaraha	MG	-22.9	44.53333	2022-04-10
building	Cibinong	ID	-6.48167	106.85417	04 Nov 2016
average	Madhipura	IN	25.92127	86.79271	06 Jun 2019
building	Ken Caryl	US	39.57582	-105.11221	2019-05-14
average	Norwalk	US	41.24255	-82.61573	2021-12-04
excellent	Resplendor	BR	-19.32556	-41.25528	27 Oct 2018
good	Selby	GB	53.78333	-1.06667	2019-11-30
accep	Thap Than	TH	15.46063	99.89166	16 May 2020
average	Lutz	US	28.15112	-82.46148	2017/07/07
average	Damnoen Saduak	TH	13.51825	99.95469	2013-02-16
excellent	Beni	CD	0.49113	29.47306	2022/08/15
accep	Shaowu	CN	27.34089	117.4831	2015/05/30
good	Kallio	FI	60.18427	24.95034	15 May 2017
accep	'Ali Sabieh	DJ	11.15583	42.7125	2013/08/16
good	Dax	FR	43.71032	-1.05366	20 Dec 2017
building	Hrazdan	AM	40.49748	44.7662	07/06/2015, 00:00:00
building	Ferrol	ES	43.48961	-8.2194	03/05/2013, 00:00:00
good	Gonesse	FR	48.98693	2.44892	2016/09/23
average	Carlsbad	US	32.42067	-104.22884	23 May 2022
average	Bothell	US	47.76232	-122.2054	10/05/2020, 00:00:00
average	Kingston upon Hull	GB	53.7446	-0.33525	2022/02/05
excellent	Keizer	US	44.99012	-123.02621	13 Oct 2021
excellent	Oktyabr‚Äôskiy	RU	54.48147	53.47103	2020-03-29
maitennce	Mampong	GH	7.06273	-1.4001	30 Dec 2021
accep	Carindale	AU	-27.50578	153.10236	03/08/2021, 00:00:00
good	Puerto Colombia	CO	10.98778	-74.95472	28 Dec 2015
good	Magong	TW	23.5654	119.58627	02 Nov 2015
excellent	Milledgeville	US	33.08014	-83.2321	05/09/2013, 00:00:00
excellent	T‚Äôaebaek	KR	37.1759	128.9889	2015-11-07
accep	Bensheim	DE	49.68369	8.61839	2020-04-17
good	Tavda	RU	58.04254	65.27258	09/14/2022, 00:00:00
excellent	Sassari	IT	40.72586	8.55552	2013-01-08
accep	Buynaksk	RU	42.819	47.1192	28 Feb 2020
maintenance	Aberdeen	GB	57.14369	-2.09814	12/23/2018, 00:00:00
average	Wangon	ID	-7.51611	109.05389	2013/03/16
average	Saint-Genis-Laval	FR	45.69558	4.7934	05/04/2013, 00:00:00
accep	Marburg an der Lahn	DE	50.80904	8.77069	21 Jun 2016
average	Chillum	US	38.96372	-76.99081	19 Jul 2014
excellent	Messaad	DZ	34.15429	3.50309	20 Nov 2016
maintenance	Lanciano	IT	42.22718	14.39024	01/14/2013, 00:00:00
accep	Norwalk	US	41.24255	-82.61573	2016/09/19
maintenance	Kismayo	SO	-0.35817	42.54536	06/28/2022, 00:00:00
building	Rajaori	IN	33.37526	74.3092	25 May 2014
building	Villaquilambre	ES	42.64685	-5.55835	25 Jan 2014
good	Villabate	IT	38.07789	13.44275	12/08/2017, 00:00:00
good	New Kingston	JM	18.00747	-76.78319	10/01/2019, 00:00:00
accep	Gorgonzola	IT	45.53069	9.40531	23 Jan 2019
good	Severodvinsk	RU	64.5635	39.8302	2014-12-06
good	Pujali	IN	22.4711	88.1453	2021-05-31
excellent	Marburg an der Lahn	DE	50.80904	8.77069	05/29/2019, 00:00:00
building	Tupi	PH	6.33444	124.95278	2013/03/01
average	Narva	EE	59.37722	28.19028	09 Jan 2017
good	Ariccia	IT	41.72063	12.6723	10/14/2019, 00:00:00
excellent	Qazax	AZ	41.09246	45.36561	08 Sep 2021
accep	Newbury	GB	51.40148	-1.32471	12/12/2018, 00:00:00
maintenance	West Des Moines	US	41.57721	-93.71133	2020-04-25
excellent	Diwek	ID	-7.57897	112.23109	2012/12/26
good	Iturama	BR	-19.72806	-50.19556	2017/11/07
average	Surbiton	GB	51.39148	-0.29825	2021-01-07
average	Oberhausen	DE	51.47805	6.8625	03/10/2018, 00:00:00
good	West Chester	US	39.96097	-75.60804	2017-08-10
average	Ehingen	DE	48.28259	9.72749	08/14/2019, 00:00:00
accep	Lanciano	IT	42.22718	14.39024	2022/09/17
average	Charlottetown	CA	46.23899	-63.13414	11 Sep 2020
average	Tornio	FI	65.84811	24.14662	2022-04-12
maintenance	Hlohovec	SK	48.43174	17.8031	2017-10-31
excellent	Valence	FR	44.92801	4.8951	12/13/2015, 00:00:00
excellent	Masbate	PH	12.37169	123.62494	2015/03/18
average	Jhol	PK	25.95533	68.88871	11 Dec 2012
average	Clermont	US	28.54944	-81.77285	2021-01-25
good	Guapimirim	BR	-22.53722	-42.98194	2022-05-04
excellent	Polohy	UA	47.48444	36.25361	09/13/2022, 00:00:00
maintenance	Sassari	IT	40.72586	8.55552	2017-03-02
maintenance	Schiebroek	NL	51.95838	4.47124	2012/11/30
accep	Cordenons	IT	45.9836	12.70038	05/04/2015, 00:00:00
accep	Frenda	DZ	35.06544	1.04945	07/03/2016, 00:00:00
good	Saint-Genis-Laval	FR	45.69558	4.7934	2014-08-21
maintenance	Jalal-Abad	KG	40.93333	73	2017-01-31
building	Narva	EE	59.37722	28.19028	2019-09-12
excellent	Marburg an der Lahn	DE	50.80904	8.77069	19 Jul 2018
accep	Rutherglen	GB	55.82885	-4.21376	2017/09/30
average	Gajendragarh	IN	15.73628	75.96976	11/18/2012, 00:00:00
good	Hlohovec	SK	48.43174	17.8031	2015-10-06
maintenance	Watsonville	US	36.91023	-121.75689	27 Oct 2015
good	Gorakhpur	IN	26.76628	83.36889	01 Jan 2014
average	Bar-le-Duc	FR	48.77275	5.16108	2018-06-04
excellent	Pune	IN	18.51957	73.85535	2012/10/19
maintenance	Rutherglen	GB	55.82885	-4.21376	2019/10/26
average	Kolomyagi	RU	60.02427	30.28491	2019/01/16
accep	Tadmur	SY	34.5624	38.28402	30 Jun 2013
average	Aloha	US	45.49428	-122.86705	2017/07/05
excellent	Fairview Heights	US	38.58894	-89.99038	2018-01-08
accep	Shimotoda	JP	35.815	139.6853	12 Dec 2014
average	T‚Äôaebaek	KR	37.1759	128.9889	2014/08/30
excellent	Daud Khel	PK	32.87533	71.57118	03/20/2022, 00:00:00
accep	Kobuleti	GE	41.82143	41.77921	2019-01-24
accep	Sterling	US	39.00622	-77.4286	09/01/2017, 00:00:00
excellent	Surbiton	GB	51.39148	-0.29825	21 Jul 2017
excellent	Gaya	NG	11.86064	9.0027	2021-12-19
building	Tak Bai	TH	6.25947	102.05461	06/18/2014, 00:00:00
excellent	Kearns	US	40.65995	-111.99633	10 Apr 2020
accep	Naushahra Virkan	PK	31.96258	73.97117	23 Mar 2015
average	Danilov	RU	58.1908	40.17171	2019-11-24
accep	Albstadt	DE	48.21644	9.02596	2014-09-23
excellent	Malden	US	42.4251	-71.06616	01 Jan 2022
accep	Valinhos	BR	-22.97056	-46.99583	2013/08/15
excellent	Bavly	RU	54.39304	53.26023	2014/10/05
maintenance	Tyoply Stan	RU	55.62047	37.49338	2020/06/16
building	Chharra	IN	27.9247	78.40102	16 Feb 2020
accep	Marly-le-Roi	FR	48.86667	2.08333	02 Aug 2020
average	Tortona	IT	44.89784	8.86374	04/12/2018, 00:00:00
average	Taozhuang	CN	34.85	117.33333	12/22/2015, 00:00:00
accep	Haldwani	IN	29.22254	79.5286	2012-11-13
excellent	Ukmerge	LT	55.25	24.75	2014-11-27
good	Penzance	GB	50.11861	-5.53715	31 Jan 2013
accep	Recodo	PH	6.95194	121.96361	03/22/2021, 00:00:00
average	Heroica Matamoros	MX	25.87972	-97.50417	06/04/2019, 00:00:00
average	West Des Moines	US	41.57721	-93.71133	2014-11-29
accep	Frankston South	AU	-38.16604	145.13643	2020-08-23
accep	Changzhi	CN	35.20889	111.73861	2018/06/06
maintenance	Newbury	GB	51.40148	-1.32471	07 Jan 2014
good	Montana	BG	43.4125	23.225	2015-01-27
excellent	San Juan de Aznalfarache	ES	37.35813	-6.03731	08/03/2020, 00:00:00
good	Mardin	TR	37.31309	40.74357	2019/07/15
building	Crystal Lake	US	42.24113	-88.3162	14 Dec 2014
average	Port-Vila	VU	-17.73648	168.31366	07/15/2018, 00:00:00
accep	Sheoganj	IN	25.13915	73.06784	2020-10-06
accep	Paidha	UG	2.41669	30.98551	05 May 2020
maintenance	Santa Cruz de Barahona	DO	18.20854	-71.10077	10/28/2014, 00:00:00
building	Bang Ban	TH	14.37395	100.48528	12/03/2018, 00:00:00
good	Valletta	MT	35.89972	14.51472	2021-09-16
average	Darreh Shahr	IR	33.14447	47.3799	2017-08-29
maintenance	Sar-e Pul	AF	36.21544	65.93249	12/03/2019, 00:00:00
building	Claremont	US	34.09668	-117.71978	09 Jun 2014
maintenance	Brentwood Estates	US	36.02506	-86.77917	2017-11-20
maintenance	Sorsogon	PH	12.97389	123.99333	06/10/2016, 00:00:00
accep	Kulai	MY	1.6561	103.6032	2014/07/07
building	Nova Kakhovka	UA	46.75451	33.34864	03/16/2015, 00:00:00
maintenance	Houthalen	BE	51.03427	5.37429	2019/06/23
good	Saharsa	IN	25.87498	86.59611	09/26/2021, 00:00:00
accep	Parkent	UZ	41.29444	69.67639	09/10/2018, 00:00:00
good	Albufeira	PT	37.08819	-8.2503	2013-06-23
excellent	Yasothon	TH	15.79408	104.1451	08/28/2017, 00:00:00
accep	Yablonovskiy	RU	44.98901	38.94324	2013/06/04
building	Carindale	AU	-27.50578	153.10236	2016-01-09
accep	San Fernando de Henares	ES	40.42386	-3.53261	2020/10/09
building	Novosilikatnyy	RU	53.30972	83.62389	07/03/2016, 00:00:00
excellent	Sambalpur	IN	21.46527	83.97573	15 Mar 2014
accep	Abilene	US	32.44874	-99.73314	2014-06-13
building	Shinshiro	JP	34.9	137.5	06/18/2015, 00:00:00
average	Frederiksberg	DK	55.67938	12.53463	09/12/2014, 00:00:00
good	Brunswick	US	43.91452	-69.96533	18 Jun 2014
building	Valday	RU	57.97472	33.2525	03/26/2021, 00:00:00
average	Viradouro	BR	-20.87306	-48.29694	05 Jan 2018
average	Krasyliv	UA	49.65186	26.97253	04/18/2020, 00:00:00
average	Montecchio Maggiore-Alte Ceccato	IT	45.50369	11.412	2014-01-19
accep	Catende	BR	-8.66667	-35.71667	11 Nov 2017
building	Shushary	RU	59.80917	30.38167	2016-04-30
excellent	Otegen Batyra	KZ	43.41949	77.0202	10/08/2015, 00:00:00
average	Wesseling	DE	50.82709	6.9747	2020-11-15
accep	Korschenbroich	DE	51.19139	6.51352	13 May 2020
average	Buri	BR	-23.7975	-48.59278	10 Jul 2014
average	Dombivli	IN	19.21667	73.08333	01 Mar 2020
maintenance	Lancing	GB	50.82882	-0.32247	2015-12-11
average	Alipur	PK	29.38242	70.91106	28 Sep 2021
maintenance	El Achir	DZ	36.06386	4.62744	2019/01/07
accep	Ragusa	IT	36.92574	14.72443	17 Oct 2018
excellent	Kherson	UA	46.65581	32.6178	04/03/2015, 00:00:00
maintenance	Hardenberg	NL	52.57583	6.61944	2019-07-09
maintenance	Novopavlovsk	RU	43.96222	43.63417	06/04/2021, 00:00:00
accep	Ishim	RU	56.11281	69.49015	2019-02-09
excellent	Sathyamangalam	IN	11.50526	77.23826	2017-11-26
good	Reus	ES	41.15612	1.10687	15 Aug 2019
excellent	Jagna	PH	9.6531	124.3697	2021-09-29
accep	Beidao	CN	34.56861	105.89333	2018-10-15
maintenance	Nowshahr	IR	36.64852	51.49621	12/06/2016, 00:00:00
excellent	Bang Ban	TH	14.37395	100.48528	11/28/2012, 00:00:00
good	Boumerdas	DZ	36.76639	3.47717	12 Aug 2022
good	Lymington	GB	50.75767	-1.5443	2015-12-03
accep	Paidha	UG	2.41669	30.98551	04/24/2018, 00:00:00
excellent	Caldas Novas	BR	-17.74431	-48.62789	18 Mar 2016
accep	Novara	IT	45.44694	8.62118	24 Feb 2014
excellent	Redding	US	40.58654	-122.39168	2017/12/31
maintenance	Majene	ID	-3.5403	118.9707	2018-05-01
accep	Osmanabad	IN	18.18158	76.03889	2019/02/03
excellent	Stade	DE	53.59337	9.47629	02/24/2013, 00:00:00
excellent	Shinshiro	JP	34.9	137.5	15 May 2013
accep	Sa Dec	VN	10.29085	105.75635	2013/06/02
maintenance	Palm Desert	US	33.72255	-116.37697	04/03/2019, 00:00:00
good	Pilar	PH	14.66	120.56528	26 Apr 2018
maintenance	Ambatondrazaka	MG	-17.83333	48.41667	12 Feb 2018
good	Aytos	BG	42.7	27.25	2017/01/26
accep	Chillum	US	38.96372	-76.99081	2017/07/11
good	Cheraga	DZ	36.76775	2.95924	06 Aug 2017
accep	Sheoganj	IN	25.13915	73.06784	2017-09-26
accep	Losser	NL	52.26083	7.00417	17 Aug 2019
excellent	Muritiba	BR	-12.91667	-39.25	2016-07-30
excellent	Hutchinson	US	38.06084	-97.92977	2020/04/05
good	Kachkanar	RU	58.7002	59.4839	2013-04-19
good	Edremit	TR	39.59611	27.02444	2019-07-03
average	Burscheid	DE	51.08468	7.11393	2018-09-19
good	Meerut	IN	28.98002	77.70636	2014/03/13
accep	Zeitz	DE	51.04962	12.1369	12/25/2020, 00:00:00
accep	Rafaela	AR	-31.25033	-61.4867	2019/12/15
accep	Agrigento	IT	37.31065	13.57661	04/14/2015, 00:00:00
average	Ariccia	IT	41.72063	12.6723	03 Jul 2015
good	Viewpark	GB	55.82737	-4.0573	01/30/2019, 00:00:00
average	Dehiwala-Mount Lavinia	LK	6.84019	79.87116	12/30/2017, 00:00:00
accep	Gainesville	US	29.65163	-82.32483	2021-06-20
excellent	Vienne	FR	45.51667	4.86667	13 Mar 2013
excellent	San Jose	PH	12.35275	121.06761	05/08/2021, 00:00:00
excellent	Milagro	EC	-2.13404	-79.59415	16 Apr 2014
accep	Mianwali	PK	32.57756	71.52847	2019-10-10
building	Pato Branco	BR	-26.22861	-52.67056	2015-02-23
average	Clacton-on-Sea	GB	51.78967	1.15597	11/07/2019, 00:00:00
excellent	Catende	BR	-8.66667	-35.71667	2021-04-15
excellent	Likhobory	RU	55.85	37.56667	09/20/2020, 00:00:00
good	Tchaourou	BJ	8.88649	2.59753	2013/02/03
excellent	Marau	BR	-28.44917	-52.2	01 Jul 2015
average	Montana	BG	43.4125	23.225	19 Feb 2022
average	Curitiba	BR	-25.42778	-49.27306	04/12/2019, 00:00:00
excellent	Media Luna	CU	20.14298	-77.43532	29 Aug 2014
excellent	Trossingen	DE	48.07667	8.64409	2018-10-30
building	East Haven	US	41.27621	-72.86843	04/05/2021, 00:00:00
good	Tyler	US	32.35126	-95.30106	05/20/2014, 00:00:00
building	Memmingen	DE	47.98372	10.18527	2019/02/19
good	Evergreen Park	US	41.72059	-87.70172	03/02/2013, 00:00:00
building	Novelda	ES	38.38479	-0.76773	28 May 2017
accep	Novopavlovsk	RU	43.96222	43.63417	27 Sep 2015
accep	Ataq	YE	14.53767	46.83187	16 Nov 2016
average	Karatsu	JP	33.4425	129.96972	2017/03/09
good	Sonzacate	SV	13.73417	-89.71472	10/30/2012, 00:00:00
average	Hasilpur	PK	29.69221	72.54566	2015-10-07
average	Kismayo	SO	-0.35817	42.54536	2013/12/13
building	Dalsingh Sarai	IN	25.66795	85.83636	09 Dec 2012
excellent	Kherson	UA	46.65581	32.6178	2017-05-14
good	Ferrol	ES	43.48961	-8.2194	2022-02-03
accep	Bridgeport	US	41.16704	-73.20483	06/26/2014, 00:00:00
accep	Meizhou	CN	24.28859	116.11768	2013-05-17
good	Saratoga Springs	US	40.34912	-111.90466	24 Sep 2021
good	Beaumont	US	33.92946	-116.97725	25 Jan 2020
accep	Troutdale	US	45.53929	-122.38731	2021/01/24
average	Novogrudok	BY	53.5942	25.8191	10/30/2017, 00:00:00
good	Hechingen	DE	48.35149	8.96317	2013-12-16
excellent	Scottsdale	US	33.50921	-111.89903	2019-09-29
accep	Msaken	TN	35.72917	10.58082	11/01/2013, 00:00:00
excellent	Nonsan	KR	36.20389	127.08472	2014-02-25
building	San Juan	US	26.18924	-98.15529	04 Jul 2017
good	Laguna Niguel	US	33.52253	-117.70755	29 May 2015
excellent	Murray	US	36.61033	-88.31476	02/16/2015, 00:00:00
good	Aksaray	TR	38.37255	34.02537	09 Dec 2016
accep	Diwek	ID	-7.57897	112.23109	07 Apr 2017
average	Nakhon Pathom	TH	13.8196	100.04427	11/09/2012, 00:00:00
maintenance	Ikalamavony	MG	-21.15	46.58333	2014/11/19
good	Jingzhou	CN	30.35028	112.19028	28 Oct 2018
excellent	Maxixe	MZ	-23.85972	35.34722	2014-12-04
accep	Gudermes	RU	43.35071	46.10925	2020-02-12
average	Hardenberg	NL	52.57583	6.61944	05/20/2016, 00:00:00
excellent	Kyzylorda	KZ	44.85278	65.50917	20 Jul 2020
good	Viradouro	BR	-20.87306	-48.29694	2020-09-26
accep	Teluk Intan	MY	4.02219	101.02083	2020-04-18
maintenance	Parkent	UZ	41.29444	69.67639	03/07/2018, 00:00:00
good	La Trinidad	PH	16.455	120.5875	2018/08/14
good	Schiebroek	NL	51.95838	4.47124	20 Mar 2018
average	Gonesse	FR	48.98693	2.44892	26 Jun 2020
accep	Sirsi	IN	14.62072	74.83554	29 Oct 2019
maintenance	Talence	FR	44.80477	-0.59543	06/12/2016, 00:00:00
good	Pontevedra	AR	-34.74785	-58.70072	2021/03/17
average	Aurora	US	39.72943	-104.83192	2014/10/18
average	Halstenbek	DE	53.63333	9.85	08 Oct 2014
average	Cebu City	PH	10.31672	123.89071	2015/11/18
average	Azrou	MA	33.43443	-5.22126	01/02/2015, 00:00:00
excellent	Kampung Ayer Molek	MY	2.2139	102.3278	22 Jul 2021
average	Gingee	IN	12.25282	79.41727	2015/09/25
accep	Soledade	BR	-28.81833	-52.51028	30 Sep 2016
excellent	Deoli	IN	25.75728	75.37991	04/06/2021, 00:00:00
maintenance	Nyangao	TZ	-10.33333	39.28333	08/18/2019, 00:00:00
maintenance	Naro-Fominsk	RU	55.38752	36.73307	2014/07/09
average	Aistala	IN	23.18	88.58	14 Sep 2021
good	Jackson	US	35.61452	-88.81395	2020-04-13
average	Kheda	IN	22.75218	72.68533	02/26/2014, 00:00:00
average	Rajaori	IN	33.37526	74.3092	22 Oct 2015
excellent	Losheim	DE	49.5099	6.74549	26 Oct 2019
excellent	Thomazeau	HT	18.65297	-72.09391	11/08/2013, 00:00:00
maintenance	Guyong	PH	14.8361	120.97844	2017/04/02
average	Hlohovec	SK	48.43174	17.8031	14 Jul 2013
accep	Tornio	FI	65.84811	24.14662	16 Apr 2016
maintenance	East Jerusalem	PS	31.78336	35.23388	10/27/2019, 00:00:00
accep	Kyzylorda	KZ	44.85278	65.50917	2016/09/20
excellent	Bad Segeberg	DE	53.94313	10.30215	10/30/2020, 00:00:00
maintenance	Trossingen	DE	48.07667	8.64409	2017/05/12
good	Shaowu	CN	27.34089	117.4831	30 Aug 2019
good	Canavieiras	BR	-15.675	-38.94722	2016/09/12
maintenance	Tandil	AR	-37.32167	-59.13316	2012-11-01
building	Yeysk	RU	46.7055	38.2739	10 Jun 2013
good	Dharmapuri	IN	12.1277	78.15794	25 Aug 2022
excellent	Davangere	IN	14.46693	75.92694	2021-04-24
good	Otegen Batyra	KZ	43.41949	77.0202	2021-06-05
average	Castelfranco Emilia	IT	44.59445	11.04979	2014/12/27
excellent	Myawadi	MM	16.68911	98.50893	2014/07/23
excellent	Tiruppuvanam	IN	9.82564	78.25795	2017/07/13
average	Fresno	US	29.53885	-95.44744	06/20/2018, 00:00:00
building	Cabo	BR	-8.28333	-35.03333	16 Aug 2021
average	Kushtia	BD	23.9028	89.11943	07/24/2013, 00:00:00
excellent	Pameungpeuk	ID	-7.01833	107.60389	2018-05-18
good	Esperanza	AR	-31.4488	-60.93173	2018-05-06
excellent	Port-Vila	VU	-17.73648	168.31366	2013/02/16
excellent	Ilopango	SV	13.70167	-89.10944	08 Nov 2015
accep	Saint-Omer	FR	50.75	2.25	2014-06-25
average	Segundo Ensanche	ES	42.8139	-1.64295	02/21/2014, 00:00:00
maintenance	Hungund	IN	16.06213	76.0586	06/23/2015, 00:00:00
good	Yamada	JP	39.46667	141.95	29 Jul 2018
average	Miracema	BR	-21.41222	-42.19667	2020-11-29
excellent	Hengshui	CN	37.73222	115.70111	03 Jun 2022
good	Zeist	NL	52.09	5.23333	2020/09/28
accep	Talavera de la Reina	ES	39.96348	-4.83076	2013/05/07
accep	Deoli	IN	25.75728	75.37991	06 Aug 2017
maintenance	Dongdu	CN	35.85	117.7	02/15/2017, 00:00:00
building	Jizzax	UZ	40.11583	67.84222	24 Jun 2021
accep	Sorsogon	PH	12.97389	123.99333	2019-08-04
accep	Quimper	FR	48	-4.1	2020-12-14
average	Hita	JP	33.3213	130.94098	2015-03-30
average	Lino Lakes	US	45.16024	-93.08883	2021-12-09
excellent	Utica	US	43.1009	-75.23266	27 Mar 2020
maintenance	T‚Äôaebaek	KR	37.1759	128.9889	09 Nov 2018
building	Paredes	PT	41.20485	-8.33147	09/07/2021, 00:00:00
maintenance	Frankston South	AU	-38.16604	145.13643	10/12/2014, 00:00:00
average	Mirriah	NE	13.70727	9.15013	2019/01/08
good	Recife	BR	-8.05389	-34.88111	2016-10-10
good	Boo	SE	59.33333	18.28333	2020-03-07
building	Shagamu	NG	6.8485	3.64633	12/28/2021, 00:00:00
excellent	Paidha	UG	2.41669	30.98551	02/28/2021, 00:00:00
building	Yamada	JP	39.46667	141.95	12/18/2014, 00:00:00
accep	Halstenbek	DE	53.63333	9.85	04/05/2018, 00:00:00
good	Hoogezand	NL	53.16167	6.76111	06/07/2016, 00:00:00
good	Jhol	PK	25.95533	68.88871	18 Feb 2022
accep	Jerada	MA	34.31	-2.16	2015/03/25
excellent	Jersey City	US	40.72816	-74.07764	03 Feb 2013
accep	Toba	JP	34.4833	136.84186	2013-05-27
maintenance	Carindale	AU	-27.50578	153.10236	05 Nov 2016
good	Ovalle	CL	-30.60106	-71.19901	07/06/2013, 00:00:00
excellent	Same	TZ	-4.06667	37.73333	2014/12/23
average	Hofheim am Taunus	DE	50.09019	8.4493	11/22/2015, 00:00:00
good	Kashipur	IN	29.21399	78.95693	25 May 2020
average	Tupiza	BO	-21.44345	-65.71875	2016/01/12
excellent	Peabody	US	42.52787	-70.92866	2020/03/11
accep	Far Rockaway	US	40.60538	-73.75513	2015-03-30
accep	Mouscron	BE	50.74497	3.20639	27 Feb 2017
average	Le Chesnay	FR	48.8222	2.12213	11/08/2013, 00:00:00
good	Palestine	US	31.76212	-95.63079	10/06/2021, 00:00:00
good	Taunton	US	41.9001	-71.08977	2017/05/13
average	Lakota	CI	5.84752	-5.682	17 Feb 2022
accep	Dehiwala-Mount Lavinia	LK	6.84019	79.87116	2017/09/10
good	Timaru	NZ	-44.39672	171.25364	2019/06/19
average	Jashpurnagar	IN	22.88783	84.13864	04/23/2015, 00:00:00
average	Xiangtan	CN	27.85	112.9	09/07/2016, 00:00:00
good	Markham	CA	43.86682	-79.2663	2020-11-08
excellent	les Escaldes	AD	42.50729	1.53414	12/19/2014, 00:00:00
excellent	San Giuliano Milanese	IT	45.39402	9.29109	2014/04/19
maintenance	Yauco	PR	18.03496	-66.8499	21 Nov 2020
average	Teghra	IN	25.49043	85.94001	09/18/2016, 00:00:00
maintenance	Aytos	BG	42.7	27.25	2012-11-28
excellent	Sambalpur	IN	21.46527	83.97573	02/01/2021, 00:00:00
good	Tyler	US	32.35126	-95.30106	12/20/2014, 00:00:00
good	Meizhou	CN	24.28859	116.11768	22 Apr 2014
good	Estelle	US	29.84576	-90.10674	2022-01-18
accep	High Wycombe	GB	51.62907	-0.74934	03/28/2022, 00:00:00
average	Dalsingh Sarai	IN	25.66795	85.83636	2013-01-21
accep	Kensington	US	40.64621	-73.97069	2019/08/25
average	Morningside Heights	US	40.81	-73.9625	22 May 2020
accep	Sonzacate	SV	13.73417	-89.71472	2021/02/21
excellent	Bavly	RU	54.39304	53.26023	2014/02/02
excellent	Norwalk	US	41.24255	-82.61573	2019/07/08
building	New Canaan	US	41.14676	-73.49484	2017/02/28
average	Tudela	ES	42.06166	-1.60452	2014-03-30
excellent	Danjiangkou	CN	32.54278	111.50861	14 Jun 2019
good	San Lorenzo Acopilco	MX	19.32889	-99.32556	31 Dec 2015
average	Saint-Genis-Laval	FR	45.69558	4.7934	2020-08-23
excellent	Patnos	TR	39.22493	42.85693	2015-10-21
accep	Boston	US	42.35843	-71.05977	2019-10-29
building	Soroca	MD	48.15659	28.28489	05 Jul 2020
good	Jagna	PH	9.6531	124.3697	2020/04/17
building	Barbil	IN	22.10194	85.37752	2015/11/26
accep	Lesnoy	RU	58.63667	59.80222	2015/10/13
good	Kuvandyk	RU	51.4781	57.3552	11/11/2012, 00:00:00
average	Brenham	US	30.16688	-96.39774	04/16/2014, 00:00:00
maintenance	Yauco	PR	18.03496	-66.8499	11/08/2020, 00:00:00
average	El Alia	TN	37.16911	10.03478	05/12/2014, 00:00:00
excellent	Hungund	IN	16.06213	76.0586	2018-08-05
average	Glendale	US	34.14251	-118.25508	2017/11/28
accep	La Victoria	VE	10.22677	-67.33122	2014/02/25
average	Meizhou	CN	24.28859	116.11768	10/10/2012, 00:00:00
maintenance	La Ligua	CL	-32.45242	-71.23106	30 Jul 2015
accep	Darreh Shahr	IR	33.14447	47.3799	2021/08/03
accep	Chillum	US	38.96372	-76.99081	2016-09-24
accep	Tongelre	NL	51.44889	5.51978	03 Aug 2019
good	Davangere	IN	14.46693	75.92694	2016/08/28
average	Boyeros	CU	23.0072	-82.4017	04/05/2016, 00:00:00
maintenance	Simpang	ID	-1.26424	104.09701	07/07/2017, 00:00:00
building	Mongo	TD	12.18441	18.69303	20 Sep 2015
accep	Nakhon Pathom	TH	13.8196	100.04427	2015-01-06
accep	Toyokawa	JP	34.81667	137.4	2020/12/09
good	Kyzylorda	KZ	44.85278	65.50917	2016/06/08
building	Esperanza	AR	-31.4488	-60.93173	2021-03-13
good	Uran	IN	18.87813	72.93924	03/13/2013, 00:00:00
building	Sceaux	FR	48.77644	2.29026	09/21/2021, 00:00:00
accep	Charlottetown	CA	46.23899	-63.13414	2021/03/05
maintenance	Marly-le-Roi	FR	48.86667	2.08333	01/14/2020, 00:00:00
average	Volokolamsk	RU	56.03361	35.96944	06/12/2022, 00:00:00
building	Guapimirim	BR	-22.53722	-42.98194	04/18/2021, 00:00:00
maintenance	Chamba	IN	32.55531	76.12647	06 Oct 2012
average	Villabate	IT	38.07789	13.44275	17 Jan 2014
accep	Yablonovskiy	RU	44.98901	38.94324	2017-01-09
excellent	Pedro II	BR	-4.42472	-41.45861	06/25/2017, 00:00:00
accep	Gariadhar	IN	21.53889	71.57737	2016-05-11
average	Santa Gertrudes	BR	-22.45667	-47.53028	2017-05-04
good	Port-Vila	VU	-17.73648	168.31366	03/03/2021, 00:00:00
accep	Davis	US	38.54491	-121.74052	2018/11/30
average	Recife	BR	-8.05389	-34.88111	2014-12-07
accep	Alexandria	EG	31.20176	29.91582	10/23/2021, 00:00:00
maintenance	Naro-Fominsk	RU	55.38752	36.73307	2022/07/30
good	Strzelce Opolskie	PL	50.5107	18.30056	2020/07/08
maitennce	Periyakulam	IN	10.12268	77.54372	01 May 2016
maintenance	Lodwar	KE	3.11988	35.59642	31 Aug 2019
good	Itabirito	BR	-20.25333	-43.80139	2014-01-17
average	Gaya	NG	11.86064	9.0027	08/18/2016, 00:00:00
average	Farafenni	GM	13.56667	-15.6	2014-09-02
excellent	Finnentrop	DE	51.168	7.973	02/09/2022, 00:00:00
building	Otradnyy	RU	53.37596	51.3452	2017-12-19
accep	Neuburg an der Donau	DE	48.73218	11.18709	2015/11/14
average	Scotch Plains	US	40.65538	-74.38987	2020-09-10
good	Fort Washington	US	38.70734	-77.02303	08/14/2018, 00:00:00
maintenance	Arzamas	RU	55.39485	43.83992	2015/08/17
accep	Brazzaville	CG	-4.26613	15.28318	27 Dec 2012
accep	Francavilla Fontana	IT	40.53123	17.58522	06/16/2018, 00:00:00
accep	Arbroath	GB	56.56317	-2.58736	2016/09/05
accep	Deoli	IN	25.75728	75.37991	2014/04/09
average	Messaad	DZ	34.15429	3.50309	01/21/2016, 00:00:00
good	Carnaxide	PT	38.72706	-9.24671	10/11/2019, 00:00:00
accep	Nutley	US	40.82232	-74.15987	2017-02-17
average	Thomasville	US	35.88264	-80.08199	2020/01/19
excellent	Peabody	US	42.52787	-70.92866	11 Jul 2019
excellent	Split	HR	43.50891	16.43915	28 Aug 2019
average	Hardenberg	NL	52.57583	6.61944	2013/08/28
accep	Le Robert	MQ	14.67751	-60.94228	20 Aug 2018
good	Acworth	US	34.06635	-84.67837	2019-03-18
excellent	Ragusa	IT	36.92574	14.72443	08/30/2022, 00:00:00
good	Heroica Matamoros	MX	25.87972	-97.50417	2021-10-18
good	Debre Tabor	ET	11.85	38.01667	01/28/2016, 00:00:00
accep	Yenagoa	NG	4.92675	6.26764	2021-03-27
excellent	Scarsdale	US	41.0051	-73.78458	03/25/2020, 00:00:00
good	Fazilpur	PK	32.17629	75.06583	07 May 2022
excellent	Jumilla	ES	38.47917	-1.325	2017/04/22
accep	Montecchio Maggiore-Alte Ceccato	IT	45.50369	11.412	2016-05-19
excellent	Viewpark	GB	55.82737	-4.0573	2022/05/18
building	Arba Minch	ET	6.03333	37.55	02/26/2015, 00:00:00
maintenance	Culemborg	NL	51.955	5.22778	2014-05-27
accep	Privolzhskiy	RU	51.40944	46.04833	02/07/2018, 00:00:00
good	Gorakhpur	IN	26.76628	83.36889	25 Jun 2015
good	Ustka	PL	54.58048	16.86194	2020/02/28
building	Brentwood Estates	US	36.02506	-86.77917	2018/08/28
accep	Olupona	NG	7.6	4.18333	2012-11-14
average	Skalica	SK	48.8449	17.22635	02/27/2013, 00:00:00
maintenance	Aksaray	TR	38.37255	34.02537	08/08/2021, 00:00:00
average	Cuenca	EC	-2.90055	-79.00453	2020/07/30
good	San Juan	US	26.18924	-98.15529	2020-01-09
accep	Chacabuco	AR	-34.64167	-60.47389	02/03/2020, 00:00:00
average	Riverbank	US	37.73604	-120.93549	25 Apr 2020
building	Betamcherla	IN	15.45144	78.14797	05/01/2020, 00:00:00
excellent	Winsford	GB	53.19146	-2.52398	07 Aug 2018
building	East Dereham	GB	52.68333	0.93333	2019/10/12
accep	Mbalmayo	CM	3.51667	11.5	12/19/2020, 00:00:00
average	Bibiani	GH	6.46346	-2.31938	06/09/2013, 00:00:00
accep	Kampung Ayer Molek	MY	2.2139	102.3278	2013-02-08
good	Pekin	US	40.56754	-89.64066	14 Oct 2012
good	Pleasant Prairie	US	42.55308	-87.93341	2020-10-27
excellent	Dehiwala-Mount Lavinia	LK	6.84019	79.87116	2018/04/20
average	Kundla	IN	21.34222	71.30633	07/17/2019, 00:00:00
building	Acworth	US	34.06635	-84.67837	20 Aug 2019
good	Rahat	IL	31.39547	34.75699	2018-09-03
building	Cardedeu	ES	41.63976	2.35739	26 Mar 2020
excellent	Yauco	PR	18.03496	-66.8499	23 Aug 2020
good	Tak Bai	TH	6.25947	102.05461	2014/09/12
accep	Pekanbaru	ID	0.51667	101.44167	2021-08-27
average	Chacabuco	AR	-34.64167	-60.47389	05 Dec 2019
average	Teziutlan	MX	19.8173	-97.35992	03/26/2015, 00:00:00
building	Veracruz	PA	8.88988	-79.62603	01/05/2013, 00:00:00
good	Yakuplu	TR	40.98894	28.67582	08/01/2019, 00:00:00
average	Mbalmayo	CM	3.51667	11.5	2017-08-03
good	Beaconsfield	CA	45.43341	-73.86586	2020-09-16
average	Villabate	IT	38.07789	13.44275	04 Jun 2021
excellent	Collinwood	US	41.55838	-81.56929	04/09/2015, 00:00:00
maintenance	Bang Ban	TH	14.37395	100.48528	2017-12-16
good	Esmeraldas	BR	-19.7625	-44.31389	2015-05-27
good	Carnot	CF	4.94273	15.87735	20 Feb 2017
good	Las Gabias	ES	37.13548	-3.67029	2021/06/27
good	Santa Catalina	PH	9.3337	122.8637	12/17/2015, 00:00:00
average	Malaut	IN	30.21121	74.4818	2020/02/07
accep	Cavaillon	FR	43.83125	5.03586	12/30/2021, 00:00:00
accep	Hoxtolgay	CN	46.51872	86.00214	05/28/2021, 00:00:00
excellent	Oberhausen	DE	51.47805	6.8625	2015/11/22
maintenance	Zhoushan	CN	29.98869	122.20488	2018/12/03
building	San Gabriel	US	34.09611	-118.10583	10/31/2016, 00:00:00
accep	Harrisburg	US	40.2737	-76.88442	2019-07-22
building	Santa Rosa Jauregui	MX	20.74122	-100.44843	2022-03-11
good	San Juan de Aznalfarache	ES	37.35813	-6.03731	2022-07-08
average	Balikpapan	ID	-1.26753	116.82887	12/28/2018, 00:00:00
good	Olanchito	HN	15.48131	-86.57415	25 May 2022
average	Pilkhua	IN	28.71271	77.656	2021-06-15
average	Pontevedra	AR	-34.74785	-58.70072	2020-11-14
accep	Acayucan	MX	17.94979	-94.91386	2019-08-30
accep	Dehiwala-Mount Lavinia	LK	6.84019	79.87116	25 Dec 2016
accep	Scotch Plains	US	40.65538	-74.38987	10/22/2020, 00:00:00
accep	Itabirito	BR	-20.25333	-43.80139	24 Oct 2015
accep	Usagara	TZ	-2.68333	33	05/13/2017, 00:00:00
accep	Beni Khiar	TN	36.46917	10.78222	2018/07/23
average	Skalica	SK	48.8449	17.22635	13 Mar 2013
average	Gudermes	RU	43.35071	46.10925	2019-06-12
good	Taunton	US	41.9001	-71.08977	2013/05/07
excellent	Strzelce Opolskie	PL	50.5107	18.30056	30 Nov 2016
accep	Alwaye	IN	10.10649	76.35484	14 Dec 2017
good	Narwar	IN	25.6439	77.9129	02/16/2014, 00:00:00
building	Guanajuato	MX	21.01858	-101.2591	2020-08-08
average	Novogrudok	BY	53.5942	25.8191	05/30/2021, 00:00:00
excellent	Frankston South	AU	-38.16604	145.13643	04/03/2013, 00:00:00
excellent	Veracruz	PA	8.88988	-79.62603	10 Sep 2015
average	Guanajuato	MX	21.01858	-101.2591	2013-02-17
maintenance	Schleswig	DE	54.52156	9.5586	01/28/2019, 00:00:00
accep	Houthalen	BE	51.03427	5.37429	2019/01/12
average	Rudolstadt	DE	50.72043	11.34046	10/25/2021, 00:00:00
excellent	Francavilla Fontana	IT	40.53123	17.58522	26 Mar 2015
maintenance	Sishui	CN	35.64889	117.27583	2022/03/09
building	Boli	CN	45.75279	130.57211	28 Oct 2020
accep	Moga	IN	30.81383	75.16878	05/25/2022, 00:00:00
maintenance	Kheda	IN	22.75218	72.68533	28 May 2015
good	Chanika	TZ	-5.41667	38.01667	2015-07-02
excellent	Chosica	PE	-11.94306	-76.70944	10 Mar 2013
accep	Ulan Bator	MN	47.90771	106.88324	05/29/2014, 00:00:00
good	Haicheng	CN	40.85158	122.74754	08/31/2015, 00:00:00
excellent	Ajdabiya	LY	30.75545	20.22625	22 Apr 2021
good	Lal Bahadur Nagar	IN	17.34769	78.55757	2021-05-07
average	Temse	BE	51.12794	4.21372	2022/08/14
accep	Andes	CO	5.6561	-75.87877	2019/07/14
maintenance	Carnegie	AU	-37.88333	145.06667	2014-06-01
accep	Teluk Intan	MY	4.02219	101.02083	2019/10/17
accep	Danilov	RU	58.1908	40.17171	03/29/2020, 00:00:00
excellent	Montpellier	FR	43.61092	3.87723	18 Oct 2015
excellent	Madrid	CO	4.73245	-74.26419	2014/04/10
excellent	Rixensart	BE	50.71229	4.52529	2020/01/04
accep	Rosedale	US	39.32011	-76.51552	15 Nov 2014
excellent	Jinotepe	NI	11.84962	-86.19903	01/11/2015, 00:00:00
average	Leyland	GB	53.69786	-2.68758	2013/11/28
average	Sungurlu	TR	40.1675	34.37389	2020-05-17
good	Montecchio Maggiore-Alte Ceccato	IT	45.50369	11.412	2016/01/31
good	Novopavlovsk	RU	43.96222	43.63417	2020-11-20
accep	Aguadilla	PR	18.42745	-67.15407	2016-02-22
average	Hutto	US	30.5427	-97.54667	24 Feb 2022
good	San Fernando de Henares	ES	40.42386	-3.53261	01/24/2016, 00:00:00
maintenance	Roslavl‚Äô	RU	53.95278	32.86389	09/12/2017, 00:00:00
good	San Fernando de Henares	ES	40.42386	-3.53261	2012/12/07
good	Schleswig	DE	54.52156	9.5586	2021-10-28
maintenance	Sakaraha	MG	-22.9	44.53333	09 May 2013
accep	Belper	GB	53.0233	-1.48119	2017-05-31
good	Pingyi	CN	35.50056	117.63083	2018/04/29
excellent	Daud Khel	PK	32.87533	71.57118	05/06/2018, 00:00:00
average	Villa del Rosario	CO	7.83389	-72.47417	04/28/2014, 00:00:00
good	Tuxtla	MX	16.75973	-93.11308	23 Nov 2017
good	Wheelers Hill	AU	-37.9	145.18333	2019-02-07
building	Itabirito	BR	-20.25333	-43.80139	2016-07-09
average	Aleshtar	IR	33.86419	48.26258	2013-08-23
average	Ataq	YE	14.53767	46.83187	09/25/2018, 00:00:00
good	Naushahra Virkan	PK	31.96258	73.97117	12 Oct 2021
excellent	Frenda	DZ	35.06544	1.04945	03 Aug 2017
building	Bron	FR	45.73333	4.91667	09/20/2018, 00:00:00
accep	Palm Desert	US	33.72255	-116.37697	2015-10-13
good	Donggongon	MY	5.90702	116.10146	03/14/2019, 00:00:00
good	Carlos Barbosa	BR	-29.2975	-51.50361	10/12/2021, 00:00:00
excellent	Chichicastenango	GT	14.93333	-91.11667	2017/04/06
accep	Aykhal	RU	65.93381	111.4834	2022-07-09
maintenance	Okegawa	JP	36	139.55722	2013/01/31
average	Kitgum	UG	3.27833	32.88667	2019-01-05
good	Beni	CD	0.49113	29.47306	2017-10-20
maintenance	Rangia	IN	26.44931	91.61356	2016/01/17
good	Kangayam	IN	11.00599	77.5609	04 May 2021
average	Kafanchan	NG	9.58126	8.2926	15 Oct 2017
average	Glogovac	XK	42.62833	20.89389	2021-06-22
good	Nkpor	NG	6.15038	6.83042	2018-11-11
accep	Resplendor	BR	-19.32556	-41.25528	23 Dec 2017
excellent	Saint-Omer	FR	50.75	2.25	01/01/2022, 00:00:00
average	Zaozhuang	CN	34.86472	117.55417	2020-07-17
average	Jingzhou	CN	30.35028	112.19028	12/11/2012, 00:00:00
average	Gembloux	BE	50.56149	4.69889	26 Oct 2012
good	Jaruco	CU	23.04419	-82.00919	14 Aug 2022
accep	Falconara Marittima	IT	43.62558	13.39954	2020-07-18
accep	Suzaka	JP	36.65	138.31667	2018/03/01
accep	Santa Catalina	PH	9.3337	122.8637	11/29/2020, 00:00:00
building	Gonesse	FR	48.98693	2.44892	2013/07/11
maintenance	Winsford	GB	53.19146	-2.52398	05/04/2020, 00:00:00
accep	Thenia	DZ	36.72544	3.55665	08/13/2015, 00:00:00
good	Maliana	TL	-8.99167	125.21972	28 Mar 2021
excellent	Sremska Mitrovica	RS	44.97639	19.61222	2016/08/08
accep	Kundla	IN	21.34222	71.30633	2020/11/07
average	Bisceglie	IT	41.24264	16.50104	08 Apr 2020
excellent	Dharmapuri	IN	12.1277	78.15794	03/29/2021, 00:00:00
maintenance	Changzhi	CN	35.20889	111.73861	11 Dec 2016
excellent	Sambalpur	IN	21.46527	83.97573	11/02/2014, 00:00:00
good	Nidderau	DE	50.23805	8.86704	2014/06/05
good	Colomiers	FR	43.61058	1.33467	2017-08-19
average	Vernon	CA	50.26729	-119.27337	04/16/2020, 00:00:00
average	Pilar	PH	14.66	120.56528	2013-12-08
excellent	Nkpor	NG	6.15038	6.83042	01/19/2020, 00:00:00
excellent	Camayenne	GN	9.535	-13.68778	2022/01/17
maitennce	Granger	US	41.75338	-86.11084	2014/09/02
accep	Meerut	IN	28.98002	77.70636	15 Nov 2021
average	Simpang	ID	-1.26424	104.09701	2014/10/18
good	Athlone	IE	53.43333	-7.95	2019/07/24
maintenance	Nyangao	TZ	-10.33333	39.28333	26 Apr 2014
average	New Kingston	JM	18.00747	-76.78319	2015-08-07
average	Oldenzaal	NL	52.31333	6.92917	02 Dec 2015
average	Zhuangyuan	CN	37.30553	120.82747	10/14/2020, 00:00:00
good	Pucheng	CN	27.92333	118.53333	2019/02/18
excellent	Jingzhou	CN	30.35028	112.19028	06 Jan 2014
maintenance	Timaru	NZ	-44.39672	171.25364	2022/09/22
good	Yauco	PR	18.03496	-66.8499	11/05/2017, 00:00:00
accep	Nowra	AU	-34.88422	150.60036	2018-12-03
maintenance	Moga	IN	30.81383	75.16878	2014/06/01
maintenance	Pleasant Prairie	US	42.55308	-87.93341	02/16/2017, 00:00:00
average	Roslavl‚Äô	RU	53.95278	32.86389	2015-09-03
excellent	Severodvinsk	RU	64.5635	39.8302	03/08/2014, 00:00:00
accep	Arzamas	RU	55.39485	43.83992	10/14/2015, 00:00:00
excellent	El Achir	DZ	36.06386	4.62744	05/17/2016, 00:00:00
excellent	Taozhuang	CN	34.85	117.33333	07/10/2013, 00:00:00
accep	Kalavoor	IN	9.57046	76.32756	09/03/2019, 00:00:00
good	Bhuban	IN	20.88197	85.83334	2021-10-19
accep	Harrisburg	US	40.2737	-76.88442	2019/01/12
average	Longview	US	32.5007	-94.74049	2015/08/20
good	New Kingston	JM	18.00747	-76.78319	2021/04/11
average	Markham	CA	43.86682	-79.2663	29 Jan 2022
good	Porto Velho	BR	-8.76194	-63.90389	2015/12/22
average	Porto Velho	BR	-8.76194	-63.90389	09 Apr 2020
excellent	Villaquilambre	ES	42.64685	-5.55835	2012/10/05
accep	Shagamu	NG	6.8485	3.64633	23 Jul 2013
maitennce	Hungund	IN	16.06213	76.0586	2018-11-25
building	Ozersk	RU	55.75556	60.70278	05/15/2019, 00:00:00
good	Dublin	US	32.54044	-82.90375	2021-05-13
average	Thomazeau	HT	18.65297	-72.09391	2020-01-26
maintenance	Puducherry	IN	11.93381	79.82979	2016-12-14
average	Wevelgem	BE	50.8	3.16667	09/21/2018, 00:00:00
excellent	Jocotepec	MX	20.28527	-103.42897	2014/07/15
average	Exeter	GB	50.7236	-3.52751	2018-06-11
average	Iwade	JP	34.25	135.31667	2022/08/10
building	Teziutlan	MX	19.8173	-97.35992	2013-10-16
excellent	Aleshtar	IR	33.86419	48.26258	2018/12/20
good	Kent	US	47.38093	-122.23484	16 Oct 2020
accep	Novopavlovsk	RU	43.96222	43.63417	01/16/2019, 00:00:00
excellent	Artur Nogueira	BR	-22.57306	-47.1725	11/02/2015, 00:00:00
accep	Contla	MX	19.32932	-98.1664	10 May 2019
accep	Rolla	US	37.95143	-91.77127	01/03/2013, 00:00:00
excellent	Mongo	TD	12.18441	18.69303	01/06/2014, 00:00:00
good	Zaozhuang	CN	34.86472	117.55417	10/20/2014, 00:00:00
good	Huntley	US	42.16808	-88.42814	20 Sep 2019
accep	Westbury	GB	51.26	-2.1875	03/26/2018, 00:00:00
maintenance	Leland	US	34.25628	-78.04471	11 Dec 2016
accep	Tinaquillo	VE	9.91861	-68.30472	2014-02-24
accep	Andes	CO	5.6561	-75.87877	28 Feb 2021
excellent	Burgos	PH	15.72892	120.57224	04/13/2022, 00:00:00
maintenance	Villa del Rosario	CO	7.83389	-72.47417	04/22/2013, 00:00:00
excellent	Jingzhou	CN	30.35028	112.19028	2020-10-15
accep	Periyakulam	IN	10.12268	77.54372	2018-09-02
maintenance	Brzeg	PL	50.86079	17.4674	2016/04/04
accep	Jingzhou	CN	30.35028	112.19028	27 May 2021
building	Jerada	MA	34.31	-2.16	08/26/2019, 00:00:00
good	Kelowna	CA	49.88307	-119.48568	21 Feb 2014
building	Massapequa	US	40.68066	-73.47429	2018/12/20
good	Caravaca	ES	38.10558	-1.86343	10/29/2012, 00:00:00
good	Saharsa	IN	25.87498	86.59611	27 Jun 2022
accep	New City	US	41.80753	-87.65644	2016-05-26
maintenance	Harstad	NO	68.79833	16.54165	20 Apr 2020
excellent	Fontenay-aux-Roses	FR	48.79325	2.29275	2015/05/29
accep	Sojat	IN	25.92493	73.66633	14 Aug 2022
maintenance	Glogovac	XK	42.62833	20.89389	2013-12-31
good	Tudela	ES	42.06166	-1.60452	2019/01/18
maintenance	Keene	US	42.93369	-72.27814	2015-01-04
average	Sterling	US	39.00622	-77.4286	09/22/2021, 00:00:00
excellent	Nova Kakhovka	UA	46.75451	33.34864	2017-01-29
building	Pekin	US	40.56754	-89.64066	08/22/2022, 00:00:00
good	Eisen	KR	36.82167	128.63083	2017/01/06
accep	Sassari	IT	40.72586	8.55552	2015-05-27
accep	Rosemount	US	44.73941	-93.12577	25 Apr 2019
building	Santa Catalina	PH	9.3337	122.8637	13 May 2018
building	Soroca	MD	48.15659	28.28489	2013/12/28
accep	Tarakan	ID	3.31332	117.59152	08/31/2022, 00:00:00
average	Longgang	CN	37.65181	120.33063	03/21/2021, 00:00:00
good	Saharsa	IN	25.87498	86.59611	09 Apr 2013
good	Cypress Hills	US	40.67705	-73.89125	12/05/2021, 00:00:00
excellent	Catania	IT	37.49223	15.07041	2017-07-08
accep	Edremit	TR	39.59611	27.02444	21 Feb 2021
maintenance	Ngemplak	ID	-7.54972	110.71639	05/29/2016, 00:00:00
accep	Hutto	US	30.5427	-97.54667	2021/07/01
average	Hoogezand	NL	53.16167	6.76111	09/25/2016, 00:00:00
good	Sherwood Park	CA	53.51684	-113.3187	2021-12-26
building	Astara	AZ	38.45598	48.87498	07 Oct 2017
excellent	Pleasant Prairie	US	42.55308	-87.93341	05/22/2014, 00:00:00
maintenance	Okegawa	JP	36	139.55722	2021/02/16
good	Kalavoor	IN	9.57046	76.32756	01/21/2017, 00:00:00
excellent	Manjeri	IN	11.12018	76.11996	2012/11/28
average	Lal Bahadur Nagar	IN	17.34769	78.55757	21 Jun 2016
accep	Evergreen Park	US	41.72059	-87.70172	2013/05/26
average	Iturama	BR	-19.72806	-50.19556	21 Nov 2012
maintenance	Dyat‚Äôkovo	RU	53.59782	34.33825	14 May 2018
accep	Osmanabad	IN	18.18158	76.03889	02/08/2013, 00:00:00
good	Luena	AO	-11.78333	19.91667	2017/07/02
excellent	Novara	IT	45.44694	8.62118	2018/10/08
good	Valence	FR	44.92801	4.8951	01 Dec 2018
excellent	Chanika	TZ	-5.41667	38.01667	2016-11-20
building	Sathyamangalam	IN	11.50526	77.23826	06 Apr 2021
average	Gronau	DE	52.21099	7.02238	06/03/2014, 00:00:00
average	Murray	US	36.61033	-88.31476	05 May 2017
excellent	Altamira	BR	-3.20333	-52.20639	06/20/2014, 00:00:00
excellent	Itacoatiara	BR	-3.14306	-58.44417	2018/05/06
good	Villabate	IT	38.07789	13.44275	06/21/2021, 00:00:00
excellent	Korschenbroich	DE	51.19139	6.51352	10 Sep 2020
building	Gauting	DE	48.06919	11.37703	16 Mar 2015
accep	Talavera de la Reina	ES	39.96348	-4.83076	28 Feb 2017
maintenance	Goyang-si	KR	37.65639	126.835	12/27/2016, 00:00:00
excellent	Oberhausen	DE	51.47805	6.8625	11 Feb 2015
accep	Punta Gorda Isles	US	26.91756	-82.07842	26 Mar 2022
building	Kearns	US	40.65995	-111.99633	2020/04/13
maintenance	El Alia	TN	37.16911	10.03478	10/09/2018, 00:00:00
excellent	Wittenau	DE	52.59319	13.32127	2020/11/24
accep	Reda	PL	54.60528	18.34717	2016/12/21
good	Barbil	IN	22.10194	85.37752	17 Mar 2022
building	Kallio	FI	60.18427	24.95034	09 Jan 2020
accep	Odessa	US	31.84568	-102.36764	17 Aug 2017
building	Arua	UG	3.02013	30.91105	07 Jul 2019
excellent	Saratoga Springs	US	40.34912	-111.90466	12/11/2013, 00:00:00
good	Carnaxide	PT	38.72706	-9.24671	2012/10/23
good	Ovalle	CL	-30.60106	-71.19901	08 Apr 2021
good	Lakota	CI	5.84752	-5.682	10/04/2016, 00:00:00
accep	Mirriah	NE	13.70727	9.15013	2016-09-06
accep	Kati	ML	12.74409	-8.07257	04 Apr 2022
accep	Waterbury	US	41.55815	-73.0515	2015/06/22
good	Sillanwali	PK	31.82539	72.54064	11/29/2018, 00:00:00
average	Novelda	ES	38.38479	-0.76773	04/21/2022, 00:00:00
good	Rwamagana	RW	-1.9487	30.4347	09/27/2019, 00:00:00
accep	Shushary	RU	59.80917	30.38167	07/15/2018, 00:00:00
excellent	Cypress Hills	US	40.67705	-73.89125	10/25/2014, 00:00:00
average	Honda	CO	5.20856	-74.73584	23 May 2013
good	Sicklerville	US	39.71734	-74.96933	2021/01/05
good	Santa Cruz de Barahona	DO	18.20854	-71.10077	2020/12/24
average	Toba	JP	34.4833	136.84186	07/23/2013, 00:00:00
building	Mokopane	ZA	-24.19436	29.00974	2020-09-22
good	Hrazdan	AM	40.49748	44.7662	10/10/2014, 00:00:00
average	Boyeros	CU	23.0072	-82.4017	2022/07/16
building	Cardedeu	ES	41.63976	2.35739	2013-06-03
building	Lancing	GB	50.82882	-0.32247	30 Jun 2022
good	Hlukhiv	UA	51.67822	33.9162	2021/08/25
good	Fazilpur	PK	32.17629	75.06583	2019-06-06
maintenance	Randudongkal	ID	-7.0981	109.3243	2016/07/25
accep	Hasilpur	PK	29.69221	72.54566	19 May 2017
average	Kalavoor	IN	9.57046	76.32756	2016-01-23
good	Artur Nogueira	BR	-22.57306	-47.1725	10/20/2016, 00:00:00
accep	Toba	JP	34.4833	136.84186	16 Nov 2019
good	Hardenberg	NL	52.57583	6.61944	30 Aug 2019
maintenance	Otegen Batyra	KZ	43.41949	77.0202	2014/03/12
accep	Beaumont	US	33.92946	-116.97725	2018/10/12
accep	Woodbridge	US	40.5576	-74.28459	2022/06/10
maintenance	Mvomero	TZ	-6.25	38.66667	2017/02/16
building	Talavera de la Reina	ES	39.96348	-4.83076	13 Apr 2013
good	Yashkino	RU	55.8736	85.4265	2021-01-21
average	Valletta	MT	35.89972	14.51472	2020-06-12
good	Nakhon Pathom	TH	13.8196	100.04427	10/10/2020, 00:00:00
average	Clacton-on-Sea	GB	51.78967	1.15597	20 Jan 2016
average	Malaut	IN	30.21121	74.4818	09/04/2020, 00:00:00
good	Covington	US	39.08367	-84.50855	20 Apr 2020
good	Malnate	IT	45.79377	8.88104	2015/11/10
average	Yenagoa	NG	4.92675	6.26764	09 Aug 2017
accep	Custoias	PT	41.1053	-7.32097	2022-01-17
good	Rangia	IN	26.44931	91.61356	03/29/2013, 00:00:00
excellent	San Giuliano Milanese	IT	45.39402	9.29109	10/09/2012, 00:00:00
accep	Tyler	US	32.35126	-95.30106	11/14/2017, 00:00:00
building	Okahandja	NA	-21.98333	16.91667	2012-12-15
accep	Stade	DE	53.59337	9.47629	05/14/2016, 00:00:00
accep	Palm Desert	US	33.72255	-116.37697	2012/12/23
building	Pamiers	FR	43.11667	1.6	01 May 2019
excellent	Gariadhar	IN	21.53889	71.57737	05/27/2016, 00:00:00
building	Boumerdas	DZ	36.76639	3.47717	2013-02-21
average	Tupi	PH	6.33444	124.95278	2019-02-24
maintenance	Jersey City	US	40.72816	-74.07764	19 Feb 2018
excellent	Dublin	US	32.54044	-82.90375	2017-11-11
accep	Paredes	PT	41.20485	-8.33147	2018-02-22
excellent	Tonota	BW	-21.44236	27.46153	24 Apr 2013
average	Memmingen	DE	47.98372	10.18527	04 Sep 2022
maintenance	Nutley	US	40.82232	-74.15987	11/29/2015, 00:00:00
excellent	Charlottenburg-Nord	DE	52.53048	13.29371	2014-11-29
excellent	Calauan	PH	14.14989	121.3152	2013/01/30
accep	Ganei Tikva	IL	32.05971	34.8732	19 Jul 2014
good	Skalica	SK	48.8449	17.22635	29 Sep 2012
building	Salvatierra	MX	20.21322	-100.88023	11 Aug 2022
excellent	Hlukhiv	UA	51.67822	33.9162	08/12/2020, 00:00:00
excellent	Lons-le-Saunier	FR	46.67535	5.55575	09/04/2014, 00:00:00
building	Sonzacate	SV	13.73417	-89.71472	28 Feb 2017
average	Dalsingh Sarai	IN	25.66795	85.83636	07 Oct 2017
good	Recife	BR	-8.05389	-34.88111	01 Oct 2021
accep	Talavera de la Reina	ES	39.96348	-4.83076	2022/04/02
excellent	Masbate	PH	12.37169	123.62494	06/15/2018, 00:00:00
maintenance	Danilov	RU	58.1908	40.17171	05/28/2022, 00:00:00
accep	Beveren	BE	51.21187	4.25633	2014-07-21
accep	T‚Äôaebaek	KR	37.1759	128.9889	03/06/2017, 00:00:00
maintenance	Hutchinson	US	38.06084	-97.92977	12/16/2015, 00:00:00
accep	Naga	PH	10.20898	123.758	04/21/2017, 00:00:00
excellent	Periyakulam	IN	10.12268	77.54372	2014/01/18
accep	Shepetivka	UA	50.18545	27.06365	2013-01-01
excellent	Eppingen	DE	49.13645	8.91229	2022-01-25
accep	Bron	FR	45.73333	4.91667	2022/09/08
excellent	Busia	KE	0.46005	34.11169	12/07/2016, 00:00:00
good	Saraktash	RU	51.78771	56.36091	01/15/2013, 00:00:00
average	Maasin	PH	10.13361	124.84472	03/14/2013, 00:00:00
good	Gauting	DE	48.06919	11.37703	10/19/2021, 00:00:00
excellent	Morningside Heights	US	40.81	-73.9625	2018-06-14
maintenance	Elbeuf	FR	49.28669	1.00288	20 Feb 2021
accep	Rafaela	AR	-31.25033	-61.4867	2018/10/17
good	Bridgeport	US	41.16704	-73.20483	11/26/2018, 00:00:00
excellent	Lesosibirsk	RU	58.23583	92.48278	2016-11-14
average	Puducherry	IN	11.93381	79.82979	2019/02/02
excellent	Leioa	ES	43.32686	-2.98884	05/18/2022, 00:00:00
maintenance	Solntsevo	RU	55.63711	37.38115	2017-09-03
average	Shepetivka	UA	50.18545	27.06365	2015-12-28
average	Sasayama	JP	35.06667	135.21667	2019/10/19
maintenance	Itaperuna	BR	-21.205	-41.88778	2021/12/02
maintenance	Kafanchan	NG	9.58126	8.2926	21 Dec 2018
excellent	Zhoucun	CN	36.81667	117.81667	2020-06-12
acceptable	Zaysan	KZ	47.46657	84.87144	15 May 2013
average	Porterville	US	36.06523	-119.01677	02/13/2021, 00:00:00
accep	Bogovinje	MK	41.92361	20.91361	31 Jan 2018
maintenance	Nakhon Si Thammarat	TH	8.43333	99.96667	09 Jul 2017
average	Recodo	PH	6.95194	121.96361	2017-12-13
good	Naga	PH	10.20898	123.758	27 Apr 2020
maintenance	Far Rockaway	US	40.60538	-73.75513	2016-01-06
good	Rhosllanerchrugog	GB	53.00974	-3.05814	11/06/2019, 00:00:00
accep	Gandia	ES	38.96667	-0.18333	04/18/2014, 00:00:00
excellent	Culemborg	NL	51.955	5.22778	16 Aug 2013
excellent	Yanliang	CN	34.65918	109.22921	01/30/2020, 00:00:00
building	Darreh Shahr	IR	33.14447	47.3799	06/21/2019, 00:00:00
excellent	Skalica	SK	48.8449	17.22635	11/17/2021, 00:00:00
maintenance	Hakodate	JP	41.77583	140.73667	2021-07-10
maintenance	Ventimiglia	IT	43.78956	7.60872	08/05/2015, 00:00:00
maintenance	Agrigento	IT	37.31065	13.57661	2021/03/19
excellent	Ghat	LY	24.96334	10.18003	2020/03/05
building	Jalal-Abad	KG	40.93333	73	12 Dec 2018
good	Woodbridge	US	40.5576	-74.28459	2012/10/03
average	Lakewood	US	41.48199	-81.79819	2012/11/23
average	Kovylkino	RU	54.03876	43.91385	02/09/2014, 00:00:00
good	Chamba	IN	32.55531	76.12647	2016/09/13
accep	Komono	JP	35	136.51667	2017-01-16
good	Rosedale	US	39.32011	-76.51552	2021-04-09
excellent	Andijon	UZ	40.78206	72.34424	2019/11/16
accep	Keene	US	42.93369	-72.27814	2022-03-22
good	Brighton Beach	US	40.57788	-73.95958	05/02/2015, 00:00:00
good	Brighton Beach	US	40.57788	-73.95958	10 Jun 2013
building	Wevelgem	BE	50.8	3.16667	2018/01/06
accep	Buynaksk	RU	42.819	47.1192	2014/10/13
building	San Juan	US	26.18924	-98.15529	2022/08/05
accep	Ulu Tiram	MY	1.6	103.81667	26 Sep 2013
good	Okegawa	JP	36	139.55722	2015-01-27
maintenance	Patnos	TR	39.22493	42.85693	2014-08-14
accep	Guapimirim	BR	-22.53722	-42.98194	2022/03/08
good	East Haven	US	41.27621	-72.86843	2020-07-05
excellent	Astara	AZ	38.45598	48.87498	04/16/2021, 00:00:00
good	Tonga	CM	4.96667	10.7	2016/11/28
accep	Luena	AO	-11.78333	19.91667	2016-12-15
building	Segundo Ensanche	ES	42.8139	-1.64295	09/22/2013, 00:00:00
average	Glogovac	XK	42.62833	20.89389	19 Oct 2019
accep	San Jose	PH	12.35275	121.06761	26 Jul 2013
accep	Privolzhskiy	RU	51.40944	46.04833	14 Oct 2020
building	West Des Moines	US	41.57721	-93.71133	22 Oct 2015
average	Pune	IN	18.51957	73.85535	2015-01-07
average	Jiangyan	CN	32.50611	120.14278	17 Nov 2019
good	Taozhuang	CN	34.85	117.33333	25 Jun 2017
maintenance	Meerut	IN	28.98002	77.70636	2019-09-06
accep	Shepetivka	UA	50.18545	27.06365	02/27/2016, 00:00:00
good	Bavly	RU	54.39304	53.26023	2022/08/11
accep	Coralville	US	41.6764	-91.58045	2019/06/09
good	Soroca	MD	48.15659	28.28489	2018-06-16
good	El Copey	CO	10.15031	-73.9614	2019-10-31
good	Pointe-Claire	CA	45.44868	-73.81669	2017-02-19
building	Misterbianco	IT	37.51803	15.00913	29 Aug 2017
excellent	Shaowu	CN	27.34089	117.4831	2019-04-27
maintenance	Albstadt	DE	48.21644	9.02596	2016-04-22
building	Ajdabiya	LY	30.75545	20.22625	13 Dec 2012
building	Arzamas	RU	55.39485	43.83992	2018/05/12
average	Canavieiras	BR	-15.675	-38.94722	2014-12-05
building	Dombivli	IN	19.21667	73.08333	08/19/2018, 00:00:00
average	Palmeira	BR	-25.42944	-50.00639	22 Nov 2021
average	Iron River	US	46.09273	-88.64235	27 Aug 2019
good	North Tustin	US	33.76446	-117.79394	2014/12/10
excellent	Pilkhua	IN	28.71271	77.656	13 Feb 2021
excellent	Jackson	US	35.61452	-88.81395	05/26/2015, 00:00:00
excellent	Porterville	US	36.06523	-119.01677	06/30/2013, 00:00:00
good	Maliana	TL	-8.99167	125.21972	2021/01/01
good	Hutchinson	US	38.06084	-97.92977	2018-01-02
good	Walton-on-the-Naze	GB	51.84819	1.26738	05/13/2020, 00:00:00
building	Mardin	TR	37.31309	40.74357	10 Jan 2017
good	Bogovinje	MK	41.92361	20.91361	2021-06-07
excellent	Nonoichi	JP	36.53333	136.61667	2017-08-21
good	Dharmapuri	IN	12.1277	78.15794	2020-07-23
accep	Cavaillon	FR	43.83125	5.03586	03/09/2017, 00:00:00
average	Palestine	US	31.76212	-95.63079	23 Feb 2022
accep	Gisborne	NZ	-38.65333	178.00417	01 Feb 2021
excellent	Negotin	RS	44.22639	22.53083	2018-08-07
good	Yao	JP	34.61667	135.6	02 Nov 2017
accep	Smolyan	BG	41.57439	24.71204	2020-09-06
excellent	Ar Ruseris	SD	11.8659	34.3869	06/07/2019, 00:00:00
accep	Pujali	IN	22.4711	88.1453	2018/04/14
excellent	Greenpoint	US	40.72371	-73.95097	2015-03-20
excellent	Gisborne	NZ	-38.65333	178.00417	2021-12-28
average	Kamina	CD	-8.73508	24.99798	2019-03-04
excellent	San Juan	US	26.18924	-98.15529	2017/09/09
excellent	New Kingston	JM	18.00747	-76.78319	2018/04/18
maintenance	Blackpool	GB	53.81667	-3.05	08/30/2019, 00:00:00
maintenance	Udumalaippettai	IN	10.58806	77.24779	22 Nov 2020
accep	Stuttgart	DE	48.78232	9.17702	2021/09/29
building	Esperanza	AR	-31.4488	-60.93173	2016-12-18
average	Srinagar	IN	34.08565	74.80555	04/05/2016, 00:00:00
accep	Lower Earley	GB	51.42708	-0.91979	2022-05-22
excellent	Malnate	IT	45.79377	8.88104	2018-05-12
average	Yangambi	CD	0.76755	24.43973	2021/07/30
building	Dawei	MM	14.0823	98.19151	03 Feb 2021
good	Gates-North Gates	US	43.16547	-77.70066	2014-05-21
maintenance	Jinotepe	NI	11.84962	-86.19903	2014-06-16
maintenance	Mongo	TD	12.18441	18.69303	2019/06/24
good	Pune	IN	18.51957	73.85535	2020-10-12
good	Winsford	GB	53.19146	-2.52398	2015-07-18
excellent	Siliana	TN	36.08497	9.37082	2020/03/01
average	Beaconsfield	CA	45.43341	-73.86586	2022-02-09
accep	Tonga	CM	4.96667	10.7	09/16/2021, 00:00:00
accep	San Giuliano Milanese	IT	45.39402	9.29109	17 Feb 2016
building	Cuenca	EC	-2.90055	-79.00453	2020/08/18
excellent	Bad Segeberg	DE	53.94313	10.30215	2020-12-03
excellent	Walton-on-the-Naze	GB	51.84819	1.26738	06/22/2016, 00:00:00
good	Arba Minch	ET	6.03333	37.55	2019-11-20
accep	Eppingen	DE	49.13645	8.91229	07/26/2019, 00:00:00
excellent	Losser	NL	52.26083	7.00417	2019-08-18
average	Sangla Hill	PK	31.71667	73.38333	2014-07-16
accep	Kashira	RU	54.84444	38.16694	18 Nov 2019
average	Severodvinsk	RU	64.5635	39.8302	02 Jan 2021
maintenance	Santa Gertrudes	BR	-22.45667	-47.53028	12/28/2020, 00:00:00
good	Chacabuco	AR	-34.64167	-60.47389	14 May 2013
average	Mardin	TR	37.31309	40.74357	2016-09-21
accep	Ozersk	RU	55.75556	60.70278	06/18/2015, 00:00:00
accep	Messaad	DZ	34.15429	3.50309	2018/05/24
accep	Pilkhua	IN	28.71271	77.656	2017-02-09
excellent	Malden	US	42.4251	-71.06616	10/04/2016, 00:00:00
excellent	Recife	BR	-8.05389	-34.88111	06/09/2022, 00:00:00
average	Chanika	TZ	-5.41667	38.01667	07/30/2018, 00:00:00
excellent	Stupino	RU	54.90083	38.07083	2015/10/27
good	Taozhuang	CN	34.85	117.33333	07 May 2017
maintenance	Pamiers	FR	43.11667	1.6	2021-12-21
accep	Kalavoor	IN	9.57046	76.32756	2020/08/10
average	American Canyon	US	38.17492	-122.2608	2018/11/01
accep	Al Jubayl	SA	27.0174	49.62251	03 Jan 2015
excellent	Pekanbaru	ID	0.51667	101.44167	12/06/2021, 00:00:00
excellent	Barracas	AR	-34.64966	-58.38341	2014-09-04
accep	Licheng	CN	23.29549	113.82465	10/06/2015, 00:00:00
average	La Ligua	CL	-32.45242	-71.23106	2013/03/06
good	Toba	JP	34.4833	136.84186	2015-12-26
accep	Crystal Lake	US	42.24113	-88.3162	2022/01/13
maintenance	Willetton	AU	-32.05251	115.88782	06/23/2017, 00:00:00
average	Scarsdale	US	41.0051	-73.78458	2013-01-21
average	Muskogee	US	35.74788	-95.36969	2014-05-13
average	Curitiba	BR	-25.42778	-49.27306	30 Apr 2016
excellent	Standerton	ZA	-26.93366	29.24152	2019-03-04
accep	Sremska Mitrovica	RS	44.97639	19.61222	2019/01/15
excellent	Punta Gorda Isles	US	26.91756	-82.07842	2015-10-16
accep	Vryheid	ZA	-27.76952	30.79165	12/08/2017, 00:00:00
good	Mianwali	PK	32.57756	71.52847	02/20/2019, 00:00:00
accep	Sillanwali	PK	31.82539	72.54064	11/21/2016, 00:00:00
building	Damnoen Saduak	TH	13.51825	99.95469	2021-12-13
accep	Kamina	CD	-8.73508	24.99798	13 Jul 2018
excellent	Budva	ME	42.28639	18.84	2021/11/18
good	Longview	US	32.5007	-94.74049	12 Mar 2021
good	Lymington	GB	50.75767	-1.5443	17 Jul 2014
average	Odessa	US	31.84568	-102.36764	28 Oct 2015
average	Yingkou	CN	40.66482	122.22833	2020-10-08
good	Narva	EE	59.37722	28.19028	2019/05/11
good	Davis	US	38.54491	-121.74052	27 Jun 2019
average	Bhayandar	IN	19.30157	72.85107	2014-08-24
average	Hofheim am Taunus	DE	50.09019	8.4493	2018-01-29
average	Bergama	TR	39.12074	27.18052	03 Oct 2016
average	Campobasso	IT	41.55947	14.66737	03 Jun 2015
building	Novelda	ES	38.38479	-0.76773	02/11/2019, 00:00:00
excellent	Elamanchili	IN	17.54907	82.85749	13 Aug 2019
excellent	Manjeri	IN	11.12018	76.11996	2019/10/31
accep	Sangla Hill	PK	31.71667	73.38333	2013/03/10
average	Eisen	KR	36.82167	128.63083	2021/07/09
average	Beni Douala	DZ	36.61954	4.08282	2019/06/11
good	Paracho de Verduzco	MX	19.64745	-102.04897	2012/12/17
accep	Sorsogon	PH	12.97389	123.99333	2013-05-17
excellent	Paracho de Verduzco	MX	19.64745	-102.04897	2021-03-01
building	Leteri	IN	24.05979	77.40858	10/18/2017, 00:00:00
excellent	El Alia	TN	37.16911	10.03478	03/21/2015, 00:00:00
excellent	Toba	JP	34.4833	136.84186	11 Feb 2013
average	Mardin	TR	37.31309	40.74357	2018/03/06
maintenance	Moga	IN	30.81383	75.16878	2013-06-07
average	Saharsa	IN	25.87498	86.59611	02/08/2017, 00:00:00
average	Thenia	DZ	36.72544	3.55665	2019-05-01
good	Valinhos	BR	-22.97056	-46.99583	05 Feb 2021
building	Altamira	BR	-3.20333	-52.20639	2020/07/08
accep	Tsuen Wan	HK	22.37066	114.10479	2013/10/31
accep	Bisceglie	IT	41.24264	16.50104	2018-04-02
good	Greenville	US	33.41012	-91.06177	2020-05-02
average	Jashpurnagar	IN	22.88783	84.13864	2013-11-18
excellent	Kamina	CD	-8.73508	24.99798	2018/01/26
good	Gifhorn	DE	52.47774	10.5511	2015-10-10
good	San Juan	US	26.18924	-98.15529	2019-01-11
excellent	Saraj	MK	42	21.32778	25 Jun 2016
average	Iwade	JP	34.25	135.31667	20 Apr 2014
average	Fort Washington	US	38.70734	-77.02303	07/09/2021, 00:00:00
average	Petrozavodsk	RU	61.78491	34.34691	06/18/2017, 00:00:00
good	Osmanabad	IN	18.18158	76.03889	29 Mar 2016
accep	Reus	ES	41.15612	1.10687	12 Jun 2017
accep	Pune	IN	18.51957	73.85535	10/29/2017, 00:00:00
average	Ar Ruseris	SD	11.8659	34.3869	2013/02/23
average	Montpellier	FR	43.61092	3.87723	2020/10/21
good	Kyaikto	MM	17.30858	97.01124	24 Apr 2016
accep	Bretten	DE	49.03685	8.70745	12 May 2021
good	Sun City Center	US	27.71809	-82.35176	2019/07/22
accep	Caravaca	ES	38.10558	-1.86343	01/11/2014, 00:00:00
average	Granger	US	41.75338	-86.11084	10 Aug 2021
average	Casa Blanca	MX	19.04222	-98.11889	12/25/2013, 00:00:00
accep	Bogovinje	MK	41.92361	20.91361	2013-02-02
average	Searcy	US	35.25064	-91.73625	16 May 2019
excellent	Nutley	US	40.82232	-74.15987	11/02/2013, 00:00:00
accep	Kafanchan	NG	9.58126	8.2926	2017/10/17
accep	Jais	IN	26.2649	81.54855	25 Aug 2018
good	Lagos	NG	6.45407	3.39467	2019/03/03
maintenance	Dax	FR	43.71032	-1.05366	2017/09/25
building	Krymsk	RU	44.92934	37.99117	26 Jan 2015
good	Norco	US	33.93113	-117.54866	2020-03-13
accep	Memmingen	DE	47.98372	10.18527	25 Jul 2016
maintenance	Columbia Heights	US	45.0408	-93.263	2021/05/26
building	Toba	JP	34.4833	136.84186	19 Sep 2019
average	Bisceglie	IT	41.24264	16.50104	2022/02/22
accep	Jalal-Abad	KG	40.93333	73	2016-12-21
good	Bavly	RU	54.39304	53.26023	06/19/2013, 00:00:00
excellent	Palmeira	BR	-25.42944	-50.00639	2014/03/12
accep	East Haven	US	41.27621	-72.86843	10 Mar 2016
accep	Periyakulam	IN	10.12268	77.54372	10/24/2013, 00:00:00
accep	Palmeira	BR	-25.42944	-50.00639	05/12/2019, 00:00:00
excellent	Baki	SO	9.89206	43.38531	2022/03/19
building	Dahlem	DE	52.4581	13.28702	07/21/2016, 00:00:00
good	Niort	FR	46.32313	-0.45877	2013/03/13
accep	Hermsdorf	DE	52.61131	13.31783	15 Feb 2020
excellent	Carnot	CF	4.94273	15.87735	2017/04/23
maintenance	Murray	US	36.61033	-88.31476	04/08/2018, 00:00:00
average	El Copey	CO	10.15031	-73.9614	21 Jul 2020
building	American Canyon	US	38.17492	-122.2608	2014-03-04
accep	Beryozovsky	RU	56.9083	60.8019	2021/06/18
excellent	Dipolog	PH	8.56697	123.33471	2019/10/15
average	Nyahururu	KE	0.03813	36.36339	2018-11-10
good	Usagara	TZ	-2.68333	33	10 Dec 2020
average	Kolomyagi	RU	60.02427	30.28491	17 Jan 2015
average	Somma Vesuviana	IT	40.87329	14.43865	10/25/2018, 00:00:00
building	Recife	BR	-8.05389	-34.88111	2019/11/03
average	Gainsborough	GB	53.38333	-0.76667	08 Feb 2014
building	Manaoag	PH	16.0438	120.4861	2017/08/24
building	Tadmur	SY	34.5624	38.28402	2013/07/10
average	Jizzax	UZ	40.11583	67.84222	30 May 2013
accep	West Chester	US	39.96097	-75.60804	11/04/2012, 00:00:00
accep	Oktyabr‚Äôskiy	RU	54.48147	53.47103	18 Apr 2015
excellent	Yakuplu	TR	40.98894	28.67582	2012-11-10
