code	QoS	station	latitude	revision	longitude
GB	accep	Arbroath	56.56317	2014-02-03	-2.58736
PK	average	Sillanwali	31.82539	01 Jan 2018	72.54064
GN	building	Camayenne	9.535	2015-06-29	-13.68778
ES	acceptable	Segundo Ensanche	42.8139	2021/02/11	-1.64295
RU	average	Valday	57.97472	2018/01/14	33.2525
FR	good	Fontenay-aux-Roses	48.79325	2018-07-24	2.29275
UG	good	Kitgum	3.27833	20 Aug 2013	32.88667
KZ	average	Kyzylorda	44.85278	2015-07-11	65.50917
US	accep	San Juan	26.18924	2019/09/27	-98.15529
JP	average	Shinshiro	34.9	04/19/2022, 00:00:00	137.5
KE	excellent	Nyahururu	0.03813	2022-05-17	36.36339
CN	maintenance	Hoxtolgay	46.51872	22 Aug 2016	86.00214
US	excellent	Woodbridge	40.5576	2022-08-23	-74.28459
LY	accep	Ajdabiya	30.75545	2019-08-29	20.22625
NG	building	Gaya	11.86064	2013/12/28	9.0027
CL	building	Ovalle	-30.60106	01/03/2013, 00:00:00	-71.19901
GB	good	Penzance	50.11861	12/11/2019, 00:00:00	-5.53715
US	excellent	Fayetteville	35.05266	01/02/2021, 00:00:00	-78.87836
TR	excellent	Mudanya	40.37528	2021/11/25	28.88222
LT	excellent	Ukmerge	55.25	2018/09/26	24.75
ES	accep	Puertollano	38.68712	2019/04/15	-4.10734
JP	good	Hakodate	41.77583	2021/01/31	140.73667
AU	good	Willetton	-32.05251	12 May 2020	115.88782
US	building	Granger	41.75338	2022/02/05	-86.11084
BR	accep	Loanda	-22.92306	19 Jan 2020	-53.13722
RU	accep	Nizhniy Lomov	53.53041	28 Jun 2018	43.67663
IL	maintenance	Ramla	31.92923	2014/09/29	34.86563
CN	average	Nanpiao	41.09822	2013-06-18	120.74792
UZ	excellent	Parkent	41.29444	05/03/2017, 00:00:00	69.67639
DE	average	Hechingen	48.35149	2022-02-11	8.96317
US	maintenance	Covington	39.08367	2016/11/24	-84.50855
US	good	Gilbert	33.35283	2022/05/15	-111.78903
CL	average	Chiguayante	-36.9256	12/15/2015, 00:00:00	-73.02841
DE	good	Reutlingen	48.49144	28 Apr 2022	9.20427
LY	excellent	Ajdabiya	30.75545	02/04/2015, 00:00:00	20.22625
PL	average	Reda	54.60528	2022/05/26	18.34717
AZ	accep	Astara	38.45598	02/01/2021, 00:00:00	48.87498
ID	average	Ngemplak	-7.54972	03/21/2020, 00:00:00	110.71639
GM	average	Farafenni	13.56667	17 Jun 2022	-15.6
CN	good	Shaowu	27.34089	21 Oct 2017	117.4831
PH	average	La Trinidad	16.455	2017-11-15	120.5875
IN	excellent	Kashipur	29.21399	2022/03/08	78.95693
GB	average	East Dereham	52.68333	2013-02-07	0.93333
RU	excellent	Aykhal	65.93381	05/14/2017, 00:00:00	111.4834
CU	accep	Boyeros	23.0072	2018-06-07	-82.4017
RU	average	Kireyevsk	53.93361	24 Dec 2016	37.92792
US	accep	Tyler	32.35126	2019-02-02	-95.30106
BG	good	Montana	43.4125	2014-06-15	23.225
GB	maintenance	Devizes	51.35084	2019-10-21	-1.99421
JP	good	Kamakura	35.30889	2018/08/20	139.55028
CM	average	Idenao	4.2475	2017-07-31	9.00472
IN	excellent	Rafiganj	24.81757	06/24/2015, 00:00:00	84.63445
RS	excellent	Negotin	44.22639	06 Apr 2013	22.53083
JP	accep	Ina	35.82756	01/12/2019, 00:00:00	137.95378
RU	maintenance	Arzamas	55.39485	2013/11/30	43.83992
BR	building	Resplendor	-19.32556	2016/05/06	-41.25528
GB	maintenance	Strood	51.39323	19 Aug 2020	0.47713
ES	accep	Reus	41.15612	24 Feb 2017	1.10687
RS	excellent	Negotin	44.22639	2015-11-15	22.53083
US	maintenance	Woodlawn	39.32288	2019/12/03	-76.72803
US	good	Huntley	42.16808	2018/09/22	-88.42814
JP	average	Fujioka	36.24624	2022-06-01	139.07204
MG	good	Ikalamavony	-21.15	10/30/2014, 00:00:00	46.58333
TZ	accep	Mwandiga	-4.83	2017/09/17	29.65806
KZ	good	Kyzylorda	44.85278	2017-07-28	65.50917
DE	accep	Wittenau	52.59319	2018-09-15	13.32127
RU	building	Yablonovskiy	44.98901	08 Jun 2015	38.94324
VE	good	Barinas	8.62261	05/08/2018, 00:00:00	-70.20749
DE	accep	Reutlingen	48.49144	2015/12/01	9.20427
IL	excellent	Ramla	31.92923	28 Dec 2016	34.86563
US	excellent	Lutz	28.15112	18 Jun 2015	-82.46148
TH	excellent	Damnoen Saduak	13.51825	12/12/2017, 00:00:00	99.95469
DE	excellent	Schwalmtal	51.21667	2016/04/02	6.26667
DZ	excellent	Thenia	36.72544	03/02/2020, 00:00:00	3.55665
US	accep	Sun City Center	27.71809	03/28/2019, 00:00:00	-82.35176
IN	average	Osmanabad	18.18158	2019/04/20	76.03889
VE	good	Tinaquillo	9.91861	2018/12/22	-68.30472
US	average	Port Richmond	40.63316	16 Aug 2021	-74.13653
CR	maintenance	Liberia	10.63504	2016/08/08	-85.43772
RU	accep	Yablonovskiy	44.98901	07/18/2015, 00:00:00	38.94324
MX	excellent	Jocotepec	20.28527	12/08/2021, 00:00:00	-103.42897
PH	maintenance	Sorsogon	12.97389	2021/01/23	123.99333
BW	average	Tonota	-21.44236	10/25/2013, 00:00:00	27.46153
NG	excellent	Ilesa	7.62789	2022/09/13	4.74161
IN	good	Gingee	12.25282	06/02/2014, 00:00:00	79.41727
BR	good	Porto Velho	-8.76194	2014/01/16	-63.90389
BR	accep	Resplendor	-19.32556	2019-10-30	-41.25528
GB	maintenance	Leyland	53.69786	26 Nov 2013	-2.68758
BD	maintenance	Manikchari	22.83957	12/05/2012, 00:00:00	91.84128
US	accep	Opportunity	47.64995	05/22/2020, 00:00:00	-117.23991
US	good	Lexington	33.98154	26 May 2018	-81.23621
RU	excellent	Tver	56.85836	2018/07/10	35.90057
RU	average	Danilov	58.1908	2022/08/01	40.17171
BE	average	Temse	51.12794	2014/02/01	4.21372
RU	average	Shushary	59.80917	09 Nov 2016	30.38167
CA	building	Dorval	45.4473	2021/02/14	-73.75335
PR	excellent	Yauco	18.03496	2020-05-30	-66.8499
CN	good	Pingyi	35.50056	2016-02-02	117.63083
BR	good	Lagarto	-10.91722	12/29/2016, 00:00:00	-37.65
ID	average	Balikpapan	-1.26753	2013-10-11	116.82887
US	excellent	Keizer	44.99012	2017-01-20	-123.02621
DE	excellent	Charlottenburg-Nord	52.53048	04 Oct 2019	13.29371
RU	good	Malakhovka	55.64776	07/27/2018, 00:00:00	38.02486
CD	average	Kasangulu	-4.5833	30 May 2021	15.16554
ML	excellent	Kati	12.74409	2015/12/22	-8.07257
NL	good	Zeist	52.09	2018/01/25	5.23333
US	excellent	Lutz	28.15112	11 Mar 2022	-82.46148
FR	maintenance	Niort	46.32313	2018-10-25	-0.45877
RU	maintenance	Nizhniy Lomov	53.53041	2016/05/05	43.67663
SO	accep	Baki	9.89206	04/15/2014, 00:00:00	43.38531
GB	good	Great Wyrley	52.66277	12 Sep 2021	-2.01111
CL	maintenance	Chiguayante	-36.9256	2016-05-04	-73.02841
DE	building	Friedberg	48.35693	2018/10/29	10.98461
PL	good	Zgorzelec	51.14942	10 Dec 2019	15.00835
FR	average	Herblay	48.98994	2019/01/23	2.1699
IN	building	Kashipur	29.21399	14 Nov 2020	78.95693
TZ	excellent	Usagara	-2.68333	2019-01-18	33
ID	good	Balikpapan	-1.26753	09/15/2019, 00:00:00	116.82887
CA	good	Kelowna	49.88307	04/30/2018, 00:00:00	-119.48568
IN	good	Srinagar	34.08565	05 Nov 2019	74.80555
IN	good	Kashipur	29.21399	10/12/2013, 00:00:00	78.95693
MN	average	Ulan Bator	47.90771	18 Apr 2017	106.88324
CO	good	San Carlos	8.79577	2019-03-23	-75.69947
RU	average	Volokolamsk	56.03361	2021-02-25	35.96944
US	good	Tupelo	34.25807	10/25/2014, 00:00:00	-88.70464
US	maintenance	Pottstown	40.24537	06 Jan 2019	-75.64963
CN	accep	Hengshui	37.73222	09/29/2015, 00:00:00	115.70111
MX	building	San Lorenzo Acopilco	19.32889	2022/07/16	-99.32556
DE	maintenance	Stade	53.59337	2021/01/10	9.47629
MX	excellent	Tuxtla	16.75973	18 Nov 2013	-93.11308
TH	good	Nakhon Si Thammarat	8.43333	06/20/2019, 00:00:00	99.96667
GB	average	Lancing	50.82882	2016/05/09	-0.32247
LT	excellent	Alytus	54.39635	2018/11/23	24.04142
TR	maintenance	Aksaray	38.37255	2021/08/18	34.02537
MM	accep	Dawei	14.0823	2021-11-03	98.19151
CN	excellent	Changzhi	35.20889	2020/05/20	111.73861
CU	average	Jaruco	23.04419	26 Nov 2015	-82.00919
PH	accep	Jagna	9.6531	2021-12-10	124.3697
CN	average	Dongdu	35.85	2014/04/17	117.7
DE	good	Korschenbroich	51.19139	2019/08/23	6.51352
CN	average	Ulanhot	46.08333	2014/06/04	122.08333
MY	good	Batu Feringgi	5.4709	2016/05/05	100.24529
KE	maintenance	Busia	0.46005	2021/08/05	34.11169
RU	accep	Yashkino	55.8736	2022/01/13	85.4265
CA	building	Pointe-Claire	45.44868	08/04/2016, 00:00:00	-73.81669
HT	good	Croix-des-Bouquets	18.57677	12 Nov 2021	-72.22625
FR	maintenance	Bobigny	48.90982	2017-06-13	2.45012
IT	average	Misterbianco	37.51803	24 Oct 2013	15.00913
ES	excellent	Caravaca	38.10558	2022-06-18	-1.86343
IN	accep	Aistala	23.18	26 Aug 2014	88.58
DE	excellent	Ehingen	48.28259	04/04/2019, 00:00:00	9.72749
DE	good	Weimar	50.9803	2017-01-20	11.32903
GB	average	Devizes	51.35084	2017-07-21	-1.99421
US	good	Clermont	28.54944	10 Apr 2018	-81.77285
GE	building	Kobuleti	41.82143	2017/11/07	41.77921
RU	excellent	Lesnoy	58.63667	2015/09/07	59.80222
RU	excellent	Arzamas	55.39485	09/06/2016, 00:00:00	43.83992
US	average	Brentwood Estates	36.02506	12/31/2019, 00:00:00	-86.77917
CH	building	Onex	46.18396	03/14/2016, 00:00:00	6.10237
ID	good	Muncar	-8.43333	2020-09-03	114.33333
DE	accep	Ehingen	48.28259	2020-02-24	9.72749
DE	excellent	Nidderau	50.23805	07/26/2022, 00:00:00	8.86704
HK	average	Tsuen Wan	22.37066	2020/09/26	114.10479
NG	good	Kafanchan	9.58126	2014/09/26	8.2926
US	maintenance	Saratoga Springs	40.34912	27 Jun 2019	-111.90466
BO	good	Tupiza	-21.44345	2020-04-21	-65.71875
FR	average	Gonesse	48.98693	09/27/2013, 00:00:00	2.44892
US	excellent	Iron River	46.09273	2014-06-21	-88.64235
AR	average	Aguilares	-27.4338	21 Jun 2020	-65.61427
AT	average	Floridsdorf	48.25	2016/06/08	16.4
PL	acceptable	Strzelce Opolskie	50.5107	2022/09/20	18.30056
SV	average	Sonzacate	13.73417	2013/10/30	-89.71472
IL	average	Ganei Tikva	32.05971	2018-07-10	34.8732
US	excellent	Lexington	33.98154	2016-03-10	-81.23621
US	maintenance	Deltona	28.90054	2021-11-19	-81.26367
RU	average	Lesnoy	58.63667	03/11/2022, 00:00:00	59.80222
RU	accep	Lesosibirsk	58.23583	2018-08-08	92.48278
ES	excellent	Cardedeu	41.63976	20 Jul 2018	2.35739
FR	accep	Saint-Omer	50.75	2016/06/25	2.25
US	average	Lutz	28.15112	2016-12-24	-82.46148
RW	accep	Rwamagana	-1.9487	2020-04-13	30.4347
DE	accep	Stuttgart	48.78232	2013-01-09	9.17702
AR	excellent	Barracas	-34.64966	2014-02-13	-58.38341
US	average	Laguna Niguel	33.52253	10/28/2014, 00:00:00	-117.70755
BR	average	Nova Xavantina	-14.66463	01/27/2020, 00:00:00	-52.35558
TH	accep	Kantharalak	14.64056	2022-09-02	104.64992
RU	average	Dyat‚Äôkovo	53.59782	05/27/2015, 00:00:00	34.33825
ID	average	Muncar	-8.43333	09/07/2019, 00:00:00	114.33333
CO	average	Socorro	6.46838	10/16/2016, 00:00:00	-73.26022
RU	building	Novopavlovsk	43.96222	2021/11/23	43.63417
CD	good	Kasangulu	-4.5833	2014-10-25	15.16554
PH	good	Cebu City	10.31672	15 Apr 2021	123.89071
MX	good	Heroica Matamoros	25.87972	06/02/2017, 00:00:00	-97.50417
CO	building	Villa del Rosario	7.83389	05/03/2021, 00:00:00	-72.47417
US	average	Gainesville	29.65163	18 Oct 2018	-82.32483
CN	average	Ulanhot	46.08333	2015-11-24	122.08333
KR	accep	Sinhyeon	34.8825	24 Mar 2019	128.62667
US	accep	Nampa	43.54072	13 Mar 2013	-116.56346
RU	good	Ulan-Ude	51.82721	12/26/2021, 00:00:00	107.60627
MX	good	Jocotepec	20.28527	03/14/2020, 00:00:00	-103.42897
MY	accep	Gua Musang	4.88441	09/24/2021, 00:00:00	101.96857
US	building	Taunton	41.9001	03 Jan 2019	-71.08977
NG	maintenance	Yenagoa	4.92675	2015-04-29	6.26764
RU	good	Krymsk	44.92934	2012-12-11	37.99117
RU	good	Oktyabr‚Äôskiy	54.48147	2014-11-11	53.47103
IN	acceptable	Dombivli	19.21667	11/27/2021, 00:00:00	73.08333
SV	building	Ilopango	13.70167	12/09/2020, 00:00:00	-89.10944
US	building	Porterville	36.06523	2016/12/31	-119.01677
RU	excellent	Bogoroditsk	53.77166	28 May 2021	38.12408
IT	average	Campobasso	41.55947	2021-07-13	14.66737
MY	average	Teluk Intan	4.02219	2013-10-18	101.02083
SA	building	Al Jubayl	27.0174	2019/12/23	49.62251
DE	average	Rudolstadt	50.72043	09/03/2019, 00:00:00	11.34046
IN	accep	Periyakulam	10.12268	01 Sep 2015	77.54372
IT	excellent	Ventimiglia	43.78956	2015-12-06	7.60872
RU	building	Novopavlovsk	43.96222	07/02/2021, 00:00:00	43.63417
FR	good	Bobigny	48.90982	14 Dec 2020	2.45012
US	excellent	Greenpoint	40.72371	2014-09-24	-73.95097
US	accep	Tupelo	34.25807	27 Dec 2013	-88.70464
CN	good	Sishui	35.64889	07/18/2020, 00:00:00	117.27583
BR	excellent	Altamira	-3.20333	28 Jun 2018	-52.20639
DE	average	Stade	53.59337	24 Feb 2017	9.47629
BR	maintenance	Imbituba	-28.24	2016-11-07	-48.67028
CL	building	San Bernardo	-33.59217	11 Dec 2020	-70.6996
ET	good	Debre Tabor	11.85	2018/01/10	38.01667
US	building	Chillum	38.96372	18 Jul 2022	-76.99081
RU	average	Ulan-Ude	51.82721	2016/04/06	107.60627
IN	excellent	Narwar	25.6439	2013-12-24	77.9129
TR	excellent	Bergama	39.12074	04 Jul 2015	27.18052
FR	excellent	Niort	46.32313	2013/08/22	-0.45877
US	accep	Fresno	29.53885	2013-01-09	-95.44744
IT	average	Agrigento	37.31065	21 Feb 2015	13.57661
GB	building	Viewpark	55.82737	07 Jan 2021	-4.0573
PT	good	Carnaxide	38.72706	03/28/2016, 00:00:00	-9.24671
AR	good	Aguilares	-27.4338	2022-07-14	-65.61427
IN	excellent	Haldwani	29.22254	27 Jan 2018	79.5286
ES	building	Caravaca	38.10558	2021/04/28	-1.86343
TR	accep	Mudanya	40.37528	2022/06/25	28.88222
YE	accep	Ataq	14.53767	03/13/2022, 00:00:00	46.83187
PL	good	Strzelce Opolskie	50.5107	04/10/2018, 00:00:00	18.30056
NG	accep	Kafanchan	9.58126	07/14/2019, 00:00:00	8.2926
BG	good	Smolyan	41.57439	14 Feb 2021	24.71204
PH	maintenance	Jagna	9.6531	2017/03/18	124.3697
US	accep	Kearns	40.65995	11 Jul 2016	-111.99633
US	accep	Sterling	39.00622	06/04/2014, 00:00:00	-77.4286
BE	accep	Mouscron	50.74497	2014-06-11	3.20639
PT	maintenance	Custoias	41.1053	22 Sep 2013	-7.32097
MX	average	Acayucan	17.94979	01/11/2019, 00:00:00	-94.91386
US	accep	Redding	40.58654	2020/03/26	-122.39168
PH	average	Naga	10.20898	10/25/2019, 00:00:00	123.758
ID	good	Pekanbaru	0.51667	2014/01/19	101.44167
US	good	Gates-North Gates	43.16547	05/02/2016, 00:00:00	-77.70066
ES	excellent	el Camp de l'Arpa del Clot	41.41204	01 Jul 2015	2.18247
CN	good	Taozhuang	34.85	29 Dec 2019	117.33333
US	good	Claremont	34.09668	2019-04-13	-117.71978
PK	good	Sangla Hill	31.71667	2021-05-21	73.38333
US	average	Acworth	34.06635	07/02/2022, 00:00:00	-84.67837
IR	building	Shahre Jadide Andisheh	35.6803	2013-01-19	51.0193
AD	good	les Escaldes	42.50729	2015/09/18	1.53414
RE	excellent	Saint-Denis	-20.88231	29 Jun 2017	55.4504
MZ	excellent	Maxixe	-23.85972	02/07/2017, 00:00:00	35.34722
RU	excellent	Malakhovka	55.64776	04/13/2019, 00:00:00	38.02486
ES	average	Palafrugell	41.91738	2019-05-16	3.1631
DZ	accep	El Achir	36.06386	07 May 2015	4.62744
JP	maintenance	Toyokawa	34.81667	2016-02-02	137.4
JP	average	Komono	35	25 Jan 2013	136.51667
CN	accep	Zhoushan	29.98869	2013/10/11	122.20488
GB	excellent	Westbury	51.26	03/05/2017, 00:00:00	-2.1875
US	maintenance	Yonkers	40.93121	2021-07-11	-73.89875
JP	accep	Sasayama	35.06667	17 Feb 2018	135.21667
BR	excellent	Nova Xavantina	-14.66463	2018-06-16	-52.35558
FR	excellent	Valence	44.92801	28 Jan 2018	4.8951
MG	building	Antanifotsy	-19.65	2018/08/31	47.31667
US	good	Muskogee	35.74788	20 Jul 2016	-95.36969
CN	good	Zhuangyuan	37.30553	06 Jan 2021	120.82747
IT	accep	Sassari	40.72586	2020/08/17	8.55552
NG	building	Lagos	6.45407	05/04/2014, 00:00:00	3.39467
GB	building	Southsea	50.79205	05 Sep 2022	-1.08593
CZ	excellent	Karlovy Vary	50.23271	2016/12/18	12.87117
LR	average	New Yekepa	7.57944	03/11/2018, 00:00:00	-8.53778
US	accep	Hueytown	33.45122	2018/03/20	-86.99666
CF	accep	Carnot	4.94273	2017-07-26	15.87735
PK	accep	Hasilpur	29.69221	21 Jul 2018	72.54566
GB	excellent	Exeter	50.7236	16 Mar 2022	-3.52751
US	accep	North Lauderdale	26.2173	05/20/2021, 00:00:00	-80.22588
US	good	Kearns	40.65995	19 Nov 2019	-111.99633
JP	good	Komono	35	2014-01-09	136.51667
DK	excellent	Frederiksberg	55.67938	2016-02-03	12.53463
US	good	Pottstown	40.24537	11/05/2020, 00:00:00	-75.64963
CN	average	Zhoushan	29.98869	2018-02-01	122.20488
JP	good	Ueno-ebisumachi	34.75856	2022/08/27	136.13108
CN	excellent	Sishui	35.64889	12/25/2013, 00:00:00	117.27583
AU	excellent	Perth	-31.95224	08/11/2015, 00:00:00	115.8614
DE	accep	Schleswig	54.52156	2013-11-27	9.5586
TN	excellent	Beni Khiar	36.46917	2018/04/01	10.78222
BG	average	Smolyan	41.57439	19 Jul 2014	24.71204
BR	excellent	Altamira	-3.20333	2013/07/24	-52.20639
US	good	Westchester	41.85059	2014-07-29	-87.882
US	average	Redding	40.58654	10 Sep 2019	-122.39168
MX	good	Casa Blanca	19.04222	20 Dec 2015	-98.11889
BR	building	Itabirito	-20.25333	30 Aug 2015	-43.80139
IN	building	Puducherry	11.93381	2015/03/29	79.82979
CL	excellent	Chiguayante	-36.9256	2016/11/08	-73.02841
BR	accep	Miracema	-21.41222	2016-11-04	-42.19667
IN	good	Sirsi	14.62072	05 Jan 2022	74.83554
AT	average	Floridsdorf	48.25	09/26/2014, 00:00:00	16.4
IR	excellent	Darreh Shahr	33.14447	2018/04/02	47.3799
RU	average	Arzamas	55.39485	2021/01/05	43.83992
BR	excellent	Palmeira	-25.42944	2018/09/21	-50.00639
TZ	average	Mvomero	-6.25	12 Feb 2018	38.66667
VE	excellent	Tinaquillo	9.91861	15 Oct 2021	-68.30472
GB	average	Lymington	50.75767	2020/06/30	-1.5443
MX	average	Tuxtla	16.75973	01/18/2014, 00:00:00	-93.11308
EC	accep	Cuenca	-2.90055	2017-09-16	-79.00453
RU	accep	Saraktash	51.78771	19 May 2021	56.36091
PH	accep	Maasin	10.13361	2017/11/03	124.84472
BR	maintenance	Pato Branco	-26.22861	08/13/2022, 00:00:00	-52.67056
JP	maintenance	Motomachi	43.82634	2018/09/22	144.09638
ID	excellent	Besuki	-7.73379	2020-12-13	113.69785
TJ	excellent	Vahdat	38.55632	2019/08/01	69.01354
IN	maintenance	Tiruppuvanam	9.82564	2021/06/01	78.25795
US	good	Iron River	46.09273	2018/03/16	-88.64235
PH	excellent	Guyong	14.8361	02/21/2019, 00:00:00	120.97844
UA	average	Artsyz	45.99194	2021/03/22	29.41824
US	building	Gainesville	29.65163	2017/11/04	-82.32483
AR	good	Aguilares	-27.4338	02/20/2013, 00:00:00	-65.61427
FR	good	Pamiers	43.11667	12/02/2014, 00:00:00	1.6
PH	average	Santa Catalina	9.3337	2020/02/15	122.8637
BR	maintenance	Alfenas	-21.42917	01/12/2016, 00:00:00	-45.94722
RU	building	Ozersk	55.75556	10/27/2014, 00:00:00	60.70278
GB	maintenance	Westbury	51.26	2021/04/24	-2.1875
US	good	Palestine	31.76212	12/17/2012, 00:00:00	-95.63079
EG	average	Alexandria	31.20176	2016/08/24	29.91582
ES	good	Ferrol	43.48961	2012/10/28	-8.2194
BD	average	Manikchari	22.83957	2020/02/13	91.84128
CN	average	Beidao	34.56861	08/07/2014, 00:00:00	105.89333
IN	excellent	Osmanabad	18.18158	10 Dec 2016	76.03889
US	maintenance	Lompoc	34.63915	2017-05-09	-120.45794
MY	good	Teluk Intan	4.02219	2020/01/17	101.02083
CA	average	Charlottetown	46.23899	12/30/2013, 00:00:00	-63.13414
HN	acceptable	Olanchito	15.48131	2017/01/27	-86.57415
FR	excellent	Lons-le-Saunier	46.67535	12/19/2020, 00:00:00	5.55575
BR	accep	Soure	-0.71667	22 Jan 2015	-48.52333
ID	excellent	Pameungpeuk	-7.01833	05/11/2013, 00:00:00	107.60389
US	good	Columbia Heights	45.0408	04/30/2016, 00:00:00	-93.263
DE	good	Stuttgart	48.78232	06 Apr 2016	9.17702
MX	maintenance	Contla	19.32932	26 May 2016	-98.1664
US	good	Copperas Cove	31.12406	2014/07/29	-97.90308
DZ	good	El Achir	36.06386	2022/02/12	4.62744
RU	average	Naro-Fominsk	55.38752	04/04/2019, 00:00:00	36.73307
DE	average	Ehingen	48.28259	2016/02/14	9.72749
KR	maintenance	Hongseong	36.6009	05/12/2022, 00:00:00	126.665
CN	maintenance	Longgang	37.65181	05/11/2022, 00:00:00	120.33063
IT	maintenance	Castelfranco Emilia	44.59445	2020/04/01	11.04979
BG	excellent	Montana	43.4125	2020-05-24	23.225
CA	accep	Markham	43.86682	2019/02/22	-79.2663
US	average	Brenham	30.16688	20 Jan 2020	-96.39774
US	excellent	Westchester	41.85059	2013/09/07	-87.882
ES	good	San Juan de Aznalfarache	37.35813	04/22/2021, 00:00:00	-6.03731
BR	excellent	Caldas Novas	-17.74431	21 Jul 2016	-48.62789
PH	excellent	Talisay	10.7375	2019-12-06	122.9666
JM	average	New Kingston	18.00747	2016-09-11	-76.78319
BE	accep	Beveren	51.21187	2017/08/17	4.25633
IN	excellent	Patti	31.28092	06/07/2022, 00:00:00	74.85849
IT	good	Francavilla Fontana	40.53123	2018/11/27	17.58522
US	average	Huntley	42.16808	2018/01/13	-88.42814
US	building	Lompoc	34.63915	12/17/2016, 00:00:00	-120.45794
CA	accep	Sherwood Park	53.51684	2015/12/11	-113.3187
DE	building	Hofheim am Taunus	50.09019	09/16/2017, 00:00:00	8.4493
SO	accep	Kismayo	-0.35817	14 May 2019	42.54536
IT	average	Castelfranco Emilia	44.59445	24 Aug 2013	11.04979
US	good	Evergreen Park	41.72059	2019-12-15	-87.70172
AD	good	les Escaldes	42.50729	2013-11-10	1.53414
US	excellent	Schererville	41.47892	2019-02-10	-87.45476
GB	average	Selby	53.78333	2012-10-19	-1.06667
BY	accep	Novogrudok	53.5942	2017-02-12	25.8191
IN	accep	Rajaori	33.37526	2022/06/25	74.3092
US	good	Woodbridge	40.5576	11/10/2015, 00:00:00	-74.28459
JP	maintenance	Sasayama	35.06667	2020/06/21	135.21667
GB	good	Lymington	50.75767	07/15/2015, 00:00:00	-1.5443
NZ	average	Timaru	-44.39672	2013/02/04	171.25364
CL	accep	La Ligua	-32.45242	10/04/2017, 00:00:00	-71.23106
BR	accep	Guapimirim	-22.53722	2019-06-09	-42.98194
ES	average	Palafrugell	41.91738	2016-08-26	3.1631
MG	accep	Ambatondrazaka	-17.83333	11 Jan 2022	48.41667
CL	excellent	La Ligua	-32.45242	07/31/2020, 00:00:00	-71.23106
US	excellent	Camarillo	34.21639	2018-12-16	-119.0376
US	accep	Nutley	40.82232	2018-09-03	-74.15987
CN	excellent	Jiangyan	32.50611	2016/05/14	120.14278
US	accep	Sicklerville	39.71734	02/25/2019, 00:00:00	-74.96933
RE	excellent	Saint-Denis	-20.88231	07 Jul 2022	55.4504
UA	excellent	Shepetivka	50.18545	2022-08-03	27.06365
US	excellent	Independence	39.09112	2019/06/09	-94.41551
ES	average	Baza	37.49073	2012-12-16	-2.77259
GH	excellent	Mampong	7.06273	2012-11-07	-1.4001
BR	accep	Canavieiras	-15.675	2012/10/15	-38.94722
CN	excellent	Jingzhou	30.35028	03/02/2015, 00:00:00	112.19028
IN	accep	Haldwani	29.22254	2019/08/12	79.5286
CN	maintenance	Shuangcheng	45.35	2021/12/22	126.28333
US	good	Mira Mesa	32.9156	17 Nov 2014	-117.14392
US	average	North Lauderdale	26.2173	2019-02-13	-80.22588
PL	good	Jaworzno	50.20528	07/09/2022, 00:00:00	19.27498
US	good	Lutz	28.15112	22 Nov 2017	-82.46148
DZ	good	Bordj Zemoura	36.27462	2017/08/25	4.85668
AU	accep	Griffith	-34.28853	2020-10-24	146.05093
US	building	Santa Maria	34.95303	06/19/2016, 00:00:00	-120.43572
SO	excellent	Baki	9.89206	09/04/2019, 00:00:00	43.38531
BR	building	Palmeira	-25.42944	2017-03-31	-50.00639
RU	average	Oktyabr‚Äôskiy	54.48147	2015/08/24	53.47103
IN	good	Gingee	12.25282	2014/04/26	79.41727
PE	average	Minas de Marcona	-15.21194	04/05/2019, 00:00:00	-75.11028
PH	accep	Jagna	9.6531	29 Sep 2021	124.3697
RU	average	Zhukovka	53.53395	2022/05/18	33.72798
RU	accep	Nizhniy Lomov	53.53041	2021/07/26	43.67663
IN	excellent	Kundla	21.34222	29 May 2020	71.30633
GB	accep	Selby	53.78333	02/15/2013, 00:00:00	-1.06667
NL	building	Hoogezand	53.16167	2022-07-30	6.76111
CN	building	Pingyi	35.50056	08/27/2021, 00:00:00	117.63083
RU	accep	Izluchinsk	60.97944	2018/10/22	76.92421
CN	accep	Foshan	23.02677	2020/09/21	113.13148
GB	average	High Wycombe	51.62907	03/14/2021, 00:00:00	-0.74934
CN	good	Beidao	34.56861	2021-02-19	105.89333
FR	average	Fontenay-aux-Roses	48.79325	2014/08/21	2.29275
LK	good	Dehiwala-Mount Lavinia	6.84019	2019-10-07	79.87116
CN	average	Huangshi	30.24706	2012/12/12	115.04814
HN	good	Olanchito	15.48131	2022/08/13	-86.57415
ID	good	Randudongkal	-7.0981	2019-04-13	109.3243
IN	average	Barbil	22.10194	2020/05/27	85.37752
JP	accep	Yamada	39.46667	2017-12-31	141.95
ID	good	Pameungpeuk	-7.01833	2018/07/07	107.60389
IN	maintenance	Sheoganj	25.13915	2022/02/05	73.06784
GH	building	Bibiani	6.46346	2014/04/22	-2.31938
BE	average	Temse	51.12794	2013-08-17	4.21372
US	accep	Glendale	34.14251	25 Oct 2020	-118.25508
RU	excellent	Yablonovskiy	44.98901	2017/01/08	38.94324
IT	average	Sassari	40.72586	2021/07/21	8.55552
JP	excellent	Okegawa	36	2017/01/16	139.55722
US	average	Toledo	41.66394	06 Aug 2017	-83.55521
PH	good	Recodo	6.95194	2014-10-29	121.96361
CN	good	Xiangtan	27.85	03/08/2018, 00:00:00	112.9
ID	good	Randudongkal	-7.0981	2021/01/09	109.3243
TR	accep	Yakuplu	40.98894	25 Oct 2017	28.67582
IN	accep	Gingee	12.25282	03 May 2020	79.41727
TW	accep	Magong	23.5654	11/19/2014, 00:00:00	119.58627
US	building	Brenham	30.16688	2017-10-04	-96.39774
GE	good	Kobuleti	41.82143	2014/01/26	41.77921
BG	good	Smolyan	41.57439	11 Nov 2013	24.71204
NL	accep	Vught	51.65333	2021-02-09	5.2875
CI	accep	Lakota	5.84752	06 Mar 2016	-5.682
TH	excellent	Phanat Nikhom	13.44581	01/09/2017, 00:00:00	101.18445
CA	accep	Kelowna	49.88307	2018-06-22	-119.48568
FR	excellent	Dax	43.71032	23 Sep 2014	-1.05366
MX	excellent	Heroica Matamoros	25.87972	05 Aug 2013	-97.50417
US	good	San Gabriel	34.09611	2021-08-26	-118.10583
CA	average	Dorval	45.4473	2016-04-15	-73.75335
DZ	accep	Cheraga	36.76775	25 Jul 2016	2.95924
CA	average	Dorval	45.4473	2015-09-18	-73.75335
PL	average	Ustka	54.58048	2021-08-07	16.86194
GB	excellent	High Wycombe	51.62907	10/01/2012, 00:00:00	-0.74934
US	average	Leland	34.25628	01/17/2020, 00:00:00	-78.04471
CN	good	Hushitai	41.94175	26 Oct 2018	123.50266
US	average	Kent	47.38093	03/17/2020, 00:00:00	-122.23484
ID	good	Tarakan	3.31332	2021-11-23	117.59152
US	accep	Bryn Mawr-Skyway	47.4943	05/14/2017, 00:00:00	-122.24092
CD	accep	Kamina	-8.73508	2016-09-15	24.99798
US	accep	Shreveport	32.52515	02/28/2022, 00:00:00	-93.75018
GB	accep	Surbiton	51.39148	2018-08-25	-0.29825
TH	building	Kantharalak	14.64056	2013-01-07	104.64992
GB	maintenance	Clacton-on-Sea	51.78967	18 Jul 2015	1.15597
ID	excellent	Jambi City	-1.6	2020/12/13	103.61667
DE	maintenance	Bensheim	49.68369	2017/03/01	8.61839
IN	excellent	Dombivli	19.21667	05 Apr 2021	73.08333
US	excellent	Tyler	32.35126	03 Aug 2020	-95.30106
NL	accep	Hoogezand	53.16167	2020/08/14	6.76111
CU	building	Varadero	23.15678	02/20/2017, 00:00:00	-81.24441
IN	accep	Bachhraon	28.92694	2020-09-26	78.23456
CN	good	Zaozhuang	34.86472	31 Jul 2013	117.55417
MM	excellent	Kyaikto	17.30858	23 Jul 2021	97.01124
US	accep	San Gabriel	34.09611	14 Jul 2018	-118.10583
DE	maintenance	Verl	51.88333	2016/06/20	8.51667
RU	average	Kashira	54.84444	15 Jul 2021	38.16694
IN	accep	Sirsi	14.62072	2016/03/09	74.83554
BR	average	Guaraciaba do Norte	-4.16694	2018-12-29	-40.7475
US	maintenance	Scarsdale	41.0051	2015-08-27	-73.78458
LT	good	Ukmerge	55.25	10/14/2014, 00:00:00	24.75
US	maintenance	Morningside Heights	40.81	2019/02/08	-73.9625
US	accep	Bridgeport	41.16704	01 Sep 2018	-73.20483
JP	excellent	Ina	35.82756	17 Feb 2022	137.95378
SL	average	Freetown	8.48714	05/03/2013, 00:00:00	-13.2356
BD	excellent	Manikchari	22.83957	14 Jun 2015	91.84128
JP	average	Toba	34.4833	24 Feb 2014	136.84186
SO	building	Kismayo	-0.35817	04 Dec 2020	42.54536
DE	accep	Ehingen	48.28259	02/20/2018, 00:00:00	9.72749
ES	accep	Segundo Ensanche	42.8139	11/12/2012, 00:00:00	-1.64295
US	good	Redding	40.58654	2021/10/15	-122.39168
UA	good	Artsyz	45.99194	20 Sep 2020	29.41824
PK	average	Fazilpur	32.17629	2022/06/05	75.06583
SK	average	Skalica	48.8449	27 May 2013	17.22635
MA	excellent	Temara	33.92866	2017-12-01	-6.90656
CN	accep	Pingyi	35.50056	12/05/2018, 00:00:00	117.63083
SL	excellent	Freetown	8.48714	2022-02-09	-13.2356
ES	accep	Ferrol	43.48961	15 Mar 2018	-8.2194
ID	maintenance	Diwek	-7.57897	2013/10/17	112.23109
DE	good	Barmbek-Nord	53.6052	2021-02-21	10.03988
CD	accep	Yangambi	0.76755	04/25/2022, 00:00:00	24.43973
AR	good	Ushuaia	-54.8	2018-01-17	-68.3
JP	average	Okegawa	36	14 Jul 2015	139.55722
US	average	Iron River	46.09273	2021-02-06	-88.64235
UA	maintenance	Polohy	47.48444	24 Oct 2015	36.25361
IT	acceptable	Ragusa	36.92574	28 Jun 2021	14.72443
SK	maintenance	Hlohovec	48.43174	2016-04-18	17.8031
GB	excellent	Barnet	51.65	11/07/2018, 00:00:00	-0.2
CN	average	Tianfu	37.19723	12/07/2018, 00:00:00	122.05228
BR	good	Altamira	-3.20333	2018-06-28	-52.20639
PS	accep	East Jerusalem	31.78336	07 Jan 2015	35.23388
US	accep	Iron River	46.09273	2013-02-14	-88.64235
BR	good	Palmeira	-25.42944	08/01/2022, 00:00:00	-50.00639
JP	good	Nonoichi	36.53333	2018/05/22	136.61667
KZ	accep	Kyzylorda	44.85278	26 Aug 2018	65.50917
CA	good	Norfolk County	42.8334	08/24/2015, 00:00:00	-80.38297
RU	good	Likhobory	55.85	2013/07/05	37.56667
FR	accep	Arles	43.67681	14 Jun 2013	4.63031
US	accep	Rolla	37.95143	2020-04-02	-91.77127
US	accep	Granger	41.75338	06/02/2014, 00:00:00	-86.11084
UG	good	Paidha	2.41669	07 May 2022	30.98551
GB	accep	Great Wyrley	52.66277	19 Sep 2016	-2.01111
NG	average	Argungu	12.74482	2015-05-25	4.52514
PK	accep	Hasilpur	29.69221	2016/01/22	72.54566
DE	accep	Zeitz	51.04962	2020/12/04	12.1369
AU	excellent	Strathfield	-33.88096	2012-10-07	151.07986
FR	accep	Niort	46.32313	2013/07/20	-0.45877
BR	accep	Barra dos Coqueiros	-10.90889	08/21/2017, 00:00:00	-37.03861
DE	average	Wittenau	52.59319	2014/12/12	13.32127
IN	excellent	Moga	30.81383	09/03/2013, 00:00:00	75.16878
US	good	South Lawndale	41.84364	07/22/2022, 00:00:00	-87.71255
ES	accep	Segundo Ensanche	42.8139	02 Feb 2020	-1.64295
IT	accep	Cordenons	45.9836	2015-03-22	12.70038
NG	good	Kafanchan	9.58126	05/15/2015, 00:00:00	8.2926
RU	building	Nizhniy Lomov	53.53041	03/08/2022, 00:00:00	43.67663
ID	good	Balikpapan	-1.26753	2019-08-18	116.82887
PL	accep	Strzelce Opolskie	50.5107	09/19/2014, 00:00:00	18.30056
FR	good	La Garenne-Colombes	48.90472	16 May 2015	2.2469
BR	good	Valinhos	-22.97056	2017/09/29	-46.99583
US	excellent	Bothell	47.76232	2017/09/28	-122.2054
CO	building	El Copey	10.15031	06 Aug 2017	-73.9614
BR	good	Itaperuna	-21.205	2019-06-04	-41.88778
IN	accep	Dharmapuri	12.1277	2014-01-08	78.15794
US	maintenance	Rutland	43.61062	2021-06-17	-72.97261
DE	accep	Wesseling	50.82709	2014-08-08	6.9747
CO	good	El Copey	10.15031	03/22/2013, 00:00:00	-73.9614
BR	accep	Itacoatiara	-3.14306	04/22/2016, 00:00:00	-58.44417
PK	building	Kot Addu	30.46907	2018-11-13	70.96699
BY	accep	Novogrudok	53.5942	2021/03/19	25.8191
RU	excellent	Buynaksk	42.819	12/07/2017, 00:00:00	47.1192
US	accep	West Chester	39.96097	06 Apr 2020	-75.60804
NG	average	Igbara-Odo	7.50251	2018/05/21	5.06258
RU	accep	Nikolayevsk-on-Amure	53.14657	2016-12-16	140.72287
IT	maintenance	Chiavari	44.31771	2019/03/08	9.32241
US	good	Claremont	34.09668	14 May 2022	-117.71978
EE	excellent	Narva	59.37722	2017/04/19	28.19028
DE	excellent	Charlottenburg-Nord	52.53048	11/26/2012, 00:00:00	13.29371
SY	accep	Tadmur	34.5624	2021-02-02	38.28402
US	average	Rosemount	44.73941	2017/07/20	-93.12577
FR	maintenance	Gonesse	48.98693	2014/08/30	2.44892
KR	average	Hongseong	36.6009	29 Jul 2021	126.665
TW	accep	Magong	23.5654	10/16/2019, 00:00:00	119.58627
CL	accep	La Ligua	-32.45242	2016-09-06	-71.23106
RU	good	Yashkino	55.8736	06/11/2020, 00:00:00	85.4265
MY	average	Donggongon	5.90702	07/10/2013, 00:00:00	116.10146
FR	accep	Fontenay-aux-Roses	48.79325	26 May 2013	2.29275
GB	excellent	Blackpool	53.81667	23 Sep 2019	-3.05
RU	average	Severodvinsk	64.5635	09/06/2018, 00:00:00	39.8302
FR	excellent	Valence	44.92801	02/26/2013, 00:00:00	4.8951
FR	maintenance	Vienne	45.51667	2020-07-17	4.86667
IT	average	Lanciano	42.22718	2015-07-13	14.39024
JP	accep	Ueno-ebisumachi	34.75856	02/03/2018, 00:00:00	136.13108
SK	excellent	Hlohovec	48.43174	06/10/2018, 00:00:00	17.8031
US	good	Encinitas	33.03699	28 Dec 2012	-117.29198
US	maintenance	Palm Valley	30.17746	2015/10/01	-81.38758
KH	maintenance	Paoy Paet	13.65805	12/21/2017, 00:00:00	102.56365
CN	average	Zhuangyuan	37.30553	2013-08-30	120.82747
PL	good	Reda	54.60528	2015/05/29	18.34717
US	good	Hueytown	33.45122	2020-02-18	-86.99666
US	building	Brenham	30.16688	01/22/2022, 00:00:00	-96.39774
MK	maintenance	Bogovinje	41.92361	2012/12/30	20.91361
UZ	average	Parkent	41.29444	2018-03-30	69.67639
AU	good	Perth	-31.95224	2019-09-17	115.8614
TH	average	Roi Et	16.0567	2022-02-17	103.65309
US	average	Opportunity	47.64995	10 Sep 2021	-117.23991
DE	accep	Finnentrop	51.168	2022-06-02	7.973
US	good	Leland	34.25628	2018/01/17	-78.04471
TH	accep	Thap Than	15.46063	22 Feb 2019	99.89166
NL	average	Schiebroek	51.95838	13 Nov 2017	4.47124
PK	excellent	Jhol	25.95533	20 Jun 2021	68.88871
US	excellent	Leland	34.25628	2021-08-16	-78.04471
US	excellent	Hutto	30.5427	2013-11-09	-97.54667
DE	excellent	Stuttgart	48.78232	05/24/2016, 00:00:00	9.17702
ME	maintenance	Budva	42.28639	2021-02-24	18.84
IN	average	Rajaori	33.37526	27 Jan 2013	74.3092
CN	excellent	Zhoushan	29.98869	10/19/2020, 00:00:00	122.20488
PH	excellent	Talisay	10.7375	18 Oct 2015	122.9666
BR	good	Catende	-8.66667	2017-03-18	-35.71667
US	good	Beaumont	33.92946	2015-07-13	-116.97725
NE	excellent	Mirriah	13.70727	11/09/2019, 00:00:00	9.15013
SO	good	Baki	9.89206	2021/09/23	43.38531
US	good	Pekin	40.56754	25 Oct 2013	-89.64066
NL	accep	Emmeloord	52.71083	2022/06/22	5.74861
DE	maintenance	Gifhorn	52.47774	27 Mar 2020	10.5511
ZA	good	Mokopane	-24.19436	20 Nov 2018	29.00974
IN	excellent	Robertsonpet	12.95629	2018-10-06	78.27539
US	building	Norwalk	41.24255	02/19/2020, 00:00:00	-82.61573
JP	average	Toba	34.4833	2020-06-18	136.84186
NL	good	Tongelre	51.44889	05/09/2015, 00:00:00	5.51978
CU	accep	Media Luna	20.14298	2014-02-03	-77.43532
MG	accep	Sakaraha	-22.9	2014-06-15	44.53333
FR	average	Bar-le-Duc	48.77275	05/10/2013, 00:00:00	5.16108
US	maintenance	Coralville	41.6764	2015/11/14	-91.58045
IT	maintenance	Perugia	43.1122	2019-10-13	12.38878
US	average	Keene	42.93369	27 Aug 2019	-72.27814
DE	good	Gauting	48.06919	2016/12/23	11.37703
KZ	accep	Kyzylorda	44.85278	14 Apr 2013	65.50917
US	average	Watsonville	36.91023	17 Dec 2021	-121.75689
MK	accep	Saraj	42	2021/12/18	21.32778
PS	building	East Jerusalem	31.78336	2018/06/27	35.23388
US	good	Chillum	38.96372	2020-12-17	-76.99081
ID	accep	Tarakan	3.31332	2016-12-20	117.59152
TJ	accep	Vahdat	38.55632	25 Jul 2017	69.01354
RU	excellent	Dyat‚Äôkovo	53.59782	27 Aug 2017	34.33825
DE	accep	Neuburg an der Donau	48.73218	2015-12-21	11.18709
PH	excellent	Guyong	14.8361	01/01/2013, 00:00:00	120.97844
UG	average	Kitgum	3.27833	2015-05-23	32.88667
BR	excellent	Itacoatiara	-3.14306	06 Apr 2022	-58.44417
CL	average	San Bernardo	-33.59217	2022/06/23	-70.6996
NL	excellent	Zeist	52.09	27 Mar 2018	5.23333
US	accep	Greenville	33.41012	2014/08/16	-91.06177
NA	maintenance	Okahandja	-21.98333	09/27/2017, 00:00:00	16.91667
PL	accep	Reda	54.60528	2013/06/02	18.34717
CA	excellent	Charlottetown	46.23899	08/11/2017, 00:00:00	-63.13414
US	good	Norwalk	41.24255	2014/06/12	-82.61573
ES	accep	Cardedeu	41.63976	10/02/2016, 00:00:00	2.35739
IN	good	Adra	23.49668	2017-03-07	86.68363
PT	accep	Custoias	41.1053	02 Jul 2022	-7.32097
SV	excellent	Sonzacate	13.73417	2014-03-19	-89.71472
TR	maintenance	Patnos	39.22493	05/18/2019, 00:00:00	42.85693
US	good	Belle Glade	26.68451	18 Dec 2021	-80.66756
GB	average	Winsford	53.19146	2017/07/28	-2.52398
GB	average	Cowes	50.76306	02/21/2019, 00:00:00	-1.29772
MX	accep	Oaxaca	17.06542	2014/01/23	-96.72365
US	excellent	Lompoc	34.63915	2017/11/21	-120.45794
US	building	Lebanon	39.43534	28 Dec 2012	-84.20299
BR	excellent	Barras	-4.24444	2019-06-12	-42.29444
CN	maitennce	Beidao	34.56861	11/12/2018, 00:00:00	105.89333
US	building	Fresno	29.53885	09/16/2016, 00:00:00	-95.44744
ET	average	Arba Minch	6.03333	29 Sep 2018	37.55
US	excellent	Aurora	39.72943	2015-10-20	-104.83192
MX	accep	Salvatierra	20.21322	2021/09/06	-100.88023
CA	building	Dorval	45.4473	09/10/2020, 00:00:00	-73.75335
JM	excellent	New Kingston	18.00747	2021-04-21	-76.78319
CN	accep	Hengshui	37.73222	03 Nov 2021	115.70111
ML	good	Kati	12.74409	03/04/2021, 00:00:00	-8.07257
CL	accep	Ovalle	-30.60106	05/25/2022, 00:00:00	-71.19901
GT	average	Chichicastenango	14.93333	05/15/2018, 00:00:00	-91.11667
TH	excellent	Roi Et	16.0567	2020/03/06	103.65309
JP	building	Annaka	36.33011	2018/06/12	138.89585
GB	good	Newbury	51.40148	2018/04/19	-1.32471
LY	accep	Ajdabiya	30.75545	12/18/2012, 00:00:00	20.22625
US	accep	Lutz	28.15112	14 Nov 2016	-82.46148
MG	accep	Ikalamavony	-21.15	18 Jul 2021	46.58333
US	excellent	Greenfield	39.78504	2019-09-20	-85.76942
IT	average	Catania	37.49223	2021-12-04	15.07041
RU	building	Novopavlovsk	43.96222	2022-02-27	43.63417
US	maintenance	Milledgeville	33.08014	10/18/2020, 00:00:00	-83.2321
MX	maintenance	Tuxtla	16.75973	2012-12-18	-93.11308
GB	good	Chapletown	53.46506	2020/04/08	-1.47217
US	excellent	Deltona	28.90054	08/29/2021, 00:00:00	-81.26367
RU	average	Malakhovka	55.64776	10 Dec 2012	38.02486
ID	good	Jambi City	-1.6	03 Mar 2013	103.61667
IT	average	Volla	40.87363	05/04/2015, 00:00:00	14.34085
MG	excellent	Sakaraha	-22.9	2012/11/19	44.53333
NZ	maitennce	Gisborne	-38.65333	13 Nov 2021	178.00417
MX	excellent	Zacoalco de Torres	20.22816	25 Nov 2020	-103.5687
RU	excellent	Privolzhskiy	51.40944	2020-12-05	46.04833
CN	good	Dongfeng	42.64031	2014/05/09	125.51176
PH	excellent	Manaoag	16.0438	2014/05/22	120.4861
CN	excellent	Jingzhou	30.35028	2016/02/13	112.19028
GB	accep	Strood	51.39323	01 Oct 2014	0.47713
IL	excellent	Ganei Tikva	32.05971	09/08/2013, 00:00:00	34.8732
RU	excellent	Malakhovka	55.64776	2018/08/06	38.02486
US	accep	Toledo	41.66394	09/18/2014, 00:00:00	-83.55521
CG	excellent	Brazzaville	-4.26613	2014-06-29	15.28318
US	excellent	South Lawndale	41.84364	19 Jul 2020	-87.71255
IT	average	Campobasso	41.55947	12/08/2016, 00:00:00	14.66737
RU	building	Danilov	58.1908	17 Mar 2018	40.17171
IN	maintenance	Supaul	26.11527	2022-03-03	86.59509
US	excellent	Kahului	20.88953	2019-05-22	-156.47432
CN	good	Huangshi	30.24706	2021-01-03	115.04814
BR	average	Pedro II	-4.42472	17 May 2013	-41.45861
GB	average	Selby	53.78333	2014-05-13	-1.06667
ES	good	Novelda	38.38479	2013/02/15	-0.76773
TR	average	Sungurlu	40.1675	18 May 2020	34.37389
US	good	Schererville	41.47892	13 Jul 2015	-87.45476
ES	building	Tudela	42.06166	07/29/2018, 00:00:00	-1.60452
RU	average	Arzamas	55.39485	2020/11/12	43.83992
ES	good	Villaquilambre	42.64685	02/04/2017, 00:00:00	-5.55835
PK	average	Mianwali	32.57756	2021-08-17	71.52847
IN	maintenance	Meerut	28.98002	03/11/2014, 00:00:00	77.70636
US	good	Rolla	37.95143	2020/11/29	-91.77127
RU	excellent	Tyoply Stan	55.62047	2014-10-22	37.49338
PH	good	Recodo	6.95194	11/29/2018, 00:00:00	121.96361
US	accep	Jersey City	40.72816	13 Aug 2019	-74.07764
US	maintenance	Beaumont	33.92946	2014/05/15	-116.97725
DE	maintenance	Zeitz	51.04962	19 Dec 2018	12.1369
US	average	Sterling	39.00622	2016-09-07	-77.4286
DZ	average	El Achir	36.06386	2014-04-19	4.62744
CU	accep	Corralillo	22.98212	07/17/2018, 00:00:00	-80.58556
CM	good	Tonga	4.96667	06/01/2020, 00:00:00	10.7
MY	good	Ulu Tiram	1.6	2016/08/04	103.81667
TZ	good	Magomeni	-6.8	2019/07/06	39.25
FR	accep	Ajaccio	41.91886	18 Feb 2019	8.73812
IN	average	Kalavoor	9.57046	2021-01-18	76.32756
DE	building	Wesseling	50.82709	2021/09/22	6.9747
GB	good	Southsea	50.79205	12 Oct 2012	-1.08593
DZ	excellent	Bordj Zemoura	36.27462	11/20/2017, 00:00:00	4.85668
ES	accep	Cardedeu	41.63976	25 Mar 2014	2.35739
BR	average	Lagarto	-10.91722	2018/07/08	-37.65
PA	excellent	Chilibre	9.15093	01 Oct 2020	-79.62098
KR	excellent	Eisen	36.82167	2020/02/21	128.63083
PL	average	Reda	54.60528	05/10/2019, 00:00:00	18.34717
RU	average	Otradnyy	53.37596	01/05/2013, 00:00:00	51.3452
US	excellent	Columbia Heights	45.0408	06 May 2022	-93.263
MY	building	Donggongon	5.90702	2015-04-28	116.10146
GB	accep	Belper	53.0233	12/23/2016, 00:00:00	-1.48119
BR	maintenance	Lagarto	-10.91722	09/28/2018, 00:00:00	-37.65
GB	excellent	Brierley Hill	52.48173	11/06/2014, 00:00:00	-2.12139
DZ	good	El Achir	36.06386	04/20/2019, 00:00:00	4.62744
CN	good	Licheng	23.29549	2013-07-05	113.82465
SV	good	Sonzacate	13.73417	29 Jan 2020	-89.71472
US	building	Greenville	33.41012	17 Dec 2012	-91.06177
BW	building	Tonota	-21.44236	2017-06-26	27.46153
PL	excellent	Brzeg	50.86079	02 Aug 2022	17.4674
PK	accep	Qadirpur Ran	30.29184	2015/10/20	71.67164
IN	building	Bachhraon	28.92694	01 Dec 2021	78.23456
BR	good	Itacoatiara	-3.14306	06 Oct 2015	-58.44417
BO	average	Tupiza	-21.44345	2016/02/26	-65.71875
US	average	Kaukauna	44.27804	2022-01-02	-88.27205
BR	accep	Esmeraldas	-19.7625	2014/03/28	-44.31389
KZ	excellent	Kyzylorda	44.85278	16 Dec 2016	65.50917
US	accep	Sunnyside	46.32374	11 Oct 2020	-120.00865
GB	average	Devizes	51.35084	22 Jul 2021	-1.99421
UA	building	Lutsk	50.75932	27 Apr 2017	25.34244
GB	good	Surbiton	51.39148	09/27/2012, 00:00:00	-0.29825
US	good	Santa Maria	34.95303	10/14/2021, 00:00:00	-120.43572
PH	average	Guyong	14.8361	04 Aug 2017	120.97844
KR	accep	Sinhyeon	34.8825	10 May 2013	128.62667
US	accep	Muskogee	35.74788	16 Aug 2022	-95.36969
CN	excellent	Licheng	23.29549	2014/02/22	113.82465
PK	good	Khairpur Mir‚Äôs	27.52948	2016-05-22	68.75915
US	accep	South Whittier	33.95015	2018-07-14	-118.03917
IL	maintenance	Ganei Tikva	32.05971	14 Dec 2019	34.8732
IT	building	Mesagne	40.55851	2021-03-27	17.80774
CN	average	Zhoucun	36.81667	04/05/2015, 00:00:00	117.81667
BR	excellent	Soledade	-28.81833	2014-09-28	-52.51028
BR	good	Viradouro	-20.87306	2014-02-22	-48.29694
US	excellent	Nutley	40.82232	03/16/2019, 00:00:00	-74.15987
UZ	average	Parkent	41.29444	12 Dec 2019	69.67639
US	good	Troutdale	45.53929	05/09/2014, 00:00:00	-122.38731
US	average	Lompoc	34.63915	10/24/2013, 00:00:00	-120.45794
CO	accep	San Carlos	8.79577	02/02/2020, 00:00:00	-75.69947
US	average	Claremont	34.09668	2016/05/30	-117.71978
GB	average	Great Wyrley	52.66277	20 Jun 2021	-2.01111
DE	accep	Schleswig	54.52156	11/21/2016, 00:00:00	9.5586
US	average	Port Huron	42.97086	01 Jun 2018	-82.42491
GB	maintenance	Arbroath	56.56317	12 Oct 2018	-2.58736
IN	building	Gingee	12.25282	03 Feb 2016	79.41727
DE	good	Siegburg	50.80019	04 Aug 2013	7.20769
US	excellent	Hutchinson	38.06084	2014-04-20	-97.92977
US	average	Bourbonnais	41.15376	2015-05-01	-87.88754
IT	excellent	Tortona	44.89784	12 Sep 2016	8.86374
IN	accep	Sojat	25.92493	06 Oct 2018	73.66633
IN	building	Dharmapuri	12.1277	08 May 2019	78.15794
CN	accep	Yingkou	40.66482	31 May 2021	122.22833
AU	average	Griffith	-34.28853	12/31/2019, 00:00:00	146.05093
BR	average	Artur Nogueira	-22.57306	03/04/2013, 00:00:00	-47.1725
DE	excellent	Finnentrop	51.168	2019-05-14	7.973
LR	average	New Yekepa	7.57944	21 Jan 2020	-8.53778
US	excellent	Middle River	39.33427	05/04/2015, 00:00:00	-76.43941
JP	building	Shimotoda	35.815	2020-09-27	139.6853
FR	excellent	Ajaccio	41.91886	2022/06/14	8.73812
US	accep	Cypress Hills	40.67705	2019/02/22	-73.89125
AT	accep	Sankt Peter	47.05	20 Feb 2017	15.46667
PL	accep	Jaworzno	50.20528	2020/08/18	19.27498
IN	average	Narwar	25.6439	2013-01-22	77.9129
MM	average	Myawadi	16.68911	2016-02-04	98.50893
ME	excellent	Budva	42.28639	03/13/2013, 00:00:00	18.84
US	good	Brunswick	43.91452	04 Jan 2019	-69.96533
US	excellent	Pottstown	40.24537	2021/08/23	-75.64963
US	average	South Lawndale	41.84364	2022-02-28	-87.71255
RU	excellent	Novosilikatnyy	53.30972	06/26/2021, 00:00:00	83.62389
PK	average	Kot Addu	30.46907	26 Mar 2017	70.96699
US	good	Riverbank	37.73604	01/13/2017, 00:00:00	-120.93549
PL	maintenance	Brzeg	50.86079	09/18/2022, 00:00:00	17.4674
US	excellent	Davis	38.54491	2015/01/13	-121.74052
GB	average	Walton-on-the-Naze	51.84819	2015/09/02	1.26738
US	excellent	Lino Lakes	45.16024	2019/06/10	-93.08883
RU	building	Naro-Fominsk	55.38752	07 Aug 2018	36.73307
US	excellent	Thomasville	35.88264	2020-04-06	-80.08199
NZ	excellent	Timaru	-44.39672	12 Jun 2020	171.25364
ID	average	Kudus	-6.8048	2019-08-05	110.8405
DE	maintenance	Eppingen	49.13645	03 Oct 2017	8.91229
RW	building	Rwamagana	-1.9487	2014/09/02	30.4347
RU	building	Kolomyagi	60.02427	2013-11-10	30.28491
DE	average	Finnentrop	51.168	05 Mar 2019	7.973
GB	average	Chapletown	53.46506	03/27/2022, 00:00:00	-1.47217
MX	maintenance	Contla	19.32932	07 Jan 2021	-98.1664
BR	accep	Aracaju	-10.91111	2017/11/08	-37.07167
CN	accep	Licheng	23.29549	2016/01/03	113.82465
RW	average	Rwamagana	-1.9487	08/10/2014, 00:00:00	30.4347
PR	accep	Aguadilla	18.42745	2020/10/29	-67.15407
IN	accep	Tiruppuvanam	9.82564	05 Mar 2016	78.25795
DE	building	Zeitz	51.04962	14 Apr 2013	12.1369
BR	excellent	Itabirito	-20.25333	2017-07-30	-43.80139
GH	maintenance	Tarkwa	5.30383	2016-08-13	-1.98956
CO	average	San Carlos	8.79577	08/15/2021, 00:00:00	-75.69947
BR	accep	Barra dos Coqueiros	-10.90889	2014-11-24	-37.03861
US	accep	Newburgh	41.50343	23 Jan 2022	-74.01042
US	good	Scottsdale	33.50921	2019-04-02	-111.89903
MX	good	Contla	19.32932	11 Oct 2019	-98.1664
CU	good	Jaruco	23.04419	05/04/2021, 00:00:00	-82.00919
CR	accep	San Rafael	9.92787	31 Aug 2013	-84.13722
CN	good	Danjiangkou	32.54278	2013/01/19	111.50861
RU	building	Yashkino	55.8736	15 Nov 2013	85.4265
SK	average	Skalica	48.8449	05/20/2015, 00:00:00	17.22635
TN	excellent	Msaken	35.72917	2022/04/21	10.58082
AF	maintenance	Sar-e Pul	36.21544	2020/09/17	65.93249
US	maintenance	Nutley	40.82232	08 May 2022	-74.15987
MX	average	Progreso	21.28306	2013/08/17	-89.66123
GB	good	Great Wyrley	52.66277	14 Oct 2021	-2.01111
BR	good	Viradouro	-20.87306	2021/05/22	-48.29694
US	excellent	Rolla	37.95143	08/30/2014, 00:00:00	-91.77127
MX	accep	Zacoalco de Torres	20.22816	08/11/2014, 00:00:00	-103.5687
RU	excellent	Solntsevo	55.63711	2022/06/01	37.38115
MD	accep	Soroca	48.15659	11/27/2019, 00:00:00	28.28489
BR	good	Viradouro	-20.87306	19 Sep 2018	-48.29694
PH	accep	Manaoag	16.0438	2014/08/27	120.4861
CL	maintenance	Ovalle	-30.60106	31 Mar 2019	-71.19901
DZ	good	Bordj Zemoura	36.27462	2019/11/19	4.85668
BR	average	Muritiba	-12.91667	2014-03-05	-39.25
ET	excellent	Debre Tabor	11.85	02/23/2020, 00:00:00	38.01667
GB	excellent	Kingston upon Hull	53.7446	06/02/2013, 00:00:00	-0.33525
PL	maintenance	Jaworzno	50.20528	19 Apr 2019	19.27498
IN	average	Kheda	22.75218	2012/12/04	72.68533
ID	building	Pekanbaru	0.51667	2022-04-28	101.44167
US	accep	Port Huron	42.97086	01 Aug 2013	-82.42491
IN	building	Gariadhar	21.53889	2017-09-02	71.57737
RU	good	Likhobory	55.85	2013/10/20	37.56667
RU	building	Mikhaylovka	50.06	2021-12-23	43.2379
US	accep	Middletown	41.54566	09/29/2017, 00:00:00	-71.29144
AR	excellent	Pontevedra	-34.74785	12 Jan 2022	-58.70072
BR	accep	Viradouro	-20.87306	2015/08/21	-48.29694
MX	excellent	Casa Blanca	19.04222	12 Jan 2015	-98.11889
BD	good	Manikchari	22.83957	01/10/2021, 00:00:00	91.84128
IN	excellent	Periyakulam	10.12268	2021/11/15	77.54372
TW	accep	Magong	23.5654	19 Dec 2019	119.58627
NG	good	Olupona	7.6	25 Mar 2018	4.18333
US	excellent	American Canyon	38.17492	05/03/2019, 00:00:00	-122.2608
US	accep	Fresno	29.53885	02 Apr 2013	-95.44744
FR	average	Sceaux	48.77644	2013/07/25	2.29026
RU	average	Buynaksk	42.819	2014-01-27	47.1192
US	average	Hueytown	33.45122	2018-02-15	-86.99666
FR	good	Montpellier	43.61092	2020-10-18	3.87723
KE	maintenance	Nyahururu	0.03813	2014/09/15	36.36339
GB	maitennce	Blackpool	53.81667	10 Jul 2016	-3.05
US	excellent	Utica	43.1009	2019/01/09	-75.23266
GT	good	Chichicastenango	14.93333	10 Dec 2018	-91.11667
FR	excellent	Lons-le-Saunier	46.67535	2014-07-13	5.55575
BR	accep	Santa Gertrudes	-22.45667	12/31/2012, 00:00:00	-47.53028
US	maintenance	Glendale	34.14251	2016/01/07	-118.25508
US	accep	Huntley	42.16808	05 Jul 2021	-88.42814
JP	accep	Hita	33.3213	2016-07-07	130.94098
US	average	Bourbonnais	41.15376	05/15/2019, 00:00:00	-87.88754
HT	good	Thomazeau	18.65297	2016/04/01	-72.09391
TR	accep	Sungurlu	40.1675	02/26/2015, 00:00:00	34.37389
RU	excellent	Solntsevo	55.63711	16 Aug 2022	37.38115
NL	average	Tongelre	51.44889	2022/03/03	5.51978
US	good	Deltona	28.90054	2020/04/12	-81.26367
NG	good	Argungu	12.74482	17 Feb 2013	4.52514
CR	maintenance	Liberia	10.63504	02 Dec 2013	-85.43772
US	accep	Ken Caryl	39.57582	2020-04-18	-105.11221
CI	good	Lakota	5.84752	2017/01/10	-5.682
ZA	average	Standerton	-26.93366	2016/08/05	29.24152
TD	accep	Mongo	12.18441	02/10/2019, 00:00:00	18.69303
US	good	Clermont	28.54944	2017/03/26	-81.77285
MX	maintenance	Zacoalco de Torres	20.22816	02/19/2020, 00:00:00	-103.5687
DE	building	Pfullingen	48.46458	2021/11/04	9.22796
UA	building	Svatove	49.41029	04/09/2016, 00:00:00	38.15035
BW	maintenance	Tonota	-21.44236	2019-03-06	27.46153
RU	maintenance	Petrozavodsk	61.78491	08 Aug 2022	34.34691
IQ	building	Karbala	32.61603	02 Oct 2020	44.02488
TR	maintenance	Patnos	39.22493	07/10/2021, 00:00:00	42.85693
US	accep	Norwalk	41.24255	04 Sep 2022	-82.61573
SE	average	Boo	59.33333	2015-08-30	18.28333
PH	building	Tupi	6.33444	2019/12/21	124.95278
CO	building	Buenaventura	3.8801	09 May 2016	-77.03116
ID	accep	Pameungpeuk	-7.01833	10 Jun 2018	107.60389
TZ	good	Same	-4.06667	2015/07/21	37.73333
US	excellent	Muskogee	35.74788	01 Sep 2013	-95.36969
CN	excellent	Danjiangkou	32.54278	27 Feb 2019	111.50861
BE	building	Beveren	51.21187	03/24/2013, 00:00:00	4.25633
IT	average	Gorgonzola	45.53069	2018/04/12	9.40531
DE	good	Rudolstadt	50.72043	03 Oct 2017	11.34046
RU	maintenance	Oktyabr‚Äôskiy	54.48147	2017-11-23	53.47103
CO	good	Buenaventura	3.8801	03/24/2021, 00:00:00	-77.03116
AZ	accep	Astara	38.45598	2021/07/25	48.87498
US	excellent	Lower West Side	41.8542	07/20/2019, 00:00:00	-87.66561
PL	good	Jaworzno	50.20528	07/11/2019, 00:00:00	19.27498
BD	maintenance	Manikchari	22.83957	06/23/2021, 00:00:00	91.84128
GB	excellent	Lower Earley	51.42708	2016-12-26	-0.91979
MX	accep	Tuxtla	16.75973	2022/04/18	-93.11308
IT	good	Ventimiglia	43.78956	2022/05/21	7.60872
US	good	Sunnyside	46.32374	2021/11/02	-120.00865
PK	excellent	Hasilpur	29.69221	2020-11-01	72.54566
AU	good	Perth	-31.95224	2018-01-28	115.8614
AU	good	Carindale	-27.50578	10/22/2015, 00:00:00	153.10236
IN	maintenance	Talipparamba	12.04161	2019/10/21	75.35927
CU	accep	Varadero	23.15678	29 Dec 2015	-81.24441
US	good	Middle River	39.33427	2022-08-16	-76.43941
DE	accep	Schleswig	54.52156	06/08/2020, 00:00:00	9.5586
CN	accep	Taozhuang	34.85	2021-07-31	117.33333
ES	accep	Villaquilambre	42.64685	31 Dec 2020	-5.55835
US	excellent	Bryn Mawr-Skyway	47.4943	2022-07-24	-122.24092
CA	accep	Sainte-Catherine	45.40008	2014/01/18	-73.58248
GB	maintenance	Cowes	50.76306	2020-11-06	-1.29772
BR	maintenance	Barra dos Coqueiros	-10.90889	15 Jun 2013	-37.03861
DZ	accep	Frenda	35.06544	01 Jul 2017	1.04945
BR	excellent	Rio Real	-11.48472	2012-10-20	-37.93278
CN	accep	Tianfu	37.19723	04 Jan 2015	122.05228
DE	building	Bretten	49.03685	2021/10/03	8.70745
BE	average	Houthalen	51.03427	2014-12-29	5.37429
US	maintenance	Scarsdale	41.0051	2017-08-12	-73.78458
US	average	Longview	32.5007	2013/09/06	-94.74049
US	accep	Deltona	28.90054	2013/08/19	-81.26367
IN	average	Elamanchili	17.54907	2020-12-22	82.85749
PK	maintenance	Larkana	27.55898	04 May 2015	68.21204
BJ	excellent	Tchaourou	8.88649	2013-03-15	2.59753
ZA	good	Mokopane	-24.19436	02/20/2020, 00:00:00	29.00974
BR	average	Guapimirim	-22.53722	2016-03-11	-42.98194
US	accep	Sterling	39.00622	2018-02-03	-77.4286
MY	average	Kampung Ayer Molek	2.2139	06/19/2016, 00:00:00	102.3278
US	accep	North Tustin	33.76446	2022/07/10	-117.79394
US	good	Vestavia Hills	33.44872	01/08/2022, 00:00:00	-86.78777
IN	building	Bhuban	20.88197	01 Nov 2013	85.83334
ID	maintenance	Pekanbaru	0.51667	07/21/2017, 00:00:00	101.44167
CA	good	Pointe-Claire	45.44868	2018/10/26	-73.81669
IT	average	Montecchio Maggiore-Alte Ceccato	45.50369	04 Aug 2021	11.412
YE	excellent	Ataq	14.53767	01 Jun 2020	46.83187
US	excellent	North Tustin	33.76446	2013-11-22	-117.79394
SV	accep	Sonzacate	13.73417	05/10/2021, 00:00:00	-89.71472
US	building	Glendale	34.14251	2020-10-18	-118.25508
DE	maintenance	Hechingen	48.35149	2014-09-21	8.96317
AF	accep	Sar-e Pul	36.21544	2021-11-14	65.93249
JP	good	Yao	34.61667	20 Jun 2015	135.6
PE	accep	Chosica	-11.94306	08/12/2017, 00:00:00	-76.70944
ET	excellent	Arba Minch	6.03333	20 Sep 2020	37.55
ID	good	Jambi City	-1.6	2018/06/10	103.61667
CN	average	Zaozhuang	34.86472	10/14/2013, 00:00:00	117.55417
CN	excellent	Zhoushan	29.98869	2017/01/27	122.20488
AU	good	Wheelers Hill	-37.9	2016/02/26	145.18333
PE	building	Minas de Marcona	-15.21194	01 Jul 2021	-75.11028
VE	average	Tinaquillo	9.91861	2018/02/02	-68.30472
US	average	Kahului	20.88953	2013/02/25	-156.47432
BA	accep	Bijeljina	44.75874	2019-02-24	19.21437
HR	accep	Split	43.50891	2021/05/02	16.43915
TH	excellent	Thap Than	15.46063	10 Nov 2012	99.89166
US	accep	Tupelo	34.25807	17 Nov 2018	-88.70464
CI	good	Bonoua	5.27247	2020/12/01	-3.59625
TN	excellent	Msaken	35.72917	2021-09-09	10.58082
UY	average	Durazno	-33.38056	04 Jun 2013	-56.52361
US	good	Cypress Hills	40.67705	2016-07-09	-73.89125
RS	excellent	Negotin	44.22639	2017/12/02	22.53083
UA	average	Svatove	49.41029	13 Nov 2015	38.15035
PL	good	Brzeg	50.86079	2021-08-10	17.4674
SA	good	Al Jubayl	27.0174	09/20/2018, 00:00:00	49.62251
MM	maintenance	Myawadi	16.68911	2019/07/10	98.50893
TH	building	Roi Et	16.0567	29 Oct 2019	103.65309
FR	excellent	Herblay	48.98994	2021-07-19	2.1699
RU	accep	Kireyevsk	53.93361	2017-04-03	37.92792
TH	good	Bua Yai	15.58552	05/12/2019, 00:00:00	102.42587
RU	maintenance	Oktyabr‚Äôskiy	54.48147	01 Oct 2013	53.47103
DE	excellent	Karben	50.23019	2017-01-26	8.77155
AO	accep	Luena	-11.78333	07/21/2014, 00:00:00	19.91667
US	average	Shreveport	32.52515	2020/05/30	-93.75018
IR	building	Shahre Jadide Andisheh	35.6803	25 Jul 2017	51.0193
MG	accep	Ambatondrazaka	-17.83333	08 Sep 2019	48.41667
UG	accep	Kitgum	3.27833	10 May 2013	32.88667
US	average	Kensington	40.64621	2013/06/04	-73.97069
PE	maintenance	Minas de Marcona	-15.21194	20 Apr 2019	-75.11028
US	excellent	Grand Forks	47.92526	07/28/2013, 00:00:00	-97.03285
RU	excellent	Yashkino	55.8736	2022/03/30	85.4265
AU	accep	Frankston South	-38.16604	2018/04/20	145.13643
IT	accep	San Giuliano Milanese	45.39402	2013-07-16	9.29109
US	average	Visitacion Valley	37.71715	01/28/2018, 00:00:00	-122.40433
LR	average	New Yekepa	7.57944	2013-08-16	-8.53778
DE	maintenance	Aschaffenburg	49.97704	2016/09/21	9.15214
US	maintenance	Harrisburg	40.2737	2016/06/29	-76.88442
PL	average	Brzeg	50.86079	10 Jan 2013	17.4674
CN	good	Pucheng	27.92333	2019-11-07	118.53333
US	good	South Lawndale	41.84364	2021-08-15	-87.71255
IN	good	Dharmapuri	12.1277	08 Feb 2018	78.15794
CO	accep	San Carlos	8.79577	2017/10/18	-75.69947
GB	good	Surbiton	51.39148	06/18/2014, 00:00:00	-0.29825
ID	good	Balikpapan	-1.26753	12/31/2013, 00:00:00	116.82887
TH	building	Nakhon Si Thammarat	8.43333	2017-05-24	99.96667
IN	average	Bhuban	20.88197	24 Oct 2020	85.83334
IT	good	Castelfranco Emilia	44.59445	11/14/2013, 00:00:00	11.04979
ES	accep	Baza	37.49073	14 Nov 2014	-2.77259
GB	building	Rutherglen	55.82885	2013/04/27	-4.21376
US	good	Massapequa	40.68066	12/11/2015, 00:00:00	-73.47429
US	building	Tupelo	34.25807	2020/07/14	-88.70464
AR	maintenance	Esperanza	-31.4488	04/22/2021, 00:00:00	-60.93173
MX	excellent	Oaxaca	17.06542	06/28/2014, 00:00:00	-96.72365
MK	building	Saraj	42	2019-04-07	21.32778
DE	accep	Karben	50.23019	2019-12-13	8.77155
CU	maintenance	Media Luna	20.14298	2016/09/06	-77.43532
CN	accep	Licheng	23.29549	11/19/2019, 00:00:00	113.82465
US	average	Westchester	41.85059	20 Mar 2013	-87.882
UZ	accep	Parkent	41.29444	2019-07-31	69.67639
RU	average	Valday	57.97472	08/09/2016, 00:00:00	33.2525
US	building	Rosedale	39.32011	05/25/2017, 00:00:00	-76.51552
PE	accep	Iquitos	-3.74912	2013-03-15	-73.25383
LR	excellent	New Yekepa	7.57944	2019/01/07	-8.53778
CN	maintenance	Tianfu	37.19723	2020-01-03	122.05228
PK	good	Sangla Hill	31.71667	11/27/2012, 00:00:00	73.38333
CO	accep	Villa del Rosario	7.83389	2020-09-08	-72.47417
ES	average	Jumilla	38.47917	2022/04/05	-1.325
ID	good	Simpang	-1.26424	11/22/2021, 00:00:00	104.09701
US	good	Muskogee	35.74788	10 May 2017	-95.36969
US	average	Estelle	29.84576	12/05/2012, 00:00:00	-90.10674
JP	good	Ina	35.82756	05/31/2022, 00:00:00	137.95378
SA	average	Al Jubayl	27.0174	02/07/2017, 00:00:00	49.62251
ES	average	Palafrugell	41.91738	2013-06-19	3.1631
DE	good	Radevormwald	51.20219	09/15/2013, 00:00:00	7.36027
KR	good	Eisen	36.82167	10/12/2018, 00:00:00	128.63083
CN	excellent	Hushitai	41.94175	04 Dec 2018	123.50266
ES	accep	Tudela	42.06166	2016-07-09	-1.60452
DE	building	Friedberg	48.35693	09/07/2021, 00:00:00	10.98461
US	average	Yonkers	40.93121	27 Dec 2017	-73.89875
CA	good	Norfolk County	42.8334	07/30/2020, 00:00:00	-80.38297
BR	good	Canavieiras	-15.675	06/28/2015, 00:00:00	-38.94722
BW	excellent	Tonota	-21.44236	12 Nov 2015	27.46153
US	average	Abilene	32.44874	08 Apr 2022	-99.73314
IN	maintenance	Robertsonpet	12.95629	04 Nov 2020	78.27539
VN	average	Sa Dec	10.29085	2013/05/22	105.75635
US	building	Columbia Heights	45.0408	2015/09/14	-93.263
FR	excellent	Marseille 11	43.2907	01/22/2014, 00:00:00	5.4384
CZ	accep	Most	50.50301	18 Mar 2018	13.63617
VE	good	Barinas	8.62261	2018/01/27	-70.20749
DE	maintenance	Walsrode	52.86147	2017/12/29	9.5926
US	excellent	Stockbridge	33.54428	2015/12/23	-84.23381
RU	good	Izluchinsk	60.97944	06/23/2018, 00:00:00	76.92421
MZ	good	Maxixe	-23.85972	01/07/2018, 00:00:00	35.34722
AF	good	Sar-e Pul	36.21544	2013/10/11	65.93249
BR	maintenance	Rio Real	-11.48472	10 Oct 2014	-37.93278
BR	excellent	Altamira	-3.20333	23 May 2017	-52.20639
ID	excellent	Besuki	-7.73379	12/07/2017, 00:00:00	113.69785
BY	building	Vitebsk	55.1904	2017-06-06	30.2049
IN	average	Udumalaippettai	10.58806	21 Mar 2020	77.24779
US	excellent	Mechanicsville	37.60876	01/26/2022, 00:00:00	-77.37331
PT	good	Paredes	41.20485	10/04/2014, 00:00:00	-8.33147
PK	excellent	Kot Addu	30.46907	05/08/2021, 00:00:00	70.96699
BR	average	Viradouro	-20.87306	2012/12/24	-48.29694
IN	average	Adra	23.49668	01 Feb 2015	86.68363
TR	maintenance	Yakuplu	40.98894	17 May 2015	28.67582
PE	accep	Yunguyo	-16.25	10/26/2020, 00:00:00	-69.08333
US	excellent	Camarillo	34.21639	18 Oct 2013	-119.0376
CA	average	Pointe-Claire	45.44868	2013/02/03	-73.81669
MK	excellent	Saraj	42	2022/05/05	21.32778
CU	excellent	Media Luna	20.14298	2018/09/01	-77.43532
MX	excellent	Tuxtla	16.75973	16 Nov 2019	-93.11308
CN	average	Taozhuang	34.85	2018-01-29	117.33333
RU	building	Volokolamsk	56.03361	12/18/2014, 00:00:00	35.96944
ES	building	Tudela	42.06166	2021/10/17	-1.60452
HT	excellent	Croix-des-Bouquets	18.57677	2015-04-25	-72.22625
TZ	good	Nyangao	-10.33333	28 Mar 2016	39.28333
ID	good	Simpang	-1.26424	2015-10-16	104.09701
PK	accep	Mianwali	32.57756	06/10/2018, 00:00:00	71.52847
US	building	Brunswick	43.91452	2017-01-27	-69.96533
BR	good	Catende	-8.66667	10 Jun 2020	-35.71667
