revision	latitude	longitude	QoS	station	code
2015-05-17	42.30865	-83.48216	good	Canton	US
2014/04/22	45.73333	4.91667	building	Bron	FR
28 Feb 2018	50.80019	7.20769	maintenance	Siegburg	DE
2016/09/05	51.12794	4.21372	maintenance	Temse	BE
2016/10/29	50.72043	11.34046	building	Rudolstadt	DE
02 Sep 2020	9.3337	122.8637	accep	Santa Catalina	PH
19 Apr 2022	51.39148	-0.29825	average	Surbiton	GB
08/26/2016, 00:00:00	41.91738	3.1631	average	Palafrugell	ES
2021-07-04	50.09019	8.4493	accep	Hofheim am Taunus	DE
14 Jun 2020	33.45122	-86.99666	average	Hueytown	US
11/24/2013, 00:00:00	10.20898	123.758	accep	Naga	PH
2016-04-29	24.05979	77.40858	maintenance	Leteri	IN
05/29/2018, 00:00:00	40.55851	17.80774	maintenance	Mesagne	IT
14 Sep 2014	5.90702	116.10146	average	Donggongon	MY
05/17/2016, 00:00:00	39.32011	-76.51552	accep	Rosedale	US
17 Nov 2016	39.57582	-105.11221	accep	Ken Caryl	US
02/25/2020, 00:00:00	43.61062	-72.97261	maintenance	Rutland	US
29 Apr 2022	51.08468	7.11393	maintenance	Burscheid	DE
2016-04-13	12.35275	121.06761	excellent	San Jose	PH
08/06/2022, 00:00:00	42	21.32778	excellent	Saraj	MK
07 Mar 2016	33.37526	74.3092	maintenance	Rajaori	IN
2019/04/11	-23.7975	-48.59278	maintenance	Buri	BR
21 Dec 2018	53.37596	51.3452	maintenance	Otradnyy	RU
21 Nov 2017	53.7446	-0.33525	excellent	Kingston upon Hull	GB
08/02/2013, 00:00:00	40.24537	-75.64963	excellent	Pottstown	US
2015-10-27	36.81667	117.81667	building	Zhoucun	CN
2014/08/15	-38.16604	145.13643	maintenance	Frankston South	AU
2020-09-27	36.65	138.31667	good	Suzaka	JP
2017-08-05	41.16704	-73.20483	building	Bridgeport	US
10/16/2015, 00:00:00	54.39304	53.26023	accep	Bavly	RU
01 Mar 2016	36.75965	137.36215	maintenance	Namerikawa	JP
2015-02-11	18.18158	76.03889	building	Osmanabad	IN
13 Feb 2020	13.70167	-89.10944	average	Ilopango	SV
2022-05-02	9.6531	124.3697	good	Jagna	PH
12/26/2017, 00:00:00	53.5942	25.8191	good	Novogrudok	BY
2015-07-08	33.7207	-116.21677	accep	Indio	US
2018-10-26	41.55815	-73.0515	building	Waterbury	US
01/17/2013, 00:00:00	43.96222	43.63417	good	Novopavlovsk	RU
03/20/2017, 00:00:00	-32.05251	115.88782	average	Willetton	AU
08 Feb 2019	0.46005	34.11169	excellent	Busia	KE
2014/03/11	41.15376	-87.88754	average	Bourbonnais	US
12/15/2021, 00:00:00	37.74615	-25.66689	accep	Ponta Delgada	PT
2020-07-31	47.80527	-122.24064	average	Bothell West	US
2019-08-25	51.26	-2.1875	building	Westbury	GB
06/29/2019, 00:00:00	40.1675	34.37389	good	Sungurlu	TR
2014/02/14	40.60538	-73.75513	accep	Far Rockaway	US
2016-11-21	37.73222	115.70111	maintenance	Hengshui	CN
2020/12/16	60.18427	24.95034	excellent	Kallio	FI
07/25/2017, 00:00:00	24.96334	10.18003	good	Ghat	LY
03/03/2021, 00:00:00	10.10649	76.35484	accep	Alwaye	IN
22 Jul 2017	-7.81667	112.01667	excellent	Kediri	ID
2014/09/11	12.1277	78.15794	accep	Dharmapuri	IN
2016/03/02	37.73604	-120.93549	average	Riverbank	US
01/28/2019, 00:00:00	34.61667	135.6	accep	Yao	JP
2013-11-04	42.7392	-84.62081	accep	Waverly	US
2020-04-14	60.2052	24.6522	building	Espoo	FI
25 Mar 2019	38.68712	-4.10734	excellent	Puertollano	ES
2020-05-27	45.49428	-122.86705	average	Aloha	US
18 Nov 2012	45.0408	-93.263	excellent	Columbia Heights	US
03/26/2013, 00:00:00	38.72706	-9.24671	good	Carnaxide	PT
2016/07/21	-11.78333	19.91667	average	Luena	AO
25 Mar 2016	50.80019	7.20769	maintenance	Siegburg	DE
29 Oct 2018	10.29085	105.75635	average	Sa Dec	VN
06/10/2021, 00:00:00	36.64852	51.49621	accep	Nowshahr	IR
2017-04-16	33.78333	114.51667	good	Wacheng	CN
2018-05-16	20.28527	-103.42897	excellent	Jocotepec	MX
07/01/2017, 00:00:00	51.82721	107.60627	maintenance	Ulan-Ude	RU
08/10/2013, 00:00:00	15.46063	99.89166	average	Thap Than	TH
24 Jun 2018	43.54072	-116.56346	good	Nampa	US
17 Oct 2021	41.1053	-7.32097	excellent	Custoias	PT
2018/01/12	51.168	7.973	building	Finnentrop	DE
2018-08-06	36.76775	2.95924	accep	Cheraga	DZ
02/02/2018, 00:00:00	-1.9487	30.4347	accep	Rwamagana	RW
2013-12-06	35.72917	10.58082	average	Msaken	TN
09/03/2020, 00:00:00	41.57439	24.71204	excellent	Smolyan	BG
2021-03-26	50.06	43.2379	accep	Mikhaylovka	RU
2015/07/19	51.39148	-0.29825	average	Surbiton	GB
2022/05/28	8.79577	-75.69947	good	San Carlos	CO
2021-06-30	18.00747	-76.78319	accep	New Kingston	JM
2013-11-14	54.58048	16.86194	maintenance	Ustka	PL
13 Sep 2019	53.78333	-1.06667	excellent	Selby	GB
10/29/2021, 00:00:00	11.93381	79.82979	accep	Puducherry	IN
06 Apr 2018	48.77275	5.16108	good	Bar-le-Duc	FR
04/29/2021, 00:00:00	36.76775	2.95924	accep	Cheraga	DZ
2021-04-25	49.13645	8.91229	good	Eppingen	DE
2016-04-03	49.41029	38.15035	maintenance	Svatove	UA
2020-10-14	30.16688	-96.39774	average	Brenham	US
2017/12/08	8.35122	-62.64102	good	Ciudad Guayana	VE
06/02/2021, 00:00:00	-32.45242	-71.23106	average	La Ligua	CL
26 Nov 2013	44.43579	26.01649	good	Sector 6	RO
04/12/2014, 00:00:00	48.86667	2.08333	good	Marly-le-Roi	FR
2017-03-16	20.28527	-103.42897	average	Jocotepec	MX
2014-09-20	43.54072	-116.56346	average	Nampa	US
07/16/2018, 00:00:00	34.08565	74.80555	excellent	Srinagar	IN
09 Oct 2015	33.78333	114.51667	building	Wacheng	CN
05 Mar 2022	23.29549	113.82465	maintenance	Licheng	CN
2018/04/15	-12.91667	-39.25	maintenance	Muritiba	BR
2014-12-05	37.74615	-25.66689	accep	Ponta Delgada	PT
09/27/2019, 00:00:00	8.62261	-70.20749	accep	Barinas	VE
06/30/2017, 00:00:00	-3.20333	-52.20639	maintenance	Altamira	BR
2019-02-11	32.54044	-82.90375	excellent	Dublin	US
2013-02-21	48.98994	2.1699	excellent	Herblay	FR
2016-08-06	48.79325	2.29275	good	Fontenay-aux-Roses	FR
10/02/2016, 00:00:00	36.76639	3.47717	good	Boumerdas	DZ
05/23/2020, 00:00:00	-3.5403	118.9707	excellent	Majene	ID
2021/11/25	26.68451	-80.66756	excellent	Belle Glade	US
2013-12-02	50.72043	11.34046	accep	Rudolstadt	DE
01/10/2019, 00:00:00	21.28306	-89.66123	building	Progreso	MX
2012/12/16	25.87972	-97.50417	building	Heroica Matamoros	MX
2016-07-21	36	139.55722	maintenance	Okegawa	JP
31 Aug 2016	-1.63333	13.58357	good	Franceville	GA
2014/07/05	11.00599	77.5609	building	Kangayam	IN
2022/09/02	-0.71667	-48.52333	building	Soure	BR
2020-08-10	15.73628	75.96976	excellent	Gajendragarh	IN
2021-01-17	39.12074	27.18052	excellent	Bergama	TR
2021/10/09	53.53333	-7.35	average	An Muileann gCearr	IE
02/07/2020, 00:00:00	6.9909	79.883	maitennce	Hendala	LK
2019-02-21	54.48147	53.47103	excellent	Oktyabr‚Äôskiy	RU
2017/12/31	-28.81833	-52.51028	average	Soledade	BR
2013/04/05	37.08819	-8.2503	average	Albufeira	PT
09/28/2016, 00:00:00	-4.16694	-40.7475	average	Guaraciaba do Norte	BR
04 May 2015	22.49396	-105.36369	good	Acaponeta	MX
2016/06/12	40.58654	-122.39168	good	Redding	US
11/12/2012, 00:00:00	38.47917	-1.325	maintenance	Jumilla	ES
2018/09/30	16.06213	76.0586	maintenance	Hungund	IN
09/21/2020, 00:00:00	-6.8048	110.8405	maintenance	Kudus	ID
20 Oct 2018	47.48444	36.25361	accep	Polohy	UA
11 Jan 2015	36.33011	138.89585	accep	Annaka	JP
2019/05/11	52.68333	0.93333	accep	East Dereham	GB
2017/01/15	48.78232	9.17702	maintenance	Stuttgart	DE
23 Feb 2019	53.37596	51.3452	maintenance	Otradnyy	RU
2018/04/27	40.78206	72.34424	maintenance	Andijon	UZ
11 Oct 2012	20.28527	-103.42897	accep	Jocotepec	MX
04 Jun 2015	48.8449	17.22635	good	Skalica	SK
2019/09/13	-8.05389	-34.88111	average	Recife	BR
11/07/2012, 00:00:00	10.12268	77.54372	average	Periyakulam	IN
2013-07-12	38.45598	48.87498	building	Astara	AZ
15 May 2018	57.47908	-4.22398	accep	Inverness	GB
2017-08-09	47.76232	-122.2054	accep	Bothell	US
2022/01/27	26.91756	-82.07842	maintenance	Punta Gorda Isles	US
2018/04/21	37.95143	-91.77127	good	Rolla	US
03/26/2019, 00:00:00	40.72816	-74.07764	accep	Jersey City	US
2012-11-05	-7.60361	37.00438	good	Kidodi	TZ
09/27/2017, 00:00:00	54.58048	16.86194	accep	Ustka	PL
2019-02-01	30.24706	115.04814	good	Huangshi	CN
2013-05-25	34.63915	-120.45794	maintenance	Lompoc	US
2017-01-15	39.57582	-105.11221	good	Ken Caryl	US
2016/05/12	27.52948	68.75915	maintenance	Khairpur Mir‚Äôs	PK
2013/03/30	43.82634	144.09638	excellent	Motomachi	JP
2015-03-30	-3.20333	-52.20639	accep	Altamira	BR
10/13/2015, 00:00:00	16.0438	120.4861	excellent	Manaoag	PH
19 Apr 2022	51.42708	-0.91979	maintenance	Lower Earley	GB
12/06/2014, 00:00:00	37.13548	-3.67029	accep	Las Gabias	ES
10/15/2018, 00:00:00	44.80477	-0.59543	average	Talence	FR
2021-01-20	65.93381	111.4834	good	Aykhal	RU
08/19/2021, 00:00:00	47.4943	-122.24092	accep	Bryn Mawr-Skyway	US
09/03/2015, 00:00:00	34.61667	135.6	maintenance	Yao	JP
2017/06/29	50.71229	4.52529	maintenance	Rixensart	BE
03/01/2022, 00:00:00	40.24537	-75.64963	average	Pottstown	US
12 Aug 2015	60.18427	24.95034	average	Kallio	FI
2013-03-11	51.04962	12.1369	maintenance	Zeitz	DE
19 Nov 2017	22.75218	72.68533	excellent	Kheda	IN
2022/08/23	7.6	4.18333	accep	Olupona	NG
2022-05-04	36.08497	9.37082	good	Siliana	TN
2017/03/15	20.21322	-100.88023	excellent	Salvatierra	MX
2021/08/03	43.35071	46.10925	average	Gudermes	RU
03/07/2013, 00:00:00	49.28669	1.00288	maintenance	Elbeuf	FR
25 Dec 2020	6.46346	-2.31938	average	Bibiani	GH
2013/02/02	9.92787	-84.13722	accep	San Rafael	CR
26 Feb 2015	40.60538	-73.75513	excellent	Far Rockaway	US
2014/06/18	51.42708	-0.91979	building	Lower Earley	GB
2013/07/10	40.70995	0.57856	excellent	Amposta	ES
05/01/2022, 00:00:00	20.22816	-103.5687	accep	Zacoalco de Torres	MX
2017/03/16	51.88333	8.51667	average	Verl	DE
04/29/2013, 00:00:00	51.78771	56.36091	excellent	Saraktash	RU
2017/10/06	-34.88422	150.60036	good	Nowra	AU
14 Oct 2013	18.42745	-67.15407	accep	Aguadilla	PR
20 Mar 2018	41.72059	-87.70172	accep	Evergreen Park	US
2018-10-01	35.85	117.7	accep	Dongdu	CN
2013/07/04	14.14989	121.3152	good	Calauan	PH
17 May 2018	8.35122	-62.64102	building	Ciudad Guayana	VE
2017-02-05	-21.44236	27.46153	accep	Tonota	BW
22 Oct 2015	59.80917	30.38167	excellent	Shushary	RU
09 Dec 2020	35.21222	2.31889	good	Ksar Chellala	DZ
06/16/2014, 00:00:00	51.20219	7.36027	maintenance	Radevormwald	DE
2019-12-04	43.35071	46.10925	excellent	Gudermes	RU
04/25/2018, 00:00:00	-22.57306	-47.1725	accep	Artur Nogueira	BR
2018/10/09	-1.9487	30.4347	building	Rwamagana	RW
2014/03/31	35.21222	2.31889	average	Ksar Chellala	DZ
09/25/2017, 00:00:00	48.25	16.4	accep	Floridsdorf	AT
2016-05-23	35.85	117.7	excellent	Dongdu	CN
30 Jul 2015	20.14298	-77.43532	accep	Media Luna	CU
2020/10/17	-23.7975	-48.59278	accep	Buri	BR
22 Sep 2017	44.59445	11.04979	maintenance	Castelfranco Emilia	IT
29 Nov 2021	34.09611	-118.10583	good	San Gabriel	US
11 Jan 2019	34.81667	137.4	good	Toyokawa	JP
2019/05/04	37.56667	140.11667	excellent	Inawashiro	JP
05/10/2022, 00:00:00	33.93113	-117.54866	excellent	Norco	US
16 Nov 2013	19.32889	-99.32556	excellent	San Lorenzo Acopilco	MX
2020/11/07	33.45122	-86.99666	maintenance	Hueytown	US
2012-12-07	42.52787	-70.92866	accep	Peabody	US
01/04/2018, 00:00:00	50.23019	8.77155	excellent	Karben	DE
2022-07-06	50.23805	8.86704	excellent	Nidderau	DE
03/03/2013, 00:00:00	-22.53722	-42.98194	accep	Guapimirim	BR
10/18/2015, 00:00:00	-22.97056	-46.99583	excellent	Valinhos	BR
06/13/2013, 00:00:00	28.15112	-82.46148	average	Lutz	US
2014-06-18	40.34912	-111.90466	building	Saratoga Springs	US
2015-09-15	30.24706	115.04814	maintenance	Huangshi	CN
2019-08-13	48.73218	11.18709	accep	Neuburg an der Donau	DE
28 Sep 2014	-7.81667	112.01667	building	Kediri	ID
2020-03-15	49.07866	30.96755	accep	Zvenihorodka	UA
2014-03-19	40.65538	-74.38987	maintenance	Scotch Plains	US
02/29/2016, 00:00:00	33.14447	47.3799	excellent	Darreh Shahr	IR
30 Jul 2015	-36.9256	-73.02841	building	Chiguayante	CL
11/17/2017, 00:00:00	11.85	38.01667	accep	Debre Tabor	ET
2022/08/24	64.5635	39.8302	average	Severodvinsk	RU
01 Jun 2015	45.40008	-73.58248	average	Sainte-Catherine	CA
2012-11-25	5.84752	-5.682	maintenance	Lakota	CI
2021-05-29	28.15112	-82.46148	good	Lutz	US
2019/09/29	48.28259	9.72749	accep	Ehingen	DE
22 Sep 2016	40.42386	-3.53261	accep	San Fernando de Henares	ES
24 Oct 2018	7.06273	-1.4001	excellent	Mampong	GH
09/16/2019, 00:00:00	45.4473	-73.75335	average	Dorval	CA
2017-09-12	39.71734	-74.96933	building	Sicklerville	US
03/06/2013, 00:00:00	43.16547	-77.70066	accep	Gates-North Gates	US
2020-04-22	35.89972	14.51472	accep	Valletta	MT
02 Jul 2020	36.6009	126.665	excellent	Hongseong	KR
29 May 2020	38.47917	-1.325	accep	Jumilla	ES
2020-04-11	28.98002	77.70636	excellent	Meerut	IN
18 Sep 2014	19.04222	-98.11889	good	Casa Blanca	MX
2014-10-31	65.93381	111.4834	average	Aykhal	RU
2021-10-23	37.65181	120.33063	average	Longgang	CN
02/27/2020, 00:00:00	38.13708	41.00817	average	Silvan	TR
2019/12/06	21.59983	71.21169	good	Amreli	IN
02/09/2018, 00:00:00	30.17746	-81.38758	good	Palm Valley	US
2015/08/05	40.1675	34.37389	excellent	Sungurlu	TR
2018/02/08	49.07866	30.96755	excellent	Zvenihorodka	UA
07/22/2017, 00:00:00	41.75338	-86.11084	excellent	Granger	US
2017/05/05	19.30157	72.85107	average	Bhayandar	IN
16 Jun 2021	-6.91806	106.92667	average	Sukabumi	ID
07/16/2013, 00:00:00	50.20528	19.27498	excellent	Jaworzno	PL
2019/03/01	25.6439	77.9129	good	Narwar	IN
2014-07-07	31.76212	-95.63079	good	Palestine	US
2016/03/13	53.81667	-3.05	good	Blackpool	GB
2021/11/21	23.04419	-82.00919	accep	Jaruco	CU
03/11/2017, 00:00:00	41.24264	16.50104	accep	Bisceglie	IT
2020-02-25	12.74409	-8.07257	good	Kati	ML
18 Sep 2014	37.30553	120.82747	accep	Zhuangyuan	CN
23 Mar 2022	57.97472	33.2525	building	Valday	RU
2020/01/16	-3.20333	-52.20639	accep	Altamira	BR
24 Jan 2017	2.2139	102.3278	excellent	Kampung Ayer Molek	MY
2021-10-28	32.57756	71.52847	average	Mianwali	PK
2013/03/01	51.40944	46.04833	good	Privolzhskiy	RU
2018/09/11	40.72816	-74.07764	accep	Jersey City	US
2017/02/18	-28.81833	-52.51028	building	Soledade	BR
2015-11-10	6.84019	79.87116	good	Dehiwala-Mount Lavinia	LK
23 May 2015	45.79377	8.88104	good	Malnate	IT
2020/07/08	44.89784	8.86374	average	Tortona	IT
12/07/2013, 00:00:00	38.58894	-89.99038	maintenance	Fairview Heights	US
2015/03/18	40.93333	73	accep	Jalal-Abad	KG
2015/08/28	33.95015	-118.03917	accep	South Whittier	US
04/11/2016, 00:00:00	12.18441	18.69303	excellent	Mongo	TD
2015-12-01	42	21.32778	maintenance	Saraj	MK
2013/01/22	52.59319	13.32127	average	Wittenau	DE
01/12/2020, 00:00:00	20.74122	-100.44843	good	Santa Rosa Jauregui	MX
01/29/2014, 00:00:00	36.72544	3.55665	accep	Thenia	DZ
2016/01/06	-33.75881	150.99292	building	Baulkham Hills	AU
2020-06-17	24.41288	76.56719	excellent	Aklera	IN
18 Jan 2019	43.91452	-69.96533	good	Brunswick	US
2022/09/21	30.21121	74.4818	building	Malaut	IN
28 Jul 2017	55.38752	36.73307	excellent	Naro-Fominsk	RU
28 Mar 2016	46.67535	5.55575	building	Lons-le-Saunier	FR
07/09/2019, 00:00:00	6.8485	3.64633	good	Shagamu	NG
2016/08/12	34.08565	74.80555	good	Srinagar	IN
03/10/2019, 00:00:00	50.20528	19.27498	good	Jaworzno	PL
09/18/2016, 00:00:00	33.44872	-86.78777	maintenance	Vestavia Hills	US
2022-01-28	-11.94306	-76.70944	good	Chosica	PE
2019/09/21	26.91756	-82.07842	building	Punta Gorda Isles	US
2018/10/26	34.06635	-84.67837	good	Acworth	US
04/03/2017, 00:00:00	20.21322	-100.88023	good	Salvatierra	MX
2015/01/20	42.30865	-83.48216	average	Canton	US
2021/06/27	50.86079	17.4674	good	Brzeg	PL
2022-06-30	36.64852	51.49621	building	Nowshahr	IR
2021-07-21	53.93361	37.92792	accep	Kireyevsk	RU
28 Feb 2019	60.97944	76.92421	average	Izluchinsk	RU
10/28/2017, 00:00:00	49.97704	9.15214	accep	Aschaffenburg	DE
08/29/2014, 00:00:00	36.82167	128.63083	accep	Eisen	KR
07/28/2016, 00:00:00	-19.72806	-50.19556	excellent	Iturama	BR
2014-11-26	54.48147	53.47103	average	Oktyabr‚Äôskiy	RU
10/28/2016, 00:00:00	35.82756	137.95378	average	Ina	JP
2014/11/23	53.6052	10.03988	average	Barmbek-Nord	DE
2018/12/16	16.68911	98.50893	average	Myawadi	MM
2019/01/06	51.30001	13.10984	maintenance	Oschatz	DE
2020/07/02	17.94979	-94.91386	average	Acayucan	MX
2022-09-12	10.15031	-73.9614	accep	El Copey	CO
05/08/2019, 00:00:00	33.52253	-117.70755	building	Laguna Niguel	US
01/07/2022, 00:00:00	36.75965	137.36215	good	Namerikawa	JP
09 Apr 2019	35.25064	-91.73625	maintenance	Searcy	US
18 Jan 2022	53.63333	9.85	good	Halstenbek	DE
22 Apr 2019	-23.7975	-48.59278	average	Buri	BR
2016-09-17	30.17746	-81.38758	average	Palm Valley	US
2013/03/02	1.6	103.81667	average	Ulu Tiram	MY
10/27/2015, 00:00:00	39.45621	-77.96389	good	Martinsburg	US
15 Feb 2014	41.15376	-87.88754	excellent	Bourbonnais	US
22 Jun 2022	9.15093	-79.62098	excellent	Chilibre	PA
11 Apr 2013	33.98154	-81.23621	maintenance	Lexington	US
2014-07-19	55.67938	12.53463	excellent	Frederiksberg	DK
2015/12/04	51.40944	46.04833	excellent	Privolzhskiy	RU
05 Jul 2018	41.55838	-81.56929	average	Collinwood	US
2021/09/15	40.82232	-74.15987	accep	Nutley	US
06 Apr 2018	-12.91667	-39.25	excellent	Muritiba	BR
2016/09/25	33.41012	-91.06177	good	Greenville	US
22 Aug 2021	37.71715	-122.40433	accep	Visitacion Valley	US
22 Feb 2019	43.1122	12.38878	accep	Perugia	IT
2021-05-23	-33.75881	150.99292	excellent	Baulkham Hills	AU
2019/01/05	32.17629	75.06583	average	Fazilpur	PK
2014-10-27	42.62833	20.89389	excellent	Glogovac	XK
01/19/2017, 00:00:00	43.11667	1.6	good	Pamiers	FR
21 Jan 2020	53.37596	51.3452	building	Otradnyy	RU
2019/09/24	42.67164	14.01481	building	Roseto degli Abruzzi	IT
12/30/2021, 00:00:00	18.87813	72.93924	maintenance	Uran	IN
2018-06-27	41.09246	45.36561	accep	Qazax	AZ
11/12/2012, 00:00:00	-21.44236	27.46153	good	Tonota	BW
02/06/2020, 00:00:00	35.06544	1.04945	accep	Frenda	DZ
03/08/2020, 00:00:00	48.78232	9.17702	building	Stuttgart	DE
2016-03-07	-17.83333	48.41667	accep	Ambatondrazaka	MG
02/22/2021, 00:00:00	23.73333	114.68333	average	Heyuan	CN
02/18/2016, 00:00:00	22.49396	-105.36369	average	Acaponeta	MX
05/21/2015, 00:00:00	41.0051	-73.78458	average	Scarsdale	US
2016/10/13	-4.5833	15.16554	maintenance	Kasangulu	CD
12 Mar 2018	-11.48472	-37.93278	maintenance	Rio Real	BR
22 Apr 2022	15.5439	73.7553	maintenance	Calangute	IN
06/20/2013, 00:00:00	30.29184	71.67164	average	Qadirpur Ran	PK
03/14/2019, 00:00:00	45.4473	-73.75335	average	Dorval	CA
2021-04-13	45.51667	4.86667	good	Vienne	FR
04 Jun 2021	46.1351	-60.1831	excellent	Sydney	CA
05/24/2017, 00:00:00	36.20829	-115.98391	excellent	Pahrump	US
13 Dec 2013	36	139.55722	good	Okegawa	JP
12/31/2021, 00:00:00	39.32011	-76.51552	average	Rosedale	US
24 Oct 2012	28.88162	120.03308	average	Guli	CN
09/07/2020, 00:00:00	-8.76194	-63.90389	excellent	Porto Velho	BR
2019-09-27	34.8825	128.62667	excellent	Sinhyeon	KR
2018-04-19	-4.83	29.65806	excellent	Mwandiga	TZ
2018-02-15	50.72043	11.34046	good	Rudolstadt	DE
22 Oct 2019	30.75545	20.22625	accep	Ajdabiya	LY
08/16/2015, 00:00:00	44.98901	38.94324	average	Yablonovskiy	RU
10/09/2014, 00:00:00	28.92694	78.23456	good	Bachhraon	IN
2019/07/09	39.32288	-76.72803	maintenance	Woodlawn	US
03/22/2016, 00:00:00	45.39402	9.29109	good	San Giuliano Milanese	IT
2019-05-20	59.37722	28.19028	accep	Narva	EE
2021-09-11	52.2	8.63333	accep	Kirchlengern	DE
2015/02/05	51.12794	4.21372	excellent	Temse	BE
2022/08/04	32.50611	120.14278	average	Jiangyan	CN
18 Oct 2014	27.9247	78.40102	accep	Chharra	IN
2016-09-11	53.93361	37.92792	building	Kireyevsk	RU
2012-09-30	37.30553	120.82747	good	Zhuangyuan	CN
07/12/2021, 00:00:00	28.90054	-81.26367	accep	Deltona	US
2016-11-17	19.21667	73.08333	good	Dombivli	IN
28 Sep 2019	37.73222	115.70111	excellent	Hengshui	CN
2021/09/02	35.85	117.7	excellent	Dongdu	CN
11/23/2016, 00:00:00	53.49389	-1.29243	average	Mexborough	GB
2018/09/13	-20.25333	-43.80139	average	Itabirito	BR
2015-08-15	48.35693	10.98461	accep	Friedberg	DE
2020/03/27	50.5107	18.30056	excellent	Strzelce Opolskie	PL
2016/02/28	34.25	135.31667	average	Iwade	JP
2016-10-24	20.22816	-103.5687	building	Zacoalco de Torres	MX
08 Jul 2016	50.5107	18.30056	excellent	Strzelce Opolskie	PL
04/21/2022, 00:00:00	-27.4338	-65.61427	excellent	Aguilares	AR
2015/09/23	25.80565	68.49143	good	Bhit Shah	PK
2013/07/08	-33.59217	-70.6996	maintenance	San Bernardo	CL
2014-12-17	53.0233	-1.48119	excellent	Belper	GB
2018/03/07	-3.74912	-73.25383	accep	Iquitos	PE
2020-11-25	51.95838	4.47124	average	Schiebroek	NL
2013/01/10	15.72892	120.57224	accep	Burgos	PH
2015/04/22	41.84364	-87.71255	excellent	South Lawndale	US
11/03/2019, 00:00:00	35.61452	-88.81395	good	Jackson	US
02 Jun 2022	21.53889	71.57737	good	Gariadhar	IN
11/19/2017, 00:00:00	34.86472	117.55417	building	Zaozhuang	CN
09/14/2014, 00:00:00	45.44694	8.62118	good	Novara	IT
2016/04/02	28.88162	120.03308	average	Guli	CN
2013-11-15	40.93333	73	accep	Jalal-Abad	KG
2013-03-25	33.52253	-117.70755	average	Laguna Niguel	US
2019-07-27	36.20829	-115.98391	accep	Pahrump	US
2020/07/15	0.03813	36.36339	maintenance	Nyahururu	KE
11/24/2013, 00:00:00	45.35	126.28333	excellent	Shuangcheng	CN
2015-12-15	26.11527	86.59509	good	Supaul	IN
2016-12-10	21.46527	83.97573	accep	Sambalpur	IN
11/12/2020, 00:00:00	44.31771	9.32241	building	Chiavari	IT
05/17/2013, 00:00:00	45.35	126.28333	excellent	Shuangcheng	CN
25 Jul 2018	-14.66463	-52.35558	good	Nova Xavantina	BR
2022/04/24	53.38333	-0.76667	excellent	Gainsborough	GB
01/25/2017, 00:00:00	34.14251	-118.25508	building	Glendale	US
01/22/2018, 00:00:00	53.46506	-1.47217	maintenance	Chapletown	GB
2012/11/19	37.65181	120.33063	accep	Longgang	CN
03 Aug 2019	-21.44345	-65.71875	maintenance	Tupiza	BO
21 Feb 2017	44.22639	22.53083	accep	Negotin	RS
2021-06-21	-7.57897	112.23109	excellent	Diwek	ID
2014-06-05	-22.57306	-47.1725	average	Artur Nogueira	BR
10/02/2012, 00:00:00	42.50729	1.53414	good	les Escaldes	AD
2020-04-15	35.21222	2.31889	maintenance	Ksar Chellala	DZ
24 Nov 2013	-28.44917	-52.2	building	Marau	BR
2019-07-25	44.85278	65.50917	good	Kyzylorda	KZ
2016-11-24	23.73333	114.68333	excellent	Heyuan	CN
01/31/2020, 00:00:00	40.82232	-74.15987	accep	Nutley	US
2016/02/22	50.75767	-1.5443	average	Lymington	GB
2018-03-24	51.168	7.973	building	Finnentrop	DE
27 Jun 2016	16.0567	103.65309	average	Roi Et	TH
03/21/2019, 00:00:00	49.88307	-119.48568	building	Kelowna	CA
2018/03/22	37.31065	13.57661	excellent	Agrigento	IT
03/23/2020, 00:00:00	33.45122	-86.99666	excellent	Hueytown	US
2013/06/08	35.06544	1.04945	accep	Frenda	DZ
17 Feb 2014	40.65538	-74.38987	maintenance	Scotch Plains	US
05/05/2019, 00:00:00	8.88649	2.59753	excellent	Tchaourou	BJ
2013-03-03	41.91886	8.73812	good	Ajaccio	FR
03/11/2021, 00:00:00	22.98212	-80.58556	average	Corralillo	CU
2021-03-04	59.80917	30.38167	average	Shushary	RU
19 Oct 2012	53.49389	-1.29243	excellent	Mexborough	GB
15 Jul 2021	52.41667	0.75	accep	Thetford	GB
2017-09-02	53.30972	83.62389	building	Novosilikatnyy	RU
17 Jan 2014	15.48131	-86.57415	average	Olanchito	HN
2022/01/21	52.71083	5.74861	accep	Emmeloord	NL
2013/01/11	50.56149	4.69889	average	Gembloux	BE
2013-04-16	44.98901	38.94324	maintenance	Yablonovskiy	RU
2018/04/12	49.13645	8.91229	good	Eppingen	DE
12/28/2020, 00:00:00	43.4125	23.225	average	Montana	BG
04 Jun 2021	10.10649	76.35484	good	Alwaye	IN
15 Jun 2022	58.04254	65.27258	maitennce	Tavda	RU
24 Dec 2013	50.79205	-1.08593	excellent	Southsea	GB
2016-08-13	45.78071	12.84052	accep	Portogruaro	IT
2016-10-22	52.4581	13.28702	excellent	Dahlem	DE
15 Dec 2015	33.44872	-86.78777	excellent	Vestavia Hills	US
17 Jul 2017	38.10558	-1.86343	good	Caravaca	ES
01/13/2020, 00:00:00	30.76468	74.12286	building	Kanganpur	PK
2014-06-21	51.38673	0.30367	excellent	Hartley	GB
2013/05/01	-28.81833	-52.51028	average	Soledade	BR
16 Mar 2020	40.2737	-76.88442	average	Harrisburg	US
2016-11-10	18.20854	-71.10077	building	Santa Cruz de Barahona	DO
2016-01-25	6.46838	-73.26022	average	Socorro	CO
03/29/2015, 00:00:00	38.07789	13.44275	accep	Villabate	IT
2022-07-15	10.61285	12.19458	accep	Biu	NG
2012-11-04	33.08014	-83.2321	good	Milledgeville	US
07 Aug 2019	6.9909	79.883	excellent	Hendala	LK
24 Sep 2019	45.73333	4.91667	good	Bron	FR
2014-11-17	45.69558	4.7934	good	Saint-Genis-Laval	FR
23 Feb 2016	34.63915	-120.45794	good	Lompoc	US
11 Sep 2013	48.98693	2.44892	average	Gonesse	FR
01 Jul 2016	44.22639	22.53083	average	Negotin	RS
2022-07-25	25.13915	73.06784	excellent	Sheoganj	IN
27 May 2021	31.12406	-97.90308	excellent	Copperas Cove	US
2017-03-21	48.98693	2.44892	good	Gonesse	FR
05 Jul 2013	31.78336	35.23388	average	East Jerusalem	PS
22 Jan 2014	41.72059	-87.70172	excellent	Evergreen Park	US
2019-06-21	45.0408	-93.263	building	Columbia Heights	US
02 Sep 2021	-23.44361	-51.87389	excellent	Sarandi	BR
2018/11/15	42.16808	-88.42814	good	Huntley	US
2013-01-23	44.22639	22.53083	average	Negotin	RS
2017/12/11	-23.7975	-48.59278	average	Buri	BR
04 Apr 2018	40.70995	0.57856	average	Amposta	ES
10/09/2017, 00:00:00	33.7207	-116.21677	maintenance	Indio	US
2013/03/28	50.71229	4.52529	accep	Rixensart	BE
2020-12-30	36.20389	127.08472	building	Nonsan	KR
12/23/2016, 00:00:00	53.83333	-2.98333	average	Poulton-le-Fylde	GB
24 Dec 2019	47.98372	10.18527	excellent	Memmingen	DE
03 Sep 2014	42.55308	-87.93341	good	Pleasant Prairie	US
03/21/2015, 00:00:00	47.05	15.46667	excellent	Sankt Peter	AT
2014-03-15	45.43341	-73.86586	maintenance	Beaconsfield	CA
2016/01/24	40.11583	67.84222	excellent	Jizzax	UZ
04/09/2022, 00:00:00	8.88988	-79.62603	good	Veracruz	PA
18 Jun 2013	9.6531	124.3697	good	Jagna	PH
2022/08/19	34.08565	74.80555	maintenance	Srinagar	IN
2019/03/13	41.54566	-71.29144	good	Middletown	US
19 Jan 2017	44.92801	4.8951	maintenance	Valence	FR
2020-12-21	27.52948	68.75915	accep	Khairpur Mir‚Äôs	PK
2021-05-01	40.34912	-111.90466	average	Saratoga Springs	US
02/01/2020, 00:00:00	25.66795	85.83636	excellent	Dalsingh Sarai	IN
08/19/2016, 00:00:00	-10.91111	-37.07167	accep	Aracaju	BR
2020/11/18	41.94175	123.50266	building	Hushitai	CN
07/29/2015, 00:00:00	9.3337	122.8637	average	Santa Catalina	PH
09/29/2012, 00:00:00	-4.06667	37.73333	good	Same	TZ
27 Jun 2015	21.28306	-89.66123	good	Progreso	MX
15 Aug 2022	36.81667	117.81667	maintenance	Zhoucun	CN
2014-04-05	24.05979	77.40858	maintenance	Leteri	IN
2014/11/02	33.50921	-111.89903	excellent	Scottsdale	US
2019/01/13	5.84752	-5.682	good	Lakota	CI
2019/07/20	53.93361	37.92792	average	Kireyevsk	RU
2013-07-25	18.57677	-72.22625	accep	Croix-des-Bouquets	HT
2021-11-14	6.95194	121.96361	average	Recodo	PH
2017/05/25	-33.75881	150.99292	accep	Baulkham Hills	AU
2018-05-31	41.91738	3.1631	accep	Palafrugell	ES
2014-06-09	40.93333	73	maintenance	Jalal-Abad	KG
03/26/2014, 00:00:00	14.67751	-60.94228	excellent	Le Robert	MQ
2020-11-29	5.84752	-5.682	average	Lakota	CI
2018-09-20	53.81667	-3.05	accep	Blackpool	GB
16 Oct 2020	0.51667	101.44167	average	Pekanbaru	ID
07 Oct 2021	20.88197	85.83334	maintenance	Bhuban	IN
2015/10/07	36.27462	4.85668	maintenance	Bordj Zemoura	DZ
2016/10/03	31.84568	-102.36764	excellent	Odessa	US
09/14/2015, 00:00:00	35.61452	-88.81395	average	Jackson	US
2016/03/28	6.33444	124.95278	building	Tupi	PH
2015-07-29	29.38242	70.91106	building	Alipur	PK
04/09/2021, 00:00:00	0.51667	101.44167	accep	Pekanbaru	ID
2012-10-18	41.8542	-87.66561	excellent	Lower West Side	US
2016/12/03	13.73417	-89.71472	good	Sonzacate	SV
06/07/2019, 00:00:00	-37.9	145.18333	building	Wheelers Hill	AU
30 Aug 2021	59.33333	18.28333	building	Boo	SE
09 Aug 2019	5.30383	-1.98956	maintenance	Tarkwa	GH
2017-10-03	52.31333	6.92917	good	Oldenzaal	NL
2016-03-27	-12.91667	-39.25	average	Muritiba	BR
2015-02-03	53.78333	-1.06667	accep	Selby	GB
2013/01/18	6.03333	37.55	accep	Arba Minch	ET
2018/11/03	12.1277	78.15794	accep	Dharmapuri	IN
2021-02-12	6.15038	6.83042	average	Nkpor	NG
2016-04-07	40.82232	-74.15987	good	Nutley	US
2017/03/26	38.70734	-77.02303	average	Fort Washington	US
2013-03-17	25.6439	77.9129	excellent	Narwar	IN
31 Dec 2012	44.98901	38.94324	building	Yablonovskiy	RU
2013-08-08	30.17746	-81.38758	excellent	Palm Valley	US
2021-08-15	-10.33333	39.28333	average	Nyangao	TZ
2019/10/27	52.71083	5.74861	maintenance	Emmeloord	NL
03/14/2014, 00:00:00	35.48199	137.02166	good	Minokamo	JP
2022-02-22	55.67938	12.53463	average	Frederiksberg	DK
2015-08-08	31.20176	29.91582	average	Alexandria	EG
2015/04/18	28.54944	-81.77285	excellent	Clermont	US
09 Oct 2016	43.4125	23.225	excellent	Montana	BG
2013/06/13	36.72544	3.55665	accep	Thenia	DZ
02/11/2015, 00:00:00	36.46917	10.78222	accep	Beni Khiar	TN
2015/02/01	49.41029	38.15035	accep	Svatove	UA
02/01/2016, 00:00:00	40.78206	72.34424	accep	Andijon	UZ
05 Jun 2019	31.71667	73.38333	excellent	Sangla Hill	PK
2018-06-07	41.15376	-87.88754	excellent	Bourbonnais	US
07/10/2017, 00:00:00	49.5099	6.74549	good	Losheim	DE
2017/12/19	0.76755	24.43973	excellent	Yangambi	CD
04 Jul 2014	-33.59217	-70.6996	average	San Bernardo	CL
2014/02/24	35.74788	-95.36969	good	Muskogee	US
11/13/2018, 00:00:00	30.5427	-97.54667	average	Hutto	US
2018/09/13	48.28259	9.72749	maintenance	Ehingen	DE
09 Apr 2014	53.53395	33.72798	good	Zhukovka	RU
2018-01-17	52.21099	7.02238	excellent	Gronau	DE
10 Jan 2015	51.30001	13.10984	average	Oschatz	DE
09/04/2022, 00:00:00	37.30553	120.82747	excellent	Zhuangyuan	CN
07/28/2017, 00:00:00	19.21667	73.08333	good	Dombivli	IN
2013/08/18	31.78336	35.23388	excellent	East Jerusalem	PS
2019-04-30	23.04419	-82.00919	maintenance	Jaruco	CU
2018/12/25	5.84752	-5.682	average	Lakota	CI
2013/09/11	37.73604	-120.93549	average	Riverbank	US
28 Jan 2019	-21.44345	-65.71875	excellent	Tupiza	BO
2021-10-03	40.85158	122.74754	building	Haicheng	CN
2014-01-14	23.02677	113.13148	accep	Foshan	CN
14 Nov 2013	50.23271	12.87117	average	Karlovy Vary	CZ
16 Nov 2018	13.65805	102.56365	good	Paoy Paet	KH
2022-01-31	40.92298	14.30935	excellent	Afragola	IT
2018-08-11	51.67822	33.9162	average	Hlukhiv	UA
2014/11/24	26.76628	83.36889	average	Gorakhpur	IN
2014-04-06	20.74122	-100.44843	maintenance	Santa Rosa Jauregui	MX
2022/01/16	41.20485	-8.33147	average	Paredes	PT
2019/03/07	53.38333	-0.76667	excellent	Gainsborough	GB
07/28/2018, 00:00:00	46.7055	38.2739	maintenance	Yeysk	RU
2014/01/06	-7.57897	112.23109	maintenance	Diwek	ID
2018/02/21	32.50611	120.14278	excellent	Jiangyan	CN
2016/03/18	41.14676	-73.49484	good	New Canaan	US
2021/01/02	45.51667	4.86667	good	Vienne	FR
26 Sep 2013	-26.22861	-52.67056	average	Pato Branco	BR
2016-11-27	51.14942	15.00835	maintenance	Zgorzelec	PL
14 Aug 2017	33.3213	130.94098	excellent	Hita	JP
2017/05/03	41.27194	123.17306	average	Liaoyang	CN
2015-08-12	-27.4338	-65.61427	good	Aguilares	AR
2017/05/23	55.67938	12.53463	excellent	Frederiksberg	DK
07/21/2013, 00:00:00	47.90771	106.88324	average	Ulan Bator	MN
18 Jul 2021	30.17746	-81.38758	accep	Palm Valley	US
2022-09-18	36.46917	10.78222	excellent	Beni Khiar	TN
2017/07/19	35.8	137.23333	excellent	Gero	JP
08/19/2022, 00:00:00	53.95278	32.86389	accep	Roslavl‚Äô	RU
08 Jun 2020	50.82882	-0.32247	good	Lancing	GB
22 Jun 2016	33.35283	-111.78903	average	Gilbert	US
06/26/2019, 00:00:00	41.47892	-87.45476	maintenance	Schererville	US
10 Jan 2014	3.3285	99.1625	maintenance	Tebingtinggi	ID
2020/05/26	40.78206	72.34424	maintenance	Andijon	UZ
2021/08/13	44.92801	4.8951	good	Valence	FR
06/14/2020, 00:00:00	57.30185	39.85331	good	Gavrilov-Yam	RU
2014-07-11	4.94273	15.87735	excellent	Carnot	CF
12/29/2019, 00:00:00	5.20856	-74.73584	accep	Honda	CO
15 Dec 2018	-36.9256	-73.02841	maintenance	Chiguayante	CL
2013/11/17	34.25628	-78.04471	maintenance	Leland	US
15 Aug 2018	35.74788	-95.36969	accep	Muskogee	US
29 Jul 2014	13.56667	-15.6	good	Farafenni	GM
12/20/2016, 00:00:00	-0.35817	42.54536	excellent	Kismayo	SO
05 Mar 2016	46.1351	-60.1831	maitennce	Sydney	CA
10/02/2013, 00:00:00	31.96258	73.97117	good	Naushahra Virkan	PK
06 Apr 2017	40.92298	14.30935	excellent	Afragola	IT
12 Oct 2016	48.86667	2.08333	average	Marly-le-Roi	FR
2022-01-08	-27.4338	-65.61427	good	Aguilares	AR
2022-01-26	41.27621	-72.86843	average	East Haven	US
2016-08-27	42.8334	-80.38297	average	Norfolk County	CA
02/03/2017, 00:00:00	39.12074	27.18052	maintenance	Bergama	TR
2013-05-26	42.7392	-84.62081	good	Waverly	US
01/28/2017, 00:00:00	43.2907	5.4384	building	Marseille 11	FR
23 Aug 2020	12.35275	121.06761	excellent	San Jose	PH
09/25/2014, 00:00:00	49.41029	38.15035	maintenance	Svatove	UA
2015-09-04	42	21.32778	average	Saraj	MK
05/22/2020, 00:00:00	36	139.55722	accep	Okegawa	JP
01/10/2013, 00:00:00	-31.4488	-60.93173	accep	Esperanza	AR
04/23/2017, 00:00:00	50.82709	6.9747	excellent	Wesseling	DE
05/07/2017, 00:00:00	43.54072	-116.56346	good	Nampa	US
2019/11/16	26.9423	68.11759	good	Tharu Shah	PK
2021-12-03	65.84811	24.14662	maintenance	Tornio	FI
2014-07-29	10.98778	-74.95472	excellent	Puerto Colombia	CO
12/09/2021, 00:00:00	10.7375	122.9666	good	Talisay	PH
26 Mar 2022	15.46063	99.89166	excellent	Thap Than	TH
2015-06-17	55.1904	30.2049	average	Vitebsk	BY
2021-01-13	36	139.55722	good	Okegawa	JP
07/03/2020, 00:00:00	-31.4488	-60.93173	accep	Esperanza	AR
2013/10/15	-20.88231	55.4504	excellent	Saint-Denis	RE
2021/09/09	-10.91111	-37.07167	average	Aracaju	BR
2018-02-01	45.53929	-122.38731	accep	Troutdale	US
15 Oct 2016	-25.42778	-49.27306	excellent	Curitiba	BR
16 May 2014	33.14447	47.3799	excellent	Darreh Shahr	IR
17 Dec 2014	55.82737	-4.0573	building	Viewpark	GB
04 Jun 2014	50.72043	11.34046	average	Rudolstadt	DE
12 Jun 2021	51.64316	-0.36053	excellent	Bushey	GB
09 Feb 2014	47.83333	59.6	good	Shalqar	KZ
05/05/2016, 00:00:00	41.6764	-91.58045	good	Coralville	US
2021/04/26	51.40944	46.04833	good	Privolzhskiy	RU
2016-08-13	16.75973	-93.11308	excellent	Tuxtla	MX
09/20/2015, 00:00:00	11.85	38.01667	maintenance	Debre Tabor	ET
2022-07-28	43.91452	-69.96533	accep	Brunswick	US
2020-11-28	48.49144	9.20427	maintenance	Reutlingen	DE
2020/08/10	34.21639	-119.0376	accep	Camarillo	US
22 Oct 2014	-8.99167	125.21972	excellent	Maliana	TL
2019/11/22	34.5624	38.28402	maintenance	Tadmur	SY
03/09/2022, 00:00:00	16.06213	76.0586	average	Hungund	IN
20 Aug 2020	5.4709	100.24529	excellent	Batu Feringgi	MY
23 Nov 2012	16.0438	120.4861	excellent	Manaoag	PH
2017/04/30	4.96667	10.7	excellent	Tonga	CM
2022/09/21	6.03333	37.55	good	Arba Minch	ET
11/01/2019, 00:00:00	37.49073	-2.77259	maintenance	Baza	ES
2018/02/16	-34.64167	-60.47389	average	Chacabuco	AR
2013/03/10	-8.05389	-34.88111	average	Recife	BR
2021/02/28	58.1908	40.17171	good	Danilov	RU
2015-01-15	10.20898	123.758	maintenance	Naga	PH
12/10/2019, 00:00:00	-4.5833	15.16554	building	Kasangulu	CD
06/13/2020, 00:00:00	32.9156	-117.14392	maintenance	Mira Mesa	US
01/17/2020, 00:00:00	34.25	135.31667	average	Iwade	JP
2020-08-07	13.8196	100.04427	excellent	Nakhon Pathom	TH
2022-06-27	10.29085	105.75635	excellent	Sa Dec	VN
04/23/2017, 00:00:00	38.47917	-1.325	accep	Jumilla	ES
08/18/2021, 00:00:00	36.92574	14.72443	average	Ragusa	IT
06 Jun 2017	48.98693	2.44892	accep	Gonesse	FR
2022-06-07	-28.24	-48.67028	maintenance	Imbituba	BR
2017/06/25	-4.5833	15.16554	maintenance	Kasangulu	CD
25 Feb 2021	44.89784	8.86374	good	Tortona	IT
17 May 2019	20.88197	85.83334	good	Bhuban	IN
01/25/2021, 00:00:00	50.23019	8.77155	accep	Karben	DE
2013/08/13	25.80565	68.49143	average	Bhit Shah	PK
17 Feb 2017	37.52487	-77.55777	maintenance	Bon Air	US
2016-07-04	13.56667	-15.6	accep	Farafenni	GM
07/15/2022, 00:00:00	41.55815	-73.0515	excellent	Waterbury	US
07/24/2017, 00:00:00	9.57046	76.32756	excellent	Kalavoor	IN
11/20/2021, 00:00:00	49.28669	1.00288	accep	Elbeuf	FR
12/06/2012, 00:00:00	35.05266	-78.87836	average	Fayetteville	US
18 May 2014	39.09112	-94.41551	good	Independence	US
16 Aug 2022	8.88649	2.59753	building	Tchaourou	BJ
2016-09-11	31.28092	74.85849	average	Patti	IN
01/18/2015, 00:00:00	40.37528	28.88222	excellent	Mudanya	TR
2017/01/27	42.06166	-1.60452	good	Tudela	ES
10 Mar 2016	32.52515	-93.75018	average	Shreveport	US
06/30/2020, 00:00:00	44.92934	37.99117	excellent	Krymsk	RU
19 Nov 2014	36.64852	51.49621	average	Nowshahr	IR
05/04/2022, 00:00:00	8.43333	99.96667	good	Nakhon Si Thammarat	TH
2014/04/29	40.94065	-73.99681	good	Dumont	US
2014/10/03	50.8	3.16667	excellent	Wevelgem	BE
04 Sep 2021	22.4711	88.1453	good	Pujali	IN
20 Apr 2015	-26.22861	-52.67056	accep	Pato Branco	BR
2020-05-25	46.32313	-0.45877	maintenance	Niort	FR
12/28/2012, 00:00:00	35.21222	2.31889	average	Ksar Chellala	DZ
2016/03/21	31.78336	35.23388	excellent	East Jerusalem	PS
06/25/2017, 00:00:00	35.95664	36.7138	good	Binnish	SY
2017-02-24	40.65995	-111.99633	excellent	Kearns	US
2019-08-03	30.76468	74.12286	excellent	Kanganpur	PK
02 Sep 2018	20.21322	-100.88023	good	Salvatierra	MX
02 Mar 2017	40.24537	-75.64963	accep	Pottstown	US
2014-05-27	28.98002	77.70636	accep	Meerut	IN
12/11/2015, 00:00:00	9.58126	8.2926	excellent	Kafanchan	NG
2020-07-14	41.48199	-81.79819	excellent	Lakewood	US
2016-12-01	14.93333	-91.11667	average	Chichicastenango	GT
01/20/2015, 00:00:00	22.88783	84.13864	good	Jashpurnagar	IN
2022/05/09	55.54028	89.20083	average	Sharypovo	RU
2013-11-14	53.63333	9.85	maintenance	Halstenbek	DE
2014-11-27	-37.88333	145.06667	good	Carnegie	AU
09/30/2017, 00:00:00	34.9	137.5	good	Shinshiro	JP
2018/05/31	24.28859	116.11768	accep	Meizhou	CN
29 Aug 2022	35.72917	10.58082	excellent	Msaken	TN
06 Jun 2015	32.52515	-93.75018	maintenance	Shreveport	US
2014/12/21	45.53929	-122.38731	excellent	Troutdale	US
16 Feb 2019	23.15678	-81.24441	excellent	Varadero	CU
2014-10-28	-19.65	47.31667	excellent	Antanifotsy	MG
2019-09-10	-6.25	38.66667	excellent	Mvomero	TZ
08 Feb 2014	26.9423	68.11759	accep	Tharu Shah	PK
2021-05-26	51.21187	4.25633	excellent	Beveren	BE
09/18/2015, 00:00:00	-27.4338	-65.61427	average	Aguilares	AR
2018/04/04	38.17492	-122.2608	excellent	American Canyon	US
11 May 2020	-1.26424	104.09701	building	Simpang	ID
2016/02/03	40.87329	14.43865	average	Somma Vesuviana	IT
2015/09/30	-3.14306	-58.44417	average	Itacoatiara	BR
02/24/2019, 00:00:00	40.78206	72.34424	excellent	Andijon	UZ
01/15/2016, 00:00:00	9.82564	78.25795	excellent	Tiruppuvanam	IN
2020-08-06	50.79205	-1.08593	accep	Southsea	GB
2019/01/18	44.85278	65.50917	maintenance	Kyzylorda	KZ
2019/07/23	-20.87306	-48.29694	good	Viradouro	BR
09/11/2022, 00:00:00	50.74497	3.20639	accep	Mouscron	BE
11/20/2017, 00:00:00	22.19303	88.18466	accep	Diamond Harbour	IN
08 Nov 2012	31.76212	-95.63079	good	Palestine	US
2015-01-28	10.29085	105.75635	good	Sa Dec	VN
2019-01-13	53.16167	6.76111	accep	Hoogezand	NL
2022-01-11	24.41288	76.56719	accep	Aklera	IN
2018/11/30	-14.66463	-52.35558	acceptable	Nova Xavantina	BR
09/01/2015, 00:00:00	-27.76952	30.79165	accep	Vryheid	ZA
2016/01/06	32.9156	-117.14392	excellent	Mira Mesa	US
2015-09-09	45.79377	8.88104	maintenance	Malnate	IT
01/27/2022, 00:00:00	34.86472	117.55417	accep	Zaozhuang	CN
05/19/2021, 00:00:00	23.07492	88.28637	excellent	Pandua	IN
09/22/2021, 00:00:00	50.18545	27.06365	accep	Shepetivka	UA
01 Jul 2014	6.8485	3.64633	average	Shagamu	NG
2017-01-21	51.44889	5.51978	good	Tongelre	NL
2016/11/09	20.88098	75.11937	average	Parola	IN
24 Apr 2018	7.06273	-1.4001	average	Mampong	GH
2019-06-06	41.92361	20.91361	average	Bogovinje	MK
2020-03-11	2.2139	102.3278	building	Kampung Ayer Molek	MY
17 Aug 2013	38.58894	-89.99038	maintenance	Fairview Heights	US
02 Feb 2020	33.92866	-6.90656	accep	Temara	MA
2022/06/29	51.67822	33.9162	accep	Hlukhiv	UA
02/16/2019, 00:00:00	12.74409	-8.07257	accep	Kati	ML
14 Nov 2020	40.66482	122.22833	good	Yingkou	CN
2021/12/17	39.57582	-105.11221	building	Ken Caryl	US
2013-09-08	39.09112	-94.41551	maintenance	Independence	US
2015-11-01	48.35693	10.98461	building	Friedberg	DE
2020/04/18	36	139.55722	good	Okegawa	JP
22 Sep 2020	55.1904	30.2049	good	Vitebsk	BY
2022/05/22	-14.66463	-52.35558	average	Nova Xavantina	BR
2020/01/07	13.44581	101.18445	excellent	Phanat Nikhom	TH
08/25/2021, 00:00:00	43.62558	13.39954	average	Falconara Marittima	IT
2015/04/06	25.87972	-97.50417	average	Heroica Matamoros	MX
2018-08-31	46.18396	6.10237	accep	Onex	CH
2012-10-11	25.95533	68.88871	average	Jhol	PK
28 Sep 2015	60.2052	24.6522	excellent	Espoo	FI
2014-09-09	54.03876	43.91385	accep	Kovylkino	RU
15 Apr 2016	10.66668	-61.51889	good	Port of Spain	TT
29 Apr 2016	39.59611	27.02444	good	Edremit	TR
2014-09-14	38.96667	-0.18333	good	Gandia	ES
12/24/2015, 00:00:00	37.13548	-3.67029	excellent	Las Gabias	ES
2015/02/27	58.1908	40.17171	excellent	Danilov	RU
11/10/2014, 00:00:00	27.55898	68.21204	accep	Larkana	PK
04/02/2016, 00:00:00	16.0438	120.4861	accep	Manaoag	PH
2020/05/20	30.81383	75.16878	acceptable	Moga	IN
18 May 2019	36.61033	-88.31476	average	Murray	US
05 Apr 2019	-11.48472	-37.93278	good	Rio Real	BR
2019/09/15	52.31333	6.92917	average	Oldenzaal	NL
2022-04-24	48.46458	9.22796	maitennce	Pfullingen	DE
2021-12-23	-6.48167	106.85417	accep	Cibinong	ID
05/22/2018, 00:00:00	37.49073	-2.77259	accep	Baza	ES
24 Jul 2020	15.48131	-86.57415	maintenance	Olanchito	HN
2013-10-22	36.81667	117.81667	accep	Zhoucun	CN
2016-12-07	20.74122	-100.44843	building	Santa Rosa Jauregui	MX
07/12/2017, 00:00:00	34.08565	74.80555	average	Srinagar	IN
2017/08/29	33.72255	-116.37697	good	Palm Desert	US
06/26/2017, 00:00:00	14.66	120.56528	accep	Pilar	PH
05/12/2013, 00:00:00	40.68066	-73.47429	good	Massapequa	US
2013/04/01	53.53041	43.67663	excellent	Nizhniy Lomov	RU
11/29/2013, 00:00:00	50.82882	-0.32247	maintenance	Lancing	GB
07 Jul 2016	7.57944	-8.53778	good	New Yekepa	LR
2018/05/29	32.50611	120.14278	excellent	Jiangyan	CN
10/23/2020, 00:00:00	45.53069	9.40531	good	Gorgonzola	IT
2018-10-16	35.05266	-78.87836	accep	Fayetteville	US
2012-12-14	41.20485	-8.33147	accep	Paredes	PT
05 Dec 2020	-27.50578	153.10236	accep	Carindale	AU
2017/10/28	18.18158	76.03889	average	Osmanabad	IN
2021-03-23	38.54491	-121.74052	excellent	Davis	US
08/19/2018, 00:00:00	-37.32167	-59.13316	average	Tandil	AR
2021/10/09	58.23583	92.48278	good	Lesosibirsk	RU
06/12/2018, 00:00:00	48.8765	2.18967	accep	Rueil-Malmaison	FR
11/07/2019, 00:00:00	34.75856	136.13108	maitennce	Ueno-ebisumachi	JP
06/29/2019, 00:00:00	-6.8048	110.8405	maintenance	Kudus	ID
2014/07/24	22.75218	72.68533	average	Kheda	IN
2019/02/05	50.7236	-3.52751	excellent	Exeter	GB
26 Apr 2021	36.21544	65.93249	average	Sar-e Pul	AF
28 Mar 2016	38.10558	-1.86343	accep	Caravaca	ES
14 Apr 2019	-37.88333	145.06667	excellent	Carnegie	AU
12/06/2017, 00:00:00	50.71229	4.52529	accep	Rixensart	BE
2018-05-21	23.0072	-82.4017	maintenance	Boyeros	CU
19 Feb 2019	47.48444	36.25361	good	Polohy	UA
2017-12-15	51.08468	7.11393	excellent	Burscheid	DE
2017/03/01	52.71083	5.74861	accep	Emmeloord	NL
2022/03/01	50.11861	-5.53715	good	Penzance	GB
11/19/2020, 00:00:00	43.41949	77.0202	maintenance	Otegen Batyra	KZ
2022/09/09	36.46917	10.78222	maintenance	Beni Khiar	TN
16 Feb 2021	48.8765	2.18967	good	Rueil-Malmaison	FR
2017/01/15	-8.73508	24.99798	maitennce	Kamina	CD
2012-10-02	23.18	88.58	building	Aistala	IN
23 May 2022	49.28669	1.00288	average	Elbeuf	FR
03/09/2022, 00:00:00	45.53929	-122.38731	good	Troutdale	US
05/16/2018, 00:00:00	55.62047	37.49338	accep	Tyoply Stan	RU
2018-04-15	36.61954	4.08282	building	Beni Douala	DZ
28 Aug 2016	39.45621	-77.96389	average	Martinsburg	US
02/06/2019, 00:00:00	39.57582	-105.11221	excellent	Ken Caryl	US
02/13/2021, 00:00:00	0.46005	34.11169	excellent	Busia	KE
07/07/2021, 00:00:00	43.54072	-116.56346	maintenance	Nampa	US
10/01/2016, 00:00:00	-4.26613	15.28318	excellent	Brazzaville	CG
06/10/2018, 00:00:00	40.57788	-73.95958	good	Brighton Beach	US
2021-12-07	53.51684	-113.3187	accep	Sherwood Park	CA
2014/09/02	34.21639	-119.0376	excellent	Camarillo	US
08/29/2013, 00:00:00	46.7055	38.2739	maintenance	Yeysk	RU
22 Jan 2016	23.15678	-81.24441	accep	Varadero	CU
11 Jan 2015	8.56697	123.33471	excellent	Dipolog	PH
2019/11/10	25.95533	68.88871	accep	Jhol	PK
2017-09-17	40.57788	-73.95958	good	Brighton Beach	US
15 Oct 2020	-3.14306	-58.44417	excellent	Itacoatiara	BR
2013-12-13	33.76446	-117.79394	good	North Tustin	US
18 Jul 2013	48.43174	17.8031	average	Hlohovec	SK
2022/02/10	5.84752	-5.682	average	Lakota	CI
2018/01/03	32.44874	-99.73314	accep	Abilene	US
08/03/2019, 00:00:00	26.9423	68.11759	building	Tharu Shah	PK
2017/11/09	40.85158	122.74754	excellent	Haicheng	CN
06 Aug 2017	23.0072	-82.4017	building	Boyeros	CU
06/29/2016, 00:00:00	41.66394	-83.55521	building	Toledo	US
24 Apr 2019	43.62558	13.39954	good	Falconara Marittima	IT
01/17/2018, 00:00:00	-1.63333	13.58357	good	Franceville	GA
24 Jul 2018	40.53123	17.58522	excellent	Francavilla Fontana	IT
21 Nov 2018	52.68333	0.93333	acceptable	East Dereham	GB
2012-12-29	6.03333	37.55	average	Arba Minch	ET
11/22/2017, 00:00:00	21.53889	71.57737	excellent	Gariadhar	IN
2021-05-12	-38.65333	178.00417	good	Gisborne	NZ
2021-08-27	8.62261	-70.20749	building	Barinas	VE
2013/04/23	-23.44361	-51.87389	good	Sarandi	BR
2019-04-01	33.92866	-6.90656	average	Temara	MA
11/16/2019, 00:00:00	-34.88422	150.60036	average	Nowra	AU
2018-09-24	20.88953	-156.47432	good	Kahului	US
02 Aug 2015	27.71809	-82.35176	good	Sun City Center	US
2019-07-22	7.57944	-8.53778	accep	New Yekepa	LR
2019-10-27	51.30001	13.10984	average	Oschatz	DE
08/22/2013, 00:00:00	35.85	117.7	excellent	Dongdu	CN
2021-07-08	57.97472	33.2525	average	Valday	RU
07/06/2015, 00:00:00	-2.68333	33	good	Usagara	TZ
2021/11/02	40.85158	122.74754	good	Haicheng	CN
2022-09-14	10.98778	-74.95472	excellent	Puerto Colombia	CO
01/12/2013, 00:00:00	-28.81833	-52.51028	maintenance	Soledade	BR
15 May 2021	-32.45242	-71.23106	good	La Ligua	CL
2020-06-17	40.87363	14.34085	building	Volla	IT
22 Jun 2017	-25.42944	-50.00639	good	Palmeira	BR
2018-04-28	59.33333	18.28333	maintenance	Boo	SE
05 Nov 2012	-2.13404	-79.59415	accep	Milagro	EC
2013-09-12	51.955	5.22778	accep	Culemborg	NL
09/17/2021, 00:00:00	64.5635	39.8302	accep	Severodvinsk	RU
09/04/2017, 00:00:00	-20.88231	55.4504	accep	Saint-Denis	RE
04/27/2021, 00:00:00	60.2052	24.6522	good	Espoo	FI
2017/10/29	57.14369	-2.09814	building	Aberdeen	GB
05/09/2022, 00:00:00	53.53395	33.72798	good	Zhukovka	RU
2017-09-29	10.29085	105.75635	building	Sa Dec	VN
02/22/2019, 00:00:00	51.19139	6.51352	maintenance	Korschenbroich	DE
2018-07-11	25.67927	-80.31727	accep	Kendall	US
2016-05-27	36.6009	126.665	excellent	Hongseong	KR
2017-04-08	10.29085	105.75635	average	Sa Dec	VN
2018-07-13	30.35028	112.19028	average	Jingzhou	CN
11/11/2019, 00:00:00	5.90702	116.10146	excellent	Donggongon	MY
2013-04-24	18.18158	76.03889	average	Osmanabad	IN
2016-06-06	44.98901	38.94324	excellent	Yablonovskiy	RU
18 Feb 2015	47.30997	8.52462	accep	Adliswil	CH
10/25/2012, 00:00:00	35.815	139.6853	average	Shimotoda	JP
2019/12/31	32.50611	120.14278	average	Jiangyan	CN
05/17/2020, 00:00:00	50.79205	-1.08593	accep	Southsea	GB
15 May 2014	43.62558	13.39954	maintenance	Falconara Marittima	IT
03/19/2014, 00:00:00	12.18441	18.69303	average	Mongo	TD
12 Sep 2015	45.75279	130.57211	good	Boli	CN
2020-01-24	-34.64167	-60.47389	accep	Chacabuco	AR
2022/02/19	6.03333	37.55	good	Arba Minch	ET
2015/04/09	-23.7975	-48.59278	excellent	Buri	BR
25 Sep 2014	53.59782	34.33825	accep	Dyat‚Äôkovo	RU
17 Oct 2013	-3.20333	-52.20639	excellent	Altamira	BR
2017/10/11	36.27462	4.85668	accep	Bordj Zemoura	DZ
2018-06-06	9.91861	-68.30472	maintenance	Tinaquillo	VE
09 Sep 2022	13.65805	102.56365	maintenance	Paoy Paet	KH
2014/04/08	3.3285	99.1625	average	Tebingtinggi	ID
2015/05/19	23.73333	114.68333	excellent	Heyuan	CN
01/29/2015, 00:00:00	27.9247	78.40102	accep	Chharra	IN
2017-01-09	42.50729	1.53414	good	les Escaldes	AD
05/29/2014, 00:00:00	37.05944	37.3825	good	Gaziantep	TR
2018/05/25	35.72917	10.58082	building	Msaken	TN
12 Feb 2017	-6.8	39.25	excellent	Magomeni	TZ
2016/04/23	-8.28333	-35.03333	excellent	Cabo	BR
2013-02-07	20.74122	-100.44843	average	Santa Rosa Jauregui	MX
22 Jul 2016	-22.97056	-46.99583	building	Valinhos	BR
07/03/2021, 00:00:00	60.02427	30.28491	building	Kolomyagi	RU
04/22/2020, 00:00:00	42.62833	20.89389	accep	Glogovac	XK
31 Dec 2019	48.90472	2.2469	average	La Garenne-Colombes	FR
2018/10/01	49.07866	30.96755	maintenance	Zvenihorodka	UA
15 Aug 2013	35.88264	-80.08199	average	Thomasville	US
2015/05/24	43.61058	1.33467	excellent	Colomiers	FR
07/15/2018, 00:00:00	14.53767	46.83187	average	Ataq	YE
18 Nov 2015	50.86079	17.4674	excellent	Brzeg	PL
2015/04/02	46.32313	-0.45877	average	Niort	FR
2018/12/20	43.41949	77.0202	average	Otegen Batyra	KZ
03/15/2013, 00:00:00	68.79833	16.54165	accep	Harstad	NO
2022-02-24	13.56667	-15.6	good	Farafenni	GM
02/03/2020, 00:00:00	55.67938	12.53463	average	Frederiksberg	DK
06/25/2019, 00:00:00	5.90702	116.10146	average	Donggongon	MY
2021/06/12	45.47885	133.42825	excellent	Lesozavodsk	RU
2017/06/25	11.12018	76.11996	maintenance	Manjeri	IN
2016-08-04	37.13548	-3.67029	accep	Las Gabias	ES
01/05/2019, 00:00:00	6.03333	37.55	excellent	Arba Minch	ET
26 Mar 2016	38.47917	-1.325	good	Jumilla	ES
04/20/2022, 00:00:00	32.65246	51.67462	average	Isfahan	IR
07/28/2016, 00:00:00	36.81667	117.81667	building	Zhoucun	CN
2018-09-07	51.03427	5.37429	good	Houthalen	BE
06/14/2020, 00:00:00	54.8421	46.5813	good	Alatyr‚Äô	RU
2014-01-24	-1.9487	30.4347	good	Rwamagana	RW
07/02/2019, 00:00:00	6.9909	79.883	good	Hendala	LK
22 Jun 2014	33.08014	-83.2321	accep	Milledgeville	US
02/08/2019, 00:00:00	35.8	137.23333	good	Gero	JP
2015-10-31	41.14676	-73.49484	excellent	New Canaan	US
2012/11/25	-44.39672	171.25364	accep	Timaru	NZ
2018-12-02	-15.675	-38.94722	excellent	Canavieiras	BR
19 May 2013	16.455	120.5875	accep	La Trinidad	PH
28 Jul 2018	27.85	112.9	good	Xiangtan	CN
01/09/2018, 00:00:00	53.83333	-2.98333	accep	Poulton-le-Fylde	GB
07 Jan 2014	34.21639	-119.0376	accep	Camarillo	US
2020/03/31	37.35813	-6.03731	average	San Juan de Aznalfarache	ES
2013-04-25	32.9156	-117.14392	accep	Mira Mesa	US
2017-07-14	41.91886	8.73812	excellent	Ajaccio	FR
08/01/2020, 00:00:00	51.40944	46.04833	good	Privolzhskiy	RU
17 Feb 2015	-6.8048	110.8405	average	Kudus	ID
02/10/2019, 00:00:00	55.54028	89.20083	maitennce	Sharypovo	RU
15 Aug 2021	43.48961	-8.2194	building	Ferrol	ES
2017-08-22	38.68712	-4.10734	good	Puertollano	ES
2020/07/19	53.7446	-0.33525	good	Kingston upon Hull	GB
07/11/2015, 00:00:00	5.27247	-3.59625	excellent	Bonoua	CI
28 Nov 2020	37.49223	15.07041	good	Catania	IT
2013-12-26	51.67822	33.9162	good	Hlukhiv	UA
2018-07-07	41.54566	-71.29144	average	Middletown	US
2015/03/03	30.21121	74.4818	accep	Malaut	IN
2015-07-12	20.21322	-100.88023	accep	Salvatierra	MX
2020/10/18	30.16688	-96.39774	accep	Brenham	US
11 May 2013	42.28639	18.84	building	Budva	ME
2016/01/07	50.8	3.16667	maintenance	Wevelgem	BE
16 Mar 2019	-7.60361	37.00438	excellent	Kidodi	TZ
12/01/2020, 00:00:00	5.20856	-74.73584	average	Honda	CO
06/06/2022, 00:00:00	18.42745	-67.15407	average	Aguadilla	PR
11 Aug 2016	28.98002	77.70636	good	Meerut	IN
28 May 2015	30.76468	74.12286	good	Kanganpur	PK
2017-03-12	31.20176	29.91582	building	Alexandria	EG
30 Oct 2020	20.14298	-77.43532	maintenance	Media Luna	CU
11 Apr 2013	13.56667	-15.6	accep	Farafenni	GM
12 Feb 2015	-28.81833	-52.51028	good	Soledade	BR
06/05/2013, 00:00:00	46.09273	-88.64235	accep	Iron River	US
09/29/2014, 00:00:00	43.61062	-72.97261	average	Rutland	US
13 Nov 2015	-20.25333	-43.80139	excellent	Itabirito	BR
2013-10-24	48.43174	17.8031	accep	Hlohovec	SK
17 Jan 2017	22.98212	-80.58556	good	Corralillo	CU
01/24/2019, 00:00:00	-1.26424	104.09701	average	Simpang	ID
2021/02/07	48.07667	8.64409	accep	Trossingen	DE
01 Jul 2016	18.87813	72.93924	good	Uran	IN
2014-02-28	51.12794	4.21372	building	Temse	BE
2015/04/23	4.94273	15.87735	excellent	Carnot	CF
2019/08/07	33.45122	-86.99666	average	Hueytown	US
06/12/2022, 00:00:00	-31.95224	115.8614	maintenance	Perth	AU
2015/05/19	-6.8048	110.8405	building	Kudus	ID
2014-08-17	0.51667	101.44167	accep	Pekanbaru	ID
2014/10/02	36.20389	127.08472	maintenance	Nonsan	KR
2022/02/17	54.52156	9.5586	average	Schleswig	DE
26 Mar 2021	55.54028	89.20083	building	Sharypovo	RU
2016/10/06	12.97389	123.99333	excellent	Sorsogon	PH
2019/05/27	44.80477	-0.59543	maintenance	Talence	FR
2019-12-28	52.09	5.23333	building	Zeist	NL
2013/10/13	16.0438	120.4861	average	Manaoag	PH
2014/05/02	43.32393	5.4584	average	Les Olives	FR
19 Feb 2020	43.2907	5.4384	building	Marseille 11	FR
17 Mar 2020	35.06544	1.04945	building	Frenda	DZ
2017-11-03	38.70734	-77.02303	average	Fort Washington	US
30 Oct 2013	40.57788	-73.95958	good	Brighton Beach	US
09/24/2020, 00:00:00	5.84752	-5.682	maintenance	Lakota	CI
02 Jun 2014	10.66668	-61.51889	average	Port of Spain	TT
2017-01-05	58.63667	59.80222	accep	Lesnoy	RU
2014-07-14	0.51667	101.44167	good	Pekanbaru	ID
09/02/2020, 00:00:00	-17.74431	-48.62789	good	Caldas Novas	BR
11/15/2013, 00:00:00	-10.95817	-38.79084	good	Tucano	BR
2018/10/30	12.37169	123.62494	maintenance	Masbate	PH
2017/04/05	51.21187	4.25633	excellent	Beveren	BE
04 Nov 2013	15.46063	99.89166	excellent	Thap Than	TH
2019/05/22	57.47908	-4.22398	average	Inverness	GB
09/23/2013, 00:00:00	51.168	7.973	good	Finnentrop	DE
29 Apr 2018	29.69221	72.54566	maintenance	Hasilpur	PK
2015/08/31	40.65995	-111.99633	good	Kearns	US
2013-09-28	42.4251	-71.06616	excellent	Malden	US
2014-11-12	29.98869	122.20488	good	Zhoushan	CN
2018/06/23	53.77166	38.12408	average	Bogoroditsk	RU
2012-12-13	68.79833	16.54165	excellent	Harstad	NO
2022-07-18	41.72063	12.6723	good	Ariccia	IT
2021/08/01	40.82232	-74.15987	accep	Nutley	US
09 Dec 2021	35.21222	2.31889	accep	Ksar Chellala	DZ
2013-06-01	39.57582	-105.11221	excellent	Ken Caryl	US
16 Feb 2020	33.54428	-84.23381	good	Stockbridge	US
24 Oct 2014	53.53041	43.67663	accep	Nizhniy Lomov	RU
01/10/2020, 00:00:00	31.76212	-95.63079	accep	Palestine	US
2021/10/30	51.955	5.22778	accep	Culemborg	NL
09/18/2014, 00:00:00	-5.41667	38.01667	good	Chanika	TZ
2013-03-29	19.32889	-99.32556	accep	San Lorenzo Acopilco	MX
11 Dec 2013	51.42708	-0.91979	maintenance	Lower Earley	GB
2021/01/10	13.48082	-86.58208	excellent	Somoto	NI
2020/11/05	50.74497	3.20639	average	Mouscron	BE
2021/12/27	45.39402	9.29109	average	San Giuliano Milanese	IT
07 Dec 2017	35.05266	-78.87836	average	Fayetteville	US
08/21/2022, 00:00:00	52.68333	0.93333	excellent	East Dereham	GB
04 Jan 2021	17.54907	82.85749	accep	Elamanchili	IN
2017-07-09	45.53929	-122.38731	building	Troutdale	US
2020-03-08	23.02677	113.13148	good	Foshan	CN
2022/06/16	-28.44917	-52.2	maintenance	Marau	BR
2019-02-27	36.6009	126.665	good	Hongseong	KR
2014/07/13	-8.43333	114.33333	excellent	Muncar	ID
04/09/2016, 00:00:00	41.29444	69.67639	maintenance	Parkent	UZ
2016-06-03	43.83125	5.03586	accep	Cavaillon	FR
04/01/2016, 00:00:00	40.78206	72.34424	excellent	Andijon	UZ
14 Dec 2013	26.67319	31.4976	accep	Juhaynah	EG
24 Jan 2022	42.24113	-88.3162	average	Crystal Lake	US
2016-12-19	17.06542	-96.72365	building	Oaxaca	MX
19 Jun 2020	33.7207	-116.21677	maintenance	Indio	US
01/20/2022, 00:00:00	34.85	117.33333	excellent	Taozhuang	CN
08/16/2020, 00:00:00	55.1904	30.2049	average	Vitebsk	BY
2013-06-20	50.23271	12.87117	accep	Karlovy Vary	CZ
2020/10/27	30.21121	74.4818	accep	Malaut	IN
06/24/2014, 00:00:00	34.25628	-78.04471	good	Leland	US
2021-07-15	18.20854	-71.10077	good	Santa Cruz de Barahona	DO
03/10/2019, 00:00:00	6.33444	124.95278	average	Tupi	PH
28 Jun 2014	-22.97056	-46.99583	average	Valinhos	BR
2022-03-04	7.65649	4.92235	average	Efon-Alaaye	NG
04/11/2015, 00:00:00	19.21667	73.08333	good	Dombivli	IN
2016/07/04	34.09668	-117.71978	excellent	Claremont	US
07/01/2020, 00:00:00	29.53885	-95.44744	good	Fresno	US
2017-11-01	52.14	5.58472	good	Barneveld	NL
09 Sep 2016	51.14942	15.00835	good	Zgorzelec	PL
07/01/2021, 00:00:00	51.88333	8.51667	building	Verl	DE
12/04/2018, 00:00:00	50.88506	4.07601	accep	Denderleeuw	BE
23 Oct 2019	51.04962	12.1369	accep	Zeitz	DE
2021/10/06	35.48199	137.02166	accep	Minokamo	JP
11/20/2020, 00:00:00	56.56317	-2.58736	excellent	Arbroath	GB
05/24/2017, 00:00:00	40.66482	122.22833	accep	Yingkou	CN
2020/11/29	30.81383	75.16878	average	Moga	IN
2020-01-28	29.21399	78.95693	excellent	Kashipur	IN
05 Jan 2014	36.61954	4.08282	accep	Beni Douala	DZ
2017-10-08	40.53123	17.58522	building	Francavilla Fontana	IT
2021-11-06	44.27804	-88.27205	average	Kaukauna	US
2022/03/28	41.55838	-81.56929	good	Collinwood	US
07/09/2018, 00:00:00	38.54491	-121.74052	average	Davis	US
2022/03/11	50.71229	4.52529	average	Rixensart	BE
2019-06-15	8.35122	-62.64102	maintenance	Ciudad Guayana	VE
24 Feb 2016	46.7055	38.2739	excellent	Yeysk	RU
01/10/2020, 00:00:00	20.28527	-103.42897	average	Jocotepec	MX
01 Nov 2018	27.76056	-15.58602	average	Maspalomas	ES
2022-09-06	42.4251	-71.06616	average	Malden	US
2016-04-23	51.955	5.22778	building	Culemborg	NL
07/12/2021, 00:00:00	45.4473	-73.75335	maintenance	Dorval	CA
2013-12-09	34.85	117.33333	good	Taozhuang	CN
2021-06-27	49.13645	8.91229	accep	Eppingen	DE
2013/11/28	37.1759	128.9889	maintenance	T‚Äôaebaek	KR
2019-04-23	25.80565	68.49143	average	Bhit Shah	PK
11/21/2017, 00:00:00	38.96667	-0.18333	average	Gandia	ES
2015-09-27	51.78771	56.36091	average	Saraktash	RU
04/26/2013, 00:00:00	34.25628	-78.04471	average	Leland	US
03/23/2020, 00:00:00	36.72544	3.55665	good	Thenia	DZ
07/21/2021, 00:00:00	42.7	27.25	maitennce	Aytos	BG
09/14/2022, 00:00:00	5.6561	-75.87877	good	Andes	CO
10/11/2013, 00:00:00	0.03813	36.36339	accep	Nyahururu	KE
2020-11-01	-32.05251	115.88782	good	Willetton	AU
2012/10/10	8.79577	-75.69947	good	San Carlos	CO
02 Nov 2018	34.63915	-120.45794	accep	Lompoc	US
15 Dec 2014	46.65581	32.6178	good	Kherson	UA
19 Oct 2013	28.88162	120.03308	average	Guli	CN
2015-11-08	48.77275	5.16108	maintenance	Bar-le-Duc	FR
2014/07/25	26.68451	-80.66756	building	Belle Glade	US
01/04/2021, 00:00:00	-34.74785	-58.70072	accep	Pontevedra	AR
