location	revision	QoS	longitude	station	latitude
America/Guayaquil	09/24/2015, 00:00:00	good	-79.59415	Milagro	-2.13404
America/El_Salvador	25 Mar 2013	maintenance	-89.10944	Ilopango	13.70167
Asia/Kolkata	2016-01-10	building	88.28637	Pandua	23.07492
Europe/Rome	2017/03/28	good	14.39024	Lanciano	42.22718
Africa/Cairo	14 Oct 2018	building	31.4976	Juhaynah	26.67319
America/Chicago	2019-12-07	good	-87.66561	Lower West Side	41.8542
Asia/Kolkata	21 May 2018	maintenance	75.92694	Davangere	14.46693
America/New_York	08 Apr 2020	good	-81.38758	Palm Valley	30.17746
Asia/Shanghai	2015-10-23	average	122.05228	Tianfu	37.19723
Europe/Rome	2014/10/27	excellent	7.60872	Ventimiglia	43.78956
Asia/Tokyo	23 Mar 2013	excellent	141.95	Yamada	39.46667
Asia/Manila	14 Aug 2021	accep	120.97844	Guyong	14.8361
Asia/Karachi	02/15/2016, 00:00:00	accep	70.96699	Kot Addu	30.46907
America/New_York	2022/09/15	good	-75.60804	West Chester	39.96097
America/New_York	2017/11/22	excellent	-80.31727	Kendall	25.67927
Indian/Antananarivo	2018-01-16	good	48.41667	Ambatondrazaka	-17.83333
America/Denver	23 Sep 2017	accep	-111.99633	Kearns	40.65995
America/Chicago	2017/03/28	building	-95.63079	Palestine	31.76212
America/Argentina/Buenos_Aires	2015-10-31	good	-60.47389	Chacabuco	-34.64167
Asia/Shanghai	2015/08/05	accep	117.4831	Shaowu	27.34089
Europe/Moscow	2016/11/04	accep	46.5813	Alatyr‚Äô	54.8421
America/New_York	2016-06-06	excellent	-74.01042	Newburgh	41.50343
Asia/Bishkek	2012/10/03	average	73	Jalal-Abad	40.93333
Asia/Seoul	18 Oct 2012	maintenance	127.08472	Nonsan	36.20389
Asia/Tokyo	2022-06-03	excellent	137.23333	Gero	35.8
Europe/Belgrade	2013-01-09	building	20.89389	Glogovac	42.62833
Europe/Madrid	16 Oct 2021	good	-3.67029	Las Gabias	37.13548
America/New_York	2021/11/05	maintenance	-73.78458	Scarsdale	41.0051
Asia/Kolkata	2017-08-11	building	73.85535	Pune	18.51957
America/Sao_Paulo	04 Jul 2021	excellent	-48.62789	Caldas Novas	-17.74431
America/Chicago	2020-03-21	average	-86.77917	Brentwood Estates	36.02506
America/Managua	2015/10/08	accep	-86.19903	Jinotepe	11.84962
America/New_York	04 Dec 2016	excellent	-71.29144	Middletown	41.54566
Asia/Kolkata	2019/06/30	excellent	74.4818	Malaut	30.21121
America/Boise	13 Jul 2018	average	-116.56346	Nampa	43.54072
Europe/Amsterdam	2017/08/08	excellent	6.76111	Hoogezand	53.16167
Europe/London	10/12/2017, 00:00:00	building	1.15597	Clacton-on-Sea	51.78967
Europe/Paris	06/19/2021, 00:00:00	accep	2.12213	Le Chesnay	48.8222
Europe/Kiev	02 Oct 2021	good	33.34864	Nova Kakhovka	46.75451
Asia/Kolkata	12 May 2015	good	91.00632	Barpeta	26.32293
Asia/Kolkata	2021/10/22	average	76.56719	Aklera	24.41288
Europe/Vienna	2020-07-28	excellent	16.4	Floridsdorf	48.25
Africa/Kampala	07/29/2020, 00:00:00	excellent	30.98551	Paidha	2.41669
Africa/Algiers	01/04/2022, 00:00:00	excellent	3.55665	Thenia	36.72544
Europe/Helsinki	05/07/2022, 00:00:00	building	24.95034	Kallio	60.18427
Europe/London	11/04/2014, 00:00:00	building	-1.48119	Belper	53.0233
Europe/Skopje	2021/10/26	good	20.91361	Bogovinje	41.92361
Europe/Paris	2018/05/17	building	2.18967	Rueil-Malmaison	48.8765
America/Chicago	15 May 2019	excellent	-95.36969	Muskogee	35.74788
Africa/Luanda	2021/02/16	building	19.91667	Luena	-11.78333
Europe/Lisbon	2017-04-29	accep	-9.24671	Carnaxide	38.72706
America/Mexico_City	2020-06-25	excellent	-100.44843	Santa Rosa Jauregui	20.74122
Asia/Shanghai	2020/06/04	accep	120.14278	Jiangyan	32.50611
America/New_York	26 Jan 2015	average	-80.08199	Thomasville	35.88264
Asia/Kolkata	2014/07/09	good	75.37991	Deoli	25.75728
Europe/Rome	2013/07/14	accep	12.84052	Portogruaro	45.78071
Asia/Baku	2019/10/16	excellent	48.87498	Astara	38.45598
America/New_York	03 Aug 2015	average	-74.01042	Newburgh	41.50343
Europe/Berlin	2015/03/19	good	6.74549	Losheim	49.5099
America/Caracas	11 Apr 2021	building	-62.64102	Ciudad Guayana	8.35122
Asia/Tbilisi	20 Sep 2019	good	41.77921	Kobuleti	41.82143
Africa/Accra	02/22/2019, 00:00:00	accep	-1.4001	Mampong	7.06273
Asia/Dili	05/25/2013, 00:00:00	building	125.21972	Maliana	-8.99167
Asia/Kolkata	06/06/2022, 00:00:00	acceptable	74.83554	Sirsi	14.62072
America/Mazatlan	11 Feb 2014	accep	-105.36369	Acaponeta	22.49396
Africa/Algiers	2020/06/25	excellent	4.08282	Beni Douala	36.61954
Europe/Zaporozhye	2018/02/07	average	38.15035	Svatove	49.41029
Asia/Kolkata	2022-05-04	excellent	84.13864	Jashpurnagar	22.88783
Europe/Moscow	15 Sep 2021	good	39.85331	Gavrilov-Yam	57.30185
Europe/Rome	2020-11-13	good	9.40531	Gorgonzola	45.53069
America/Los_Angeles	14 Mar 2017	average	-117.71978	Claremont	34.09668
Europe/Rome	2017-10-04	good	14.34085	Volla	40.87363
Europe/Berlin	01/26/2020, 00:00:00	good	7.2278	Bad Honnef	50.64336
America/New_York	2019-05-04	good	-74.13653	Port Richmond	40.63316
America/Puerto_Rico	2020-10-09	good	-67.15407	Aguadilla	18.42745
America/Los_Angeles	09/23/2020, 00:00:00	good	-120.45794	Lompoc	34.63915
America/Los_Angeles	22 Feb 2022	average	-122.38731	Troutdale	45.53929
America/Caracas	2015/06/21	average	-67.33122	La Victoria	10.22677
Asia/Kuala_Lumpur	29 Nov 2021	excellent	100.24529	Batu Feringgi	5.4709
America/Chicago	2021/12/28	excellent	-91.06177	Greenville	33.41012
Asia/Manila	2017/07/12	good	123.89071	Cebu City	10.31672
Europe/London	2020/02/28	building	1.15597	Clacton-on-Sea	51.78967
Africa/Douala	06/10/2017, 00:00:00	accep	9.00472	Idenao	4.2475
Asia/Shanghai	05 Feb 2014	accep	118.53333	Pucheng	27.92333
Europe/Istanbul	2021/05/05	accep	37.3825	Gaziantep	37.05944
Europe/London	2018/01/26	excellent	1.15597	Clacton-on-Sea	51.78967
America/Chicago	12/13/2021, 00:00:00	good	-88.81395	Jackson	35.61452
Europe/Istanbul	03/19/2022, 00:00:00	accep	34.02537	Aksaray	38.37255
Africa/Addis_Ababa	10/18/2018, 00:00:00	accep	37.55	Arba Minch	6.03333
America/Guayaquil	2016-01-08	average	-79.59415	Milagro	-2.13404
Africa/Gaborone	2015-10-13	accep	27.46153	Tonota	-21.44236
Europe/Saratov	05/07/2015, 00:00:00	good	46.04833	Privolzhskiy	51.40944
America/Chicago	2018-01-21	maintenance	-93.71133	West Des Moines	41.57721
America/New_York	04/08/2018, 00:00:00	good	-82.32483	Gainesville	29.65163
Europe/Moscow	2016-08-07	maintenance	37.92792	Kireyevsk	53.93361
Europe/Paris	2016-09-14	average	2.29026	Sceaux	48.77644
Africa/Bangui	10 Jul 2021	good	15.87735	Carnot	4.94273
Europe/London	02/21/2021, 00:00:00	excellent	-0.29825	Surbiton	51.39148
Europe/Madrid	24 Sep 2016	building	-1.60452	Tudela	42.06166
Asia/Shanghai	2020-05-18	good	123.50266	Hushitai	41.94175
Asia/Shanghai	2019/03/10	accep	105.89333	Beidao	34.56861
America/New_York	2016-10-02	good	-72.97261	Rutland	43.61062
America/Sao_Paulo	09/04/2018, 00:00:00	excellent	-45.94722	Alfenas	-21.42917
America/Jamaica	07/19/2019, 00:00:00	building	-76.78319	New Kingston	18.00747
Europe/Moscow	2021/08/29	average	34.34691	Petrozavodsk	61.78491
America/Argentina/Cordoba	07 Feb 2015	maintenance	-61.4867	Rafaela	-31.25033
Europe/Paris	13 Apr 2022	good	2.45012	Bobigny	48.90982
Europe/Bratislava	2017-12-19	good	17.8031	Hlohovec	48.43174
Europe/Madrid	2012/10/08	maintenance	-0.18333	Gandia	38.96667
Europe/Paris	2019/07/03	average	5.16108	Bar-le-Duc	48.77275
America/Toronto	2014/01/13	maintenance	-73.86586	Beaconsfield	45.43341
Asia/Tokyo	08/31/2022, 00:00:00	average	139.6853	Shimotoda	35.815
America/Los_Angeles	13 Jul 2019	average	-120.93549	Riverbank	37.73604
Asia/Karachi	2015/08/30	good	72.54064	Sillanwali	31.82539
Europe/Moscow	2015/12/25	maintenance	38.02486	Malakhovka	55.64776
America/Maceio	08/11/2020, 00:00:00	good	-37.03861	Barra dos Coqueiros	-10.90889
Asia/Kolkata	2018/09/16	maitennce	77.9129	Narwar	25.6439
Australia/Sydney	12/06/2014, 00:00:00	maintenance	151.08057	Eastwood	-33.79176
America/El_Salvador	2020-11-13	maintenance	-89.71472	Sonzacate	13.73417
Europe/Zurich	2021-07-08	accep	8.52462	Adliswil	47.30997
America/Santiago	07/14/2013, 00:00:00	good	-71.19901	Ovalle	-30.60106
America/New_York	2021/06/22	maitennce	-84.20299	Lebanon	39.43534
Africa/Windhoek	2016-02-29	excellent	16.91667	Okahandja	-21.98333
Europe/Berlin	2017-04-10	accep	6.9747	Wesseling	50.82709
Asia/Shanghai	10/31/2015, 00:00:00	average	117.27583	Sishui	35.64889
America/Bogota	21 Apr 2015	accep	-73.26022	Socorro	6.46838
Europe/Paris	25 Mar 2022	building	2.25	Saint-Omer	50.75
America/Chicago	11 Nov 2013	excellent	-91.06177	Greenville	33.41012
Africa/Addis_Ababa	2015-04-03	excellent	38.01667	Debre Tabor	11.85
Europe/Rome	2013-02-14	accep	14.39024	Lanciano	42.22718
Asia/Karachi	2021-08-21	average	68.11759	Tharu Shah	26.9423
America/Los_Angeles	29 Jul 2020	maintenance	-119.01677	Porterville	36.06523
Europe/Brussels	11/18/2013, 00:00:00	accep	4.25633	Beveren	51.21187
Asia/Shanghai	2014/01/23	average	120.74792	Nanpiao	41.09822
America/Denver	02/22/2016, 00:00:00	accep	-104.83192	Aurora	39.72943
America/Manaus	17 Jul 2017	excellent	-58.44417	Itacoatiara	-3.14306
America/Toronto	2021-03-25	accep	-73.81669	Pointe-Claire	45.44868
America/New_York	09/03/2015, 00:00:00	average	-73.0515	Waterbury	41.55815
Europe/Amsterdam	21 Dec 2019	average	4.47124	Schiebroek	51.95838
Asia/Kolkata	10/28/2021, 00:00:00	average	85.83334	Bhuban	20.88197
America/Los_Angeles	2020/03/28	excellent	-122.24064	Bothell West	47.80527
Europe/Belgrade	2014/10/28	accep	22.53083	Negotin	44.22639
America/Costa_Rica	08/13/2020, 00:00:00	good	-84.13722	San Rafael	9.92787
America/Mexico_City	12/07/2014, 00:00:00	accep	-103.5687	Zacoalco de Torres	20.22816
Europe/London	2020-12-17	accep	-1.06667	Selby	53.78333
Europe/London	02 Jun 2014	maintenance	-2.52398	Winsford	53.19146
America/Bogota	2014-07-29	building	-75.69947	San Carlos	8.79577
Asia/Manila	2017/09/21	excellent	121.12251	Antipolo	14.62578
Africa/Dar_es_Salaam	2021-09-20	good	39.25	Magomeni	-6.8
Australia/Sydney	04/18/2014, 00:00:00	building	150.60036	Nowra	-34.88422
Europe/Moscow	2017/06/27	maintenance	47.1192	Buynaksk	42.819
Asia/Phnom_Penh	01/06/2014, 00:00:00	excellent	102.56365	Paoy Paet	13.65805
America/Lima	2016-11-14	good	-73.25383	Iquitos	-3.74912
Europe/London	2019-04-18	maitennce	-3.05	Blackpool	53.81667
America/New_York	2021/12/21	excellent	-75.64963	Pottstown	40.24537
Asia/Damascus	2022/07/09	average	38.28402	Tadmur	34.5624
Asia/Kolkata	2020-08-02	excellent	75.16878	Moga	30.81383
Asia/Kolkata	2016/09/08	average	74.80555	Srinagar	34.08565
Europe/Zaporozhye	06/30/2022, 00:00:00	excellent	36.25361	Polohy	47.48444
Europe/Berlin	12/10/2012, 00:00:00	excellent	7.36027	Radevormwald	51.20219
America/New_York	10/07/2018, 00:00:00	accep	-71.05977	Boston	42.35843
Europe/Paris	28 May 2017	average	2.12213	Le Chesnay	48.8222
Asia/Karachi	2016/03/05	accep	71.57118	Daud Khel	32.87533
America/Chicago	2016-02-16	excellent	-88.27205	Kaukauna	44.27804
Europe/Warsaw	2021-08-20	average	17.4674	Brzeg	50.86079
Australia/Sydney	05/24/2017, 00:00:00	good	150.99292	Baulkham Hills	-33.75881
Asia/Colombo	2013-06-10	good	79.87116	Dehiwala-Mount Lavinia	6.84019
America/Edmonton	2016/08/13	accep	-113.3187	Sherwood Park	53.51684
Europe/Amsterdam	2019/10/21	maintenance	4.47124	Schiebroek	51.95838
America/Los_Angeles	04 Dec 2018	excellent	-116.37697	Palm Desert	33.72255
Europe/Rome	2020/11/15	average	9.29109	San Giuliano Milanese	45.39402
Asia/Kolkata	10/10/2016, 00:00:00	maintenance	77.656	Pilkhua	28.71271
Europe/Andorra	15 Apr 2016	good	1.53414	les Escaldes	42.50729
Europe/Berlin	10 Sep 2015	excellent	7.20769	Siegburg	50.80019
America/Los_Angeles	2012-09-30	building	-115.98391	Pahrump	36.20829
Asia/Tokyo	07/26/2014, 00:00:00	average	135.6	Yao	34.61667
Europe/Berlin	26 Oct 2019	average	9.20427	Reutlingen	48.49144
Europe/Rome	01/09/2016, 00:00:00	maintenance	9.40531	Gorgonzola	45.53069
America/Los_Angeles	07/07/2013, 00:00:00	average	-117.29198	Encinitas	33.03699
Europe/London	12/15/2015, 00:00:00	accep	-1.29243	Mexborough	53.49389
Africa/Casablanca	12/20/2018, 00:00:00	good	-5.22126	Azrou	33.43443
America/Denver	2015/03/24	good	-111.90466	Saratoga Springs	40.34912
America/La_Paz	13 Nov 2021	maintenance	-65.71875	Tupiza	-21.44345
Asia/Kolkata	2014-10-31	average	75.92694	Davangere	14.46693
America/Bahia	14 Sep 2016	good	-39.25	Muritiba	-12.91667
America/Sao_Paulo	2019-10-25	good	-47.1725	Artur Nogueira	-22.57306
America/Chicago	2016-01-20	excellent	-87.71255	South Lawndale	41.84364
Europe/Berlin	2021-03-15	good	6.8625	Oberhausen	51.47805
Asia/Kolkata	2016-05-23	maintenance	86.68363	Adra	23.49668
Australia/Melbourne	2013-10-24	accep	145.18333	Wheelers Hill	-37.9
America/Sao_Paulo	2020/12/16	accep	-51.50361	Carlos Barbosa	-29.2975
Europe/Moscow	2018-11-20	accep	34.33825	Dyat‚Äôkovo	53.59782
Europe/Moscow	06/17/2021, 00:00:00	good	39.8302	Severodvinsk	64.5635
Europe/London	17 Aug 2020	accep	-0.76667	Gainsborough	53.38333
America/Port-au-Prince	2013/01/03	good	-72.22625	Croix-des-Bouquets	18.57677
Europe/Berlin	2012/12/21	excellent	7.20769	Siegburg	50.80019
Europe/Rome	06 Jun 2021	excellent	14.72443	Ragusa	36.92574
Asia/Karachi	2017-09-25	average	70.91106	Alipur	29.38242
America/Bogota	2013-08-08	good	-74.95472	Puerto Colombia	10.98778
America/New_York	2018/03/03	average	-82.35176	Sun City Center	27.71809
America/Chicago	2012/11/05	excellent	-97.90308	Copperas Cove	31.12406
Europe/Berlin	2017/07/17	excellent	7.11393	Burscheid	51.08468
America/Montevideo	30 Jan 2018	good	-56.52361	Durazno	-33.38056
America/Mexico_City	06 Jan 2016	excellent	-98.11889	Casa Blanca	19.04222
Europe/Rome	2015-01-18	average	8.86374	Tortona	44.89784
Europe/Berlin	11/18/2021, 00:00:00	good	9.85	Halstenbek	53.63333
Asia/Ho_Chi_Minh	06/22/2022, 00:00:00	good	105.75635	Sa Dec	10.29085
Africa/Brazzaville	2019/06/26	average	15.28318	Brazzaville	-4.26613
America/Los_Angeles	2016-05-07	average	-117.79394	North Tustin	33.76446
Asia/Tokyo	2014-04-25	accep	135.21667	Sasayama	35.06667
America/Sao_Paulo	29 Sep 2014	good	-48.67028	Imbituba	-28.24
Europe/London	27 Oct 2017	good	-2.01111	Great Wyrley	52.66277
America/New_York	21 Dec 2020	good	-78.87836	Fayetteville	35.05266
Europe/Stockholm	01 Jun 2017	excellent	17.10558	Hudiksvall	61.72744
Asia/Kolkata	2015/07/07	building	83.36889	Gorakhpur	26.76628
Europe/Berlin	2015/10/23	average	9.20427	Reutlingen	48.49144
Asia/Tashkent	2019/09/14	average	69.67639	Parkent	41.29444
Asia/Bangkok	04/07/2015, 00:00:00	building	100.48528	Bang Ban	14.37395
Europe/Warsaw	2019-06-06	excellent	18.34717	Reda	54.60528
America/Panama	2015-11-16	average	-79.62098	Chilibre	9.15093
America/Sao_Paulo	2016-01-14	average	-52.51028	Soledade	-28.81833
Asia/Shanghai	29 May 2014	excellent	130.57211	Boli	45.75279
Asia/Baku	09/04/2017, 00:00:00	good	45.36561	Qazax	41.09246
Europe/Brussels	14 Feb 2022	excellent	3.16667	Wevelgem	50.8
Asia/Tbilisi	2019-06-01	excellent	41.77921	Kobuleti	41.82143
Asia/Kolkata	10/03/2016, 00:00:00	accep	84.13864	Jashpurnagar	22.88783
Asia/Kolkata	2018-09-06	good	72.68533	Kheda	22.75218
Europe/Kiev	2015/01/19	good	33.9162	Hlukhiv	51.67822
Asia/Kolkata	2019/08/14	excellent	74.85849	Patti	31.28092
Asia/Shanghai	11/10/2016, 00:00:00	excellent	120.03308	Guli	28.88162
America/Bogota	03/20/2015, 00:00:00	accep	-74.26419	Madrid	4.73245
America/Chicago	2018/05/22	good	-96.67834	Ada	34.77453
Africa/Addis_Ababa	08/21/2014, 00:00:00	building	37.55	Arba Minch	6.03333
Africa/Dar_es_Salaam	2015/11/11	building	39.28333	Nyangao	-10.33333
Africa/Dar_es_Salaam	2013/06/17	maintenance	39.28333	Nyangao	-10.33333
America/Phoenix	01/05/2019, 00:00:00	good	-111.78903	Gilbert	33.35283
Asia/Shanghai	06/11/2018, 00:00:00	accep	116.11768	Meizhou	24.28859
Europe/Kiev	2020/02/05	excellent	25.34244	Lutsk	50.75932
America/Sao_Paulo	2018/10/04	accep	-48.67028	Imbituba	-28.24
Africa/Dar_es_Salaam	2020-04-12	accep	38.01667	Chanika	-5.41667
Africa/Dar_es_Salaam	2013-02-13	average	38.66667	Mvomero	-6.25
America/New_York	2014-02-26	good	-80.66756	Belle Glade	26.68451
Asia/Tokyo	2021-11-17	accep	139.55028	Kamakura	35.30889
Africa/Nairobi	15 Apr 2020	building	36.36339	Nyahururu	0.03813
America/Sao_Paulo	2015/05/14	excellent	-45.94722	Alfenas	-21.42917
Europe/Paris	17 Sep 2017	average	-0.45877	Niort	46.32313
Africa/Algiers	2015/11/05	accep	2.31889	Ksar Chellala	35.21222
America/Mazatlan	25 Oct 2013	accep	-105.36369	Acaponeta	22.49396
America/Chicago	2013/11/23	accep	-96.39774	Brenham	30.16688
Europe/Warsaw	29 Jan 2021	excellent	17.4674	Brzeg	50.86079
Asia/Shanghai	08/07/2022, 00:00:00	building	120.82747	Zhuangyuan	37.30553
Africa/Lubumbashi	04 Apr 2021	excellent	29.47306	Beni	0.49113
Asia/Shanghai	09 Oct 2016	building	114.68333	Heyuan	23.73333
Europe/Kiev	2014-07-30	excellent	30.96755	Zvenihorodka	49.07866
America/New_York	2016/11/13	excellent	-78.04471	Leland	34.25628
America/Sao_Paulo	2016-09-11	average	-41.25528	Resplendor	-19.32556
America/New_York	2016-05-10	accep	-78.04471	Leland	34.25628
Asia/Shanghai	2018-03-18	good	117.81667	Zhoucun	36.81667
Asia/Aqtobe	2020-02-19	maintenance	59.6	Shalqar	47.83333
Asia/Kolkata	2015-01-01	good	71.57737	Gariadhar	21.53889
Europe/Berlin	2021-11-07	average	9.02596	Albstadt	48.21644
Pacific/Auckland	2020-06-28	maintenance	178.00417	Gisborne	-38.65333
Europe/Kiev	09/20/2016, 00:00:00	average	26.97253	Krasyliv	49.65186
America/New_York	11/15/2016, 00:00:00	maintenance	-80.22588	North Lauderdale	26.2173
Asia/Karachi	2017-06-04	maintenance	68.49143	Bhit Shah	25.80565
Europe/Moscow	08 Sep 2017	excellent	53.26023	Bavly	54.39304
America/Chicago	2014-06-12	building	-89.64066	Pekin	40.56754
Europe/Warsaw	05/23/2017, 00:00:00	building	18.34717	Reda	54.60528
Asia/Kolkata	2017-09-22	building	73.7553	Calangute	15.5439
Europe/Madrid	04/06/2014, 00:00:00	accep	-3.67029	Las Gabias	37.13548
Europe/Berlin	2014-04-30	average	11.37703	Gauting	48.06919
America/Havana	12 Aug 2014	excellent	-80.58556	Corralillo	22.98212
Asia/Kolkata	2016/04/26	good	76.0586	Hungund	16.06213
Asia/Tokyo	03/22/2016, 00:00:00	excellent	139.07204	Fujioka	36.24624
Europe/Moscow	2019/08/23	good	37.49338	Tyoply Stan	55.62047
Pacific/Auckland	26 Oct 2021	average	171.25364	Timaru	-44.39672
America/Argentina/Tucuman	03/05/2020, 00:00:00	excellent	-65.61427	Aguilares	-27.4338
Europe/Berlin	2017/09/17	accep	13.31783	Hermsdorf	52.61131
Atlantic/Azores	2021/09/22	accep	-25.66689	Ponta Delgada	37.74615
Asia/Karachi	12/29/2012, 00:00:00	accep	75.06583	Fazilpur	32.17629
America/Mexico_City	2019-02-26	excellent	-98.11889	Casa Blanca	19.04222
America/Glace_Bay	10/29/2019, 00:00:00	good	-60.1831	Sydney	46.1351
Europe/Rome	2013-11-05	good	9.32241	Chiavari	44.31771
Europe/Oslo	11/27/2016, 00:00:00	average	16.54165	Harstad	68.79833
America/Sao_Paulo	2022/07/29	accep	-48.62789	Caldas Novas	-17.74431
America/Sao_Paulo	06 Jan 2020	accep	-53.13722	Loanda	-22.92306
Europe/Istanbul	24 Jul 2020	good	40.74357	Mardin	37.31309
Asia/Manila	03/26/2013, 00:00:00	average	122.9666	Talisay	10.7375
America/Bogota	2014/08/14	excellent	-75.87877	Andes	5.6561
Australia/Perth	2013-01-08	accep	115.88782	Willetton	-32.05251
Europe/London	2021-01-06	good	-1.08593	Southsea	50.79205
Asia/Kolkata	2022/02/15	accep	75.11937	Parola	20.88098
America/New_York	2016-12-21	maintenance	-73.0515	Waterbury	41.55815
Europe/London	2013/12/22	average	-4.22398	Inverness	57.47908
Asia/Kolkata	2019/11/11	accep	78.14797	Betamcherla	15.45144
Asia/Shanghai	20 Feb 2019	good	112.19028	Jingzhou	30.35028
Africa/Douala	2018-05-15	good	11.5	Mbalmayo	3.51667
Europe/Berlin	2022/05/20	average	8.61839	Bensheim	49.68369
Europe/London	2019/04/02	building	-2.98333	Poulton-le-Fylde	53.83333
Asia/Kolkata	2017/07/02	average	83.97573	Sambalpur	21.46527
Asia/Kolkata	14 Oct 2018	average	76.56719	Aklera	24.41288
Asia/Colombo	2022-02-13	accep	79.883	Hendala	6.9909
America/Sao_Paulo	04 Mar 2016	accep	-42.98194	Guapimirim	-22.53722
America/Chicago	2019/03/21	average	-87.882	Westchester	41.85059
Asia/Kolkata	07/08/2014, 00:00:00	good	73.66633	Sojat	25.92493
Asia/Shanghai	2016-01-08	maintenance	114.51667	Wacheng	33.78333
America/Recife	06 Nov 2015	accep	-35.03333	Cabo	-8.28333
Asia/Baku	16 Aug 2015	maitennce	48.87498	Astara	38.45598
Africa/Johannesburg	2015/03/15	maintenance	29.00974	Mokopane	-24.19436
Africa/Algiers	10/05/2015, 00:00:00	accep	4.62744	El Achir	36.06386
Asia/Karachi	10/16/2014, 00:00:00	building	68.49143	Bhit Shah	25.80565
America/New_York	01 Feb 2016	good	-83.2321	Milledgeville	33.08014
America/New_York	2013/11/13	average	-73.78458	Scarsdale	41.0051
America/Vancouver	02/15/2020, 00:00:00	acceptable	-119.48568	Kelowna	49.88307
America/Sao_Paulo	11/21/2012, 00:00:00	excellent	-52.51028	Soledade	-28.81833
Europe/Istanbul	05 Jul 2019	maintenance	27.18052	Bergama	39.12074
Asia/Kolkata	2019/05/23	excellent	77.9129	Narwar	25.6439
Europe/Berlin	01/06/2020, 00:00:00	maitennce	6.9747	Wesseling	50.82709
America/Toronto	2022-07-02	building	-73.58248	Sainte-Catherine	45.40008
America/New_York	2018-10-15	average	-84.23381	Stockbridge	33.54428
Europe/Rome	13 Oct 2017	average	13.44275	Villabate	38.07789
America/Fortaleza	2017/02/22	average	-40.7475	Guaraciaba do Norte	-4.16694
Asia/Makassar	04/06/2015, 00:00:00	excellent	118.9707	Majene	-3.5403
Europe/Prague	2018/12/02	building	12.87117	Karlovy Vary	50.23271
Asia/Kolkata	2021/08/24	average	77.54372	Periyakulam	10.12268
Europe/Rome	2016/08/06	building	15.07041	Catania	37.49223
Australia/Perth	2022/01/16	excellent	115.8614	Perth	-31.95224
Asia/Makassar	2014/09/27	maintenance	117.59152	Tarakan	3.31332
Europe/Moscow	23 May 2014	average	30.38167	Shushary	59.80917
Europe/Kiev	25 Sep 2020	maintenance	33.9162	Hlukhiv	51.67822
Asia/Yekaterinburg	2012-11-30	average	59.4839	Kachkanar	58.7002
America/Sao_Paulo	11 Oct 2017	average	-47.1725	Artur Nogueira	-22.57306
Asia/Jakarta	2020-11-30	excellent	109.3243	Randudongkal	-7.0981
Europe/Malta	2017-04-26	accep	14.51472	Valletta	35.89972
America/Chicago	2021-05-20	excellent	-87.88754	Bourbonnais	41.15376
Asia/Kuala_Lumpur	04 Dec 2015	maintenance	101.96857	Gua Musang	4.88441
Europe/Berlin	2014-03-22	excellent	11.32903	Weimar	50.9803
Europe/Skopje	12/10/2012, 00:00:00	average	20.91361	Bogovinje	41.92361
Asia/Karachi	05/03/2014, 00:00:00	good	68.49143	Bhit Shah	25.80565
America/New_York	04 Jan 2019	good	-73.95958	Brighton Beach	40.57788
Europe/Moscow	2015/09/09	accep	40.17171	Danilov	58.1908
Asia/Shanghai	2016/09/10	maintenance	114.51667	Wacheng	33.78333
Europe/Berlin	2020/01/29	average	8.4493	Hofheim am Taunus	50.09019
Europe/Berlin	02/02/2018, 00:00:00	excellent	7.973	Finnentrop	51.168
Asia/Yangon	2018-03-07	average	98.50893	Myawadi	16.68911
Europe/Kiev	07 Jun 2015	excellent	30.96755	Zvenihorodka	49.07866
Europe/London	2014-09-20	average	-1.47217	Chapletown	53.46506
Asia/Tokyo	2015-11-26	excellent	140.11667	Inawashiro	37.56667
America/Sao_Paulo	2013-01-28	maintenance	-42.19667	Miracema	-21.41222
America/Caracas	2017/05/22	good	-67.33122	La Victoria	10.22677
Africa/Dar_es_Salaam	2022/08/02	good	39.28333	Nyangao	-10.33333
Europe/Berlin	01/01/2014, 00:00:00	maintenance	13.29371	Charlottenburg-Nord	52.53048
Asia/Kolkata	08/18/2020, 00:00:00	good	72.68533	Kheda	22.75218
Europe/Istanbul	17 Jan 2018	average	37.3825	Gaziantep	37.05944
America/Los_Angeles	2019-07-13	accep	-117.29198	Encinitas	33.03699
Europe/Paris	2013/01/07	maintenance	5.4384	Marseille 11	43.2907
America/Puerto_Rico	2020/11/19	maintenance	-66.8499	Yauco	18.03496
America/New_York	07/21/2019, 00:00:00	average	-73.49484	New Canaan	41.14676
Asia/Kolkata	2020-10-13	average	84.63445	Rafiganj	24.81757
Europe/Paris	2013/10/04	average	4.63031	Arles	43.67681
Asia/Tokyo	2015-08-30	maintenance	138.31667	Suzaka	36.65
America/New_York	2018-07-24	average	-74.07764	Jersey City	40.72816
America/Lima	06/21/2017, 00:00:00	good	-69.08333	Yunguyo	-16.25
Africa/Kampala	04/22/2022, 00:00:00	average	30.91105	Arua	3.02013
Asia/Shanghai	2020-01-05	building	120.82747	Zhuangyuan	37.30553
Africa/Banjul	10/26/2018, 00:00:00	accep	-15.6	Farafenni	13.56667
America/New_York	2014/01/29	good	-74.96933	Sicklerville	39.71734
America/Chicago	2013-10-05	average	-93.08883	Lino Lakes	45.16024
Asia/Manila	2018/08/14	excellent	123.758	Naga	10.20898
America/Chicago	01/29/2018, 00:00:00	building	-87.66561	Lower West Side	41.8542
Europe/Berlin	03/30/2022, 00:00:00	good	9.47629	Stade	53.59337
Asia/Shanghai	19 Feb 2019	average	115.04814	Huangshi	30.24706
Asia/Kolkata	2020/06/01	excellent	77.5609	Kangayam	11.00599
America/Los_Angeles	2019/02/20	excellent	-117.23991	Opportunity	47.64995
Asia/Kolkata	2016/10/13	accep	76.56719	Aklera	24.41288
Asia/Shanghai	2020/03/01	accep	117.33333	Taozhuang	34.85
Europe/Paris	08/24/2017, 00:00:00	accep	2.29275	Fontenay-aux-Roses	48.79325
Africa/Dar_es_Salaam	2018/02/27	average	35.7	Iringa	-7.76667
Asia/Kolkata	06/27/2013, 00:00:00	accep	74.80555	Srinagar	34.08565
Asia/Tehran	2016/01/14	average	48.26258	Aleshtar	33.86419
America/Chicago	23 Mar 2016	good	-97.92977	Hutchinson	38.06084
Asia/Barnaul	06/14/2019, 00:00:00	accep	83.62389	Novosilikatnyy	53.30972
Indian/Antananarivo	2015/11/05	accep	44.53333	Sakaraha	-22.9
Asia/Shanghai	2021/04/06	maintenance	123.17306	Liaoyang	41.27194
Europe/Paris	2017/12/18	average	2.29026	Sceaux	48.77644
Europe/Istanbul	26 Apr 2015	maintenance	41.00817	Silvan	38.13708
Europe/Madrid	2022/01/01	good	-1.60452	Tudela	42.06166
Europe/Moscow	26 Aug 2018	average	38.94324	Yablonovskiy	44.98901
Asia/Manila	08 Sep 2020	excellent	122.8637	Santa Catalina	9.3337
Africa/Lagos	2013/09/04	good	6.83042	Nkpor	6.15038
Asia/Manila	2013/07/30	excellent	123.33471	Dipolog	8.56697
Asia/Tashkent	2022/04/15	building	69.67639	Parkent	41.29444
Europe/Sofia	2012/12/23	average	23.225	Montana	43.4125
America/Havana	28 May 2021	building	-77.43532	Media Luna	20.14298
Australia/Perth	2018/06/10	excellent	115.8614	Perth	-31.95224
Asia/Kolkata	2018-10-10	good	85.94001	Teghra	25.49043
Europe/Paris	03/16/2020, 00:00:00	good	2.29026	Sceaux	48.77644
Africa/Algiers	2020-12-23	building	3.47717	Boumerdas	36.76639
Europe/Rome	2015-04-29	excellent	13.44275	Villabate	38.07789
America/Los_Angeles	2018-02-10	average	-122.24064	Bothell West	47.80527
Asia/Tashkent	2021/07/03	good	72.34424	Andijon	40.78206
Asia/Yekaterinburg	2021-09-11	excellent	60.8019	Beryozovsky	56.9083
Europe/Berlin	30 Aug 2020	average	8.91229	Eppingen	49.13645
America/Glace_Bay	2017/11/25	excellent	-60.1831	Sydney	46.1351
Europe/Berlin	2018/07/27	average	9.02596	Albstadt	48.21644
America/Maceio	02/08/2013, 00:00:00	maintenance	-37.65	Lagarto	-10.91722
America/Toronto	2013-07-07	good	-73.86586	Beaconsfield	45.43341
Asia/Tbilisi	2020/02/11	excellent	41.77921	Kobuleti	41.82143
Asia/Tokyo	2018/05/29	accep	140.11667	Inawashiro	37.56667
Europe/Moscow	2021/12/26	excellent	37.49338	Tyoply Stan	55.62047
Asia/Karachi	2015-08-11	average	74.12286	Kanganpur	30.76468
Atlantic/Azores	2019-03-04	average	-25.66689	Ponta Delgada	37.74615
Europe/London	08/19/2022, 00:00:00	excellent	1.15597	Clacton-on-Sea	51.78967
Europe/Madrid	2018/08/29	accep	1.10687	Reus	41.15612
Asia/Karachi	2014/06/22	accep	68.88871	Jhol	25.95533
Asia/Bangkok	2013/11/21	average	100.04427	Nakhon Pathom	13.8196
Europe/Kiev	2018/09/28	average	32.6178	Kherson	46.65581
Asia/Shanghai	08/11/2021, 00:00:00	average	105.89333	Beidao	34.56861
Asia/Kolkata	06/19/2014, 00:00:00	accep	72.85107	Bhayandar	19.30157
Asia/Tokyo	2022/08/16	accep	139.6853	Shimotoda	35.815
America/Chicago	02 Oct 2013	accep	-94.41551	Independence	39.09112
Asia/Jakarta	2015-08-30	average	109.05389	Wangon	-7.51611
America/Chicago	09/12/2016, 00:00:00	maintenance	-93.08883	Lino Lakes	45.16024
Europe/Lisbon	08/24/2013, 00:00:00	maintenance	-8.33147	Paredes	41.20485
Europe/Lisbon	2019/09/06	maintenance	-8.33147	Paredes	41.20485
America/Chicago	02/07/2014, 00:00:00	average	-95.36969	Muskogee	35.74788
America/New_York	2018/03/23	average	-80.08199	Thomasville	35.88264
Asia/Kolkata	12/26/2018, 00:00:00	good	78.14797	Betamcherla	15.45144
Asia/Shanghai	2015-03-14	good	120.74221	Changshu City	31.64615
Europe/London	11 May 2017	maintenance	-1.29772	Cowes	50.76306
Europe/London	2012/12/27	building	-0.76667	Gainsborough	53.38333
America/Mexico_City	2018/03/13	accep	-103.42897	Jocotepec	20.28527
Asia/Tehran	05/18/2022, 00:00:00	average	48.26258	Aleshtar	33.86419
Europe/Amsterdam	01 Aug 2018	average	6.92917	Oldenzaal	52.31333
America/Sao_Paulo	11/20/2013, 00:00:00	average	-48.67028	Imbituba	-28.24
Asia/Baghdad	2016/03/10	excellent	44.02488	Karbala	32.61603
Europe/Paris	2017/12/20	average	4.86667	Vienne	45.51667
Europe/Berlin	2018-01-04	good	10.03988	Barmbek-Nord	53.6052
Europe/Berlin	2021/05/02	accep	13.31783	Hermsdorf	52.61131
Asia/Jakarta	2015-10-15	accep	106.85417	Cibinong	-6.48167
Asia/Almaty	09/25/2015, 00:00:00	good	84.87144	Zaysan	47.46657
Europe/Berlin	2014-11-26	building	10.5511	Gifhorn	52.47774
America/Chicago	12/08/2012, 00:00:00	good	-95.30106	Tyler	32.35126
Africa/Lagos	24 Dec 2013	maintenance	4.92235	Efon-Alaaye	7.65649
America/Mexico_City	2021/01/16	accep	-101.2591	Guanajuato	21.01858
Europe/Berlin	2021-04-10	average	6.74549	Losheim	49.5099
Europe/Moscow	13 Apr 2017	good	37.56667	Likhobory	55.85
Africa/Casablanca	03/19/2021, 00:00:00	average	-6.00137	Oulmes	33.42585
Asia/Aden	2018-01-25	average	46.83187	Ataq	14.53767
Europe/London	2022/08/26	excellent	-2.09814	Aberdeen	57.14369
Europe/Rome	2013-03-24	average	11.412	Montecchio Maggiore-Alte Ceccato	45.50369
America/New_York	01/11/2018, 00:00:00	building	-73.95097	Greenpoint	40.72371
Asia/Tokyo	2015-10-15	average	137.02166	Minokamo	35.48199
America/Guayaquil	07/10/2015, 00:00:00	maintenance	-79.00453	Cuenca	-2.90055
Asia/Kolkata	11/18/2020, 00:00:00	building	82.85749	Elamanchili	17.54907
Europe/London	2017-04-29	good	-1.47217	Chapletown	53.46506
Asia/Shanghai	04/26/2021, 00:00:00	maintenance	117.55417	Zaozhuang	34.86472
Asia/Samarkand	2016/01/15	maintenance	67.84222	Jizzax	40.11583
America/New_York	09/06/2013, 00:00:00	good	-76.99081	Chillum	38.96372
America/Mexico_City	2016-03-06	excellent	-100.88023	Salvatierra	20.21322
Africa/Algiers	08/31/2017, 00:00:00	average	2.95924	Cheraga	36.76775
Africa/Lagos	2016/07/11	building	8.2926	Kafanchan	9.58126
Europe/Moscow	2020-06-13	maintenance	37.92792	Kireyevsk	53.93361
Africa/Tunis	2014/04/29	good	10.03478	El Alia	37.16911
Europe/Madrid	08/09/2013, 00:00:00	good	0.57856	Amposta	40.70995
America/Bahia	2016/09/11	good	-37.93278	Rio Real	-11.48472
Asia/Tokyo	2017/03/14	excellent	137.02166	Minokamo	35.48199
Europe/Berlin	02 Jun 2013	excellent	8.86704	Nidderau	50.23805
Asia/Barnaul	10 Nov 2021	excellent	83.62389	Novosilikatnyy	53.30972
Africa/Dar_es_Salaam	2013-09-22	average	39.25	Magomeni	-6.8
Asia/Shanghai	2018-12-25	good	115.70111	Hengshui	37.73222
Europe/Volgograd	07/07/2019, 00:00:00	accep	43.2379	Mikhaylovka	50.06
America/New_York	2018/03/04	good	-78.04471	Leland	34.25628
America/New_York	2020/04/08	good	-73.47429	Massapequa	40.68066
Asia/Bangkok	07/05/2022, 00:00:00	maintenance	99.95469	Damnoen Saduak	13.51825
Asia/Bangkok	06/14/2019, 00:00:00	accep	99.95469	Damnoen Saduak	13.51825
Europe/Paris	03/12/2013, 00:00:00	maintenance	4.8951	Valence	44.92801
Asia/Shanghai	2016/02/04	accep	114.51667	Wacheng	33.78333
America/Vancouver	2013-08-30	building	-119.48568	Kelowna	49.88307
Europe/Rome	03/08/2015, 00:00:00	maitennce	14.34085	Volla	40.87363
Africa/Algiers	2013/03/26	excellent	4.85668	Bordj Zemoura	36.27462
Europe/London	12/15/2021, 00:00:00	maintenance	0.93333	East Dereham	52.68333
America/Bahia	2017/09/20	accep	-37.93278	Rio Real	-11.48472
Asia/Krasnoyarsk	2020/08/18	building	89.20083	Sharypovo	55.54028
America/Sao_Paulo	2020/05/23	accep	-46.99583	Valinhos	-22.97056
Asia/Jakarta	2019-02-03	average	112.01667	Kediri	-7.81667
Africa/Dar_es_Salaam	07/20/2016, 00:00:00	accep	38.01667	Chanika	-5.41667
Europe/Moscow	2022/04/22	accep	43.63417	Novopavlovsk	43.96222
Asia/Kuala_Lumpur	2020-04-03	excellent	102.3278	Kampung Ayer Molek	2.2139
Europe/Lisbon	2015/10/03	excellent	-9.24671	Carnaxide	38.72706
Europe/London	16 Nov 2021	accep	1.15597	Clacton-on-Sea	51.78967
Asia/Kolkata	2012-12-22	average	78.23456	Bachhraon	28.92694
America/Caracas	02/09/2019, 00:00:00	accep	-62.64102	Ciudad Guayana	8.35122
America/Bogota	28 Nov 2012	good	-74.26419	Madrid	4.73245
Europe/Sofia	12/13/2012, 00:00:00	accep	23.225	Montana	43.4125
America/New_York	2013-09-18	good	-77.02303	Fort Washington	38.70734
Europe/London	28 Nov 2017	maitennce	-2.12139	Brierley Hill	52.48173
Europe/Brussels	2012/10/02	accep	3.20639	Mouscron	50.74497
America/Bogota	2012-12-31	building	-74.26419	Madrid	4.73245
America/Bogota	08/02/2020, 00:00:00	good	-73.9614	El Copey	10.15031
Asia/Kolkata	2022/02/06	excellent	75.96976	Gajendragarh	15.73628
Europe/Lisbon	2017/04/11	good	-8.33147	Paredes	41.20485
America/Indiana/Indianapolis	2018/06/25	excellent	-86.11084	Granger	41.75338
Europe/Moscow	12/22/2017, 00:00:00	maintenance	38.12408	Bogoroditsk	53.77166
Africa/Cairo	03/15/2018, 00:00:00	excellent	31.4976	Juhaynah	26.67319
America/Los_Angeles	30 Apr 2017	good	-116.97725	Beaumont	33.92946
Europe/Warsaw	2016-09-27	average	15.00835	Zgorzelec	51.14942
Europe/London	09/12/2021, 00:00:00	good	-4.21376	Rutherglen	55.82885
America/Chicago	2022-05-13	building	-87.88754	Bourbonnais	41.15376
America/Santiago	2017/02/28	maintenance	-73.02841	Chiguayante	-36.9256
Africa/Conakry	06 Jun 2019	accep	-13.68778	Camayenne	9.535
Europe/Berlin	03 Sep 2018	average	8.96317	Hechingen	48.35149
Asia/Tokyo	2020-01-03	good	139.55722	Okegawa	36
Africa/Kampala	2017/05/04	maintenance	32.88667	Kitgum	3.27833
Asia/Yekaterinburg	22 Oct 2016	accep	60.70278	Ozersk	55.75556
Europe/London	2012/10/19	building	-1.08593	Southsea	50.79205
Europe/London	2012-10-15	excellent	-3.05814	Rhosllanerchrugog	53.00974
America/Los_Angeles	22 Jun 2019	good	-120.93549	Riverbank	37.73604
America/Chicago	08/02/2014, 00:00:00	accep	-88.3162	Crystal Lake	42.24113
Asia/Hong_Kong	04/09/2019, 00:00:00	maintenance	114.10479	Tsuen Wan	22.37066
Asia/Kuala_Lumpur	06/27/2014, 00:00:00	average	100.24529	Batu Feringgi	5.4709
Africa/Niamey	10 Nov 2016	excellent	9.15013	Mirriah	13.70727
Asia/Kolkata	13 Jul 2015	maintenance	77.70636	Meerut	28.98002
Europe/Rome	2013-09-11	excellent	8.55552	Sassari	40.72586
Asia/Tokyo	03/26/2020, 00:00:00	excellent	137.36215	Namerikawa	36.75965
Europe/Rome	2015-07-20	maintenance	8.55552	Sassari	40.72586
America/Havana	10 Sep 2013	good	-82.00919	Jaruco	23.04419
Asia/Tokyo	18 Jun 2019	good	139.55722	Okegawa	36
Asia/Shanghai	17 Jan 2017	good	118.53333	Pucheng	27.92333
Europe/Berlin	2022/06/09	average	6.51352	Korschenbroich	51.19139
Europe/Bratislava	01/04/2020, 00:00:00	accep	17.8031	Hlohovec	48.43174
Asia/Tokyo	2013/10/18	good	137.95378	Ina	35.82756
Europe/Berlin	02/09/2020, 00:00:00	average	9.5926	Walsrode	52.86147
Asia/Yangon	25 Sep 2021	accep	98.50893	Myawadi	16.68911
America/Chicago	2021-09-10	excellent	-88.3162	Crystal Lake	42.24113
Asia/Kolkata	05/16/2022, 00:00:00	accep	77.54372	Periyakulam	10.12268
Asia/Tehran	11/17/2012, 00:00:00	excellent	51.67462	Isfahan	32.65246
Asia/Bangkok	12/18/2015, 00:00:00	good	104.1451	Yasothon	15.79408
America/New_York	2020-11-05	maintenance	-71.29144	Middletown	41.54566
Europe/Berlin	2021-01-09	good	8.91229	Eppingen	49.13645
Asia/Jerusalem	2013/08/12	good	34.75699	Rahat	31.39547
Asia/Yekaterinburg	03/26/2015, 00:00:00	excellent	59.4839	Kachkanar	58.7002
Asia/Karachi	2013-10-03	building	74.12286	Kanganpur	30.76468
Asia/Manila	22 Jan 2013	average	122.9666	Talisay	10.7375
Africa/Nairobi	2017-04-06	building	36.36339	Nyahururu	0.03813
Asia/Karachi	31 Jan 2016	excellent	68.88871	Jhol	25.95533
Africa/Lagos	13 Dec 2018	average	3.64633	Shagamu	6.8485
Asia/Shanghai	29 May 2018	average	116.11768	Meizhou	24.28859
Europe/Berlin	2015/08/21	excellent	6.51352	Korschenbroich	51.19139
America/Bahia	2015-11-17	excellent	-38.79084	Tucano	-10.95817
Europe/Berlin	2019/04/03	building	9.5926	Walsrode	52.86147
Asia/Kolkata	2022-09-14	good	76.32756	Kalavoor	9.57046
America/Cuiaba	2019/01/10	excellent	-52.35558	Nova Xavantina	-14.66463
Africa/Lubumbashi	23 Feb 2013	excellent	24.43973	Yangambi	0.76755
Europe/Paris	2017/11/19	accep	2.1699	Herblay	48.98994
Europe/Moscow	29 Oct 2019	maintenance	33.72798	Zhukovka	53.53395
America/Mexico_City	2015-05-07	maintenance	-94.91386	Acayucan	17.94979
America/Los_Angeles	12/24/2016, 00:00:00	accep	-117.29198	Encinitas	33.03699
Europe/Berlin	16 Feb 2021	average	7.20769	Siegburg	50.80019
Europe/Madrid	2016/05/12	maintenance	2.18247	el Camp de l'Arpa del Clot	41.41204
Asia/Shanghai	2018/07/14	excellent	113.82465	Licheng	23.29549
Europe/London	08 Dec 2020	average	-4.0573	Viewpark	55.82737
Europe/Amsterdam	03/13/2020, 00:00:00	good	6.61944	Hardenberg	52.57583
America/New_York	25 Feb 2022	accep	-82.07842	Punta Gorda Isles	26.91756
Asia/Seoul	2015-11-13	excellent	128.9889	T‚Äôaebaek	37.1759
Europe/London	2020-12-23	good	-2.09814	Aberdeen	57.14369
Europe/Madrid	2016/08/23	excellent	-3.53261	San Fernando de Henares	40.42386
America/Havana	06/24/2018, 00:00:00	accep	-82.4017	Boyeros	23.0072
Europe/Rome	2019-12-09	maintenance	17.80774	Mesagne	40.55851
Asia/Karachi	12/29/2018, 00:00:00	accep	70.96699	Kot Addu	30.46907
America/Tegucigalpa	12 Dec 2012	excellent	-86.57415	Olanchito	15.48131
Asia/Tokyo	2019-07-18	maintenance	136.51667	Komono	35
America/Chicago	2014-01-22	average	-88.70464	Tupelo	34.25807
Asia/Damascus	14 Aug 2022	accep	38.28402	Tadmur	34.5624
Africa/Tunis	06/14/2018, 00:00:00	accep	10.03478	El Alia	37.16911
Europe/Rome	2019-07-30	good	17.58522	Francavilla Fontana	40.53123
Europe/Berlin	01 Mar 2016	accep	11.34046	Rudolstadt	50.72043
America/Chicago	2016-04-11	average	-87.88754	Bourbonnais	41.15376
Europe/Berlin	2016-03-25	good	7.973	Finnentrop	51.168
America/Los_Angeles	2022/09/24	maintenance	-120.00865	Sunnyside	46.32374
America/Chicago	2021-10-03	average	-88.3162	Crystal Lake	42.24113
Europe/Tallinn	24 Jun 2020	maintenance	28.19028	Narva	59.37722
Europe/Lisbon	2018/07/08	average	-7.32097	Custoias	41.1053
Asia/Jakarta	07/02/2014, 00:00:00	average	106.92667	Sukabumi	-6.91806
Europe/Paris	18 Jan 2017	average	5.4584	Les Olives	43.32393
America/Managua	01/21/2019, 00:00:00	average	-86.58208	Somoto	13.48082
Europe/Dublin	2021/11/22	excellent	-7.35	An Muileann gCearr	53.53333
America/Merida	17 Sep 2014	average	-89.66123	Progreso	21.28306
Asia/Jakarta	08/26/2020, 00:00:00	building	110.8405	Kudus	-6.8048
America/Costa_Rica	03/21/2016, 00:00:00	average	-85.43772	Liberia	10.63504
Asia/Kolkata	05 Jan 2013	excellent	77.54372	Periyakulam	10.12268
Asia/Shanghai	04 Feb 2020	average	117.27583	Sishui	35.64889
Europe/Berlin	14 Dec 2015	good	7.02238	Gronau	52.21099
Europe/Zurich	11/22/2021, 00:00:00	good	6.10237	Onex	46.18396
America/Sao_Paulo	03/02/2022, 00:00:00	excellent	-48.62789	Caldas Novas	-17.74431
Asia/Tokyo	03/01/2019, 00:00:00	accep	144.09638	Motomachi	43.82634
Europe/Moscow	2022/05/24	excellent	43.83992	Arzamas	55.39485
Asia/Yekaterinburg	09 Aug 2022	good	69.49015	Ishim	56.11281
America/New_York	2019/01/10	accep	-71.8023	Fitchburg	42.58342
America/Toronto	04/22/2013, 00:00:00	accep	-73.58248	Sainte-Catherine	45.40008
America/Managua	11 Nov 2020	accep	-86.19903	Jinotepe	11.84962
Asia/Tokyo	04/16/2014, 00:00:00	average	137.23333	Gero	35.8
America/New_York	2014-07-20	average	-75.60804	West Chester	39.96097
America/Chicago	04/18/2014, 00:00:00	average	-96.67834	Ada	34.77453
Europe/Brussels	08/23/2013, 00:00:00	accep	3.20639	Mouscron	50.74497
Asia/Kolkata	04/19/2020, 00:00:00	good	76.35484	Alwaye	10.10649
America/Martinique	2013-12-22	maintenance	-60.94228	Le Robert	14.67751
Europe/Berlin	28 Nov 2012	excellent	13.10984	Oschatz	51.30001
America/New_York	05 Sep 2014	excellent	-78.87836	Fayetteville	35.05266
Asia/Karachi	2020-03-21	excellent	71.52847	Mianwali	32.57756
America/Los_Angeles	11/01/2020, 00:00:00	accep	-119.0376	Camarillo	34.21639
Pacific/Efate	2022/07/14	building	168.31366	Port-Vila	-17.73648
Asia/Shanghai	09/30/2018, 00:00:00	excellent	122.74754	Haicheng	40.85158
Asia/Kolkata	12/07/2014, 00:00:00	excellent	77.9129	Narwar	25.6439
America/New_York	09/06/2020, 00:00:00	building	-84.20299	Lebanon	39.43534
Europe/Madrid	11/07/2019, 00:00:00	building	-3.67029	Las Gabias	37.13548
Europe/Madrid	10 Jun 2020	excellent	-3.67029	Las Gabias	37.13548
Asia/Seoul	2014/04/09	average	128.62667	Sinhyeon	34.8825
America/Bogota	2014-08-14	accep	-75.69947	San Carlos	8.79577
America/Recife	2015-11-18	excellent	-35.03333	Cabo	-8.28333
Asia/Qyzylorda	19 Nov 2016	good	65.50917	Kyzylorda	44.85278
Europe/Madrid	12/12/2015, 00:00:00	maintenance	-1.64295	Segundo Ensanche	42.8139
America/Los_Angeles	08/14/2016, 00:00:00	maintenance	-121.75689	Watsonville	36.91023
Europe/London	01/06/2018, 00:00:00	excellent	-2.52398	Winsford	53.19146
America/Sao_Paulo	31 Aug 2017	accep	-50.00639	Palmeira	-25.42944
Asia/Tehran	2017/01/17	good	47.3799	Darreh Shahr	33.14447
Africa/Lagos	2020-01-17	excellent	6.83042	Nkpor	6.15038
Asia/Kolkata	2020/12/03	building	85.37752	Barbil	22.10194
Asia/Shanghai	01 Dec 2013	excellent	117.27583	Sishui	35.64889
Europe/Rome	28 Mar 2017	accep	14.01481	Roseto degli Abruzzi	42.67164
Africa/Lagos	2015-03-08	maintenance	4.18333	Olupona	7.6
Africa/Mogadishu	2022/02/28	maintenance	43.38531	Baki	9.89206
America/New_York	13 Oct 2015	maitennce	-73.97069	Kensington	40.64621
Europe/Madrid	04/01/2013, 00:00:00	good	-8.2194	Ferrol	43.48961
Indian/Reunion	08/04/2016, 00:00:00	good	55.4504	Saint-Denis	-20.88231
Europe/Berlin	2016/04/29	accep	8.86704	Nidderau	50.23805
America/New_York	2016-07-14	accep	-73.47429	Massapequa	40.68066
Asia/Phnom_Penh	07/07/2022, 00:00:00	accep	102.56365	Paoy Paet	13.65805
America/Los_Angeles	2020-05-26	building	-121.74052	Davis	38.54491
Europe/Andorra	2016/01/02	accep	1.53414	les Escaldes	42.50729
Europe/Brussels	07 Mar 2018	accep	3.20639	Mouscron	50.74497
Asia/Tokyo	08 Jul 2017	average	138.31667	Suzaka	36.65
America/Los_Angeles	07/30/2022, 00:00:00	average	-116.21677	Indio	33.7207
America/Chicago	05/13/2014, 00:00:00	average	-95.63079	Palestine	31.76212
Asia/Tokyo	2015-06-18	excellent	139.55722	Okegawa	36
America/Port-au-Prince	08/29/2022, 00:00:00	good	-72.22625	Croix-des-Bouquets	18.57677
America/Mexico_City	11/07/2020, 00:00:00	excellent	-93.11308	Tuxtla	16.75973
America/Sao_Paulo	2015-10-01	accep	-47.53028	Santa Gertrudes	-22.45667
America/Maceio	2016/02/05	building	-37.65	Lagarto	-10.91722
Africa/Conakry	2021-01-29	maintenance	-13.68778	Camayenne	9.535
Africa/Nairobi	2012-11-26	accep	34.11169	Busia	0.46005
Europe/Paris	2013-12-11	average	4.86667	Vienne	45.51667
America/New_York	2016-10-26	accep	-77.96389	Martinsburg	39.45621
Europe/Berlin	2012/11/17	good	6.74549	Losheim	49.5099
America/Sao_Paulo	2014-04-17	good	-52.2	Marau	-28.44917
Asia/Kuala_Lumpur	2021/09/08	good	102.3278	Kampung Ayer Molek	2.2139
America/Bogota	2017/05/20	maintenance	-75.87877	Andes	5.6561
Asia/Shanghai	09/23/2015, 00:00:00	good	112.9	Xiangtan	27.85
Asia/Ho_Chi_Minh	2019-03-25	average	105.75635	Sa Dec	10.29085
Asia/Seoul	2013/12/02	building	128.63083	Eisen	36.82167
America/Bogota	11/02/2016, 00:00:00	good	-75.87877	Andes	5.6561
America/Bogota	2018-09-17	accep	-74.95472	Puerto Colombia	10.98778
America/Mexico_City	06/11/2016, 00:00:00	excellent	-98.1664	Contla	19.32932
America/Chicago	2018-07-28	maintenance	-93.75018	Shreveport	32.52515
Asia/Barnaul	2021/11/06	building	83.62389	Novosilikatnyy	53.30972
America/Matamoros	18 Jul 2014	good	-97.50417	Heroica Matamoros	25.87972
Europe/Berlin	2014/01/30	accep	7.11393	Burscheid	51.08468
America/New_York	03 Dec 2013	good	-74.01042	Newburgh	41.50343
America/Sao_Paulo	08/28/2014, 00:00:00	good	-47.1725	Artur Nogueira	-22.57306
Europe/Bratislava	2014/07/25	excellent	17.22635	Skalica	48.8449
America/Fortaleza	2015/02/25	excellent	-42.29444	Barras	-4.24444
America/Sao_Paulo	2019/06/01	good	-53.13722	Loanda	-22.92306
America/Detroit	2012-12-11	average	-84.62081	Waverly	42.7392
America/Montevideo	2013-10-22	good	-56.52361	Durazno	-33.38056
Europe/London	2020/03/01	average	-1.32471	Newbury	51.40148
Asia/Kuala_Lumpur	2015-12-13	accep	102.3278	Kampung Ayer Molek	2.2139
Asia/Manila	2017-01-10	excellent	121.06761	San Jose	12.35275
Asia/Kolkata	2019/06/21	accep	76.11996	Manjeri	11.12018
America/New_York	2021-11-29	good	-83.55521	Toledo	41.66394
Europe/Paris	12/22/2016, 00:00:00	average	2.18967	Rueil-Malmaison	48.8765
Australia/Sydney	2015-02-08	accep	151.08057	Eastwood	-33.79176
Asia/Kolkata	2020-03-11	excellent	77.9129	Narwar	25.6439
America/Montevideo	21 Apr 2015	excellent	-56.52361	Durazno	-33.38056
Europe/Helsinki	2020/11/27	average	24.95034	Kallio	60.18427
Asia/Jakarta	07 Dec 2012	maintenance	112.01667	Kediri	-7.81667
America/Jamaica	2018-02-28	building	-76.78319	New Kingston	18.00747
Europe/Paris	05/07/2021, 00:00:00	maintenance	2.18967	Rueil-Malmaison	48.8765
Africa/Cairo	11/04/2013, 00:00:00	excellent	29.91582	Alexandria	31.20176
America/Puerto_Rico	2016/10/27	building	-66.8499	Yauco	18.03496
Africa/Tunis	18 Jul 2017	good	10.03478	El Alia	37.16911
Asia/Tokyo	2015/12/16	good	137.95378	Ina	35.82756
Africa/Blantyre	03/07/2021, 00:00:00	accep	34.4587	Salima	-13.7804
Asia/Tokyo	06 Feb 2019	building	140.11667	Inawashiro	37.56667
America/El_Salvador	2017/10/15	accep	-89.71472	Sonzacate	13.73417
America/New_York	2021-11-14	good	-73.78458	Scarsdale	41.0051
Asia/Kolkata	2022/08/18	excellent	74.85849	Patti	31.28092
Asia/Jerusalem	06/28/2022, 00:00:00	good	34.86563	Ramla	31.92923
America/Chicago	2016-07-14	building	-88.70464	Tupelo	34.25807
Asia/Kolkata	2017/12/24	good	71.30633	Kundla	21.34222
Asia/Kolkata	2013-11-03	good	82.85749	Elamanchili	17.54907
Africa/Gaborone	03 Mar 2018	accep	27.46153	Tonota	-21.44236
America/Panama	2014-07-19	average	-79.62098	Chilibre	9.15093
Asia/Tokyo	14 Dec 2015	excellent	138.89585	Annaka	36.33011
Asia/Manila	15 Apr 2018	maintenance	122.8637	Santa Catalina	9.3337
Europe/Moscow	07 Feb 2015	good	37.49338	Tyoply Stan	55.62047
Europe/Berlin	19 Jun 2021	accep	10.98461	Friedberg	48.35693
Europe/Berlin	05 Dec 2014	average	10.30215	Bad Segeberg	53.94313
Europe/London	2019/06/10	average	-2.58736	Arbroath	56.56317
Europe/Paris	12/13/2021, 00:00:00	excellent	-4.1	Quimper	48
America/Mexico_City	2019-07-14	accep	-100.88023	Salvatierra	20.21322
Asia/Kolkata	21 Jan 2018	excellent	74.80555	Srinagar	34.08565
Asia/Tokyo	01/17/2018, 00:00:00	maintenance	136.84186	Toba	34.4833
Europe/Moscow	2015/02/11	excellent	43.63417	Novopavlovsk	43.96222
Europe/Brussels	2021/04/04	good	4.82313	Lille	51.24197
America/New_York	11 Jul 2020	excellent	-71.08977	Taunton	41.9001
Australia/Perth	2014-02-18	accep	115.8614	Perth	-31.95224
America/New_York	2017-11-19	average	-84.23381	Stockbridge	33.54428
Asia/Baku	2019/07/25	accep	45.36561	Qazax	41.09246
America/Managua	2018-09-12	building	-86.19903	Jinotepe	11.84962
Europe/Paris	11/11/2019, 00:00:00	average	8.73812	Ajaccio	41.91886
America/New_York	2015/08/05	building	-74.38987	Scotch Plains	40.65538
Europe/London	22 Aug 2014	good	0.75	Thetford	52.41667
America/Sao_Paulo	2021-02-27	excellent	-41.25528	Resplendor	-19.32556
Europe/Berlin	2017/10/12	acceptable	6.51352	Korschenbroich	51.19139
Europe/Paris	2013-02-18	building	4.86667	Vienne	45.51667
Europe/London	2015/04/12	excellent	-2.52398	Winsford	53.19146
Asia/Tbilisi	2020/10/03	accep	41.77921	Kobuleti	41.82143
Asia/Vladivostok	15 Nov 2013	average	133.42825	Lesozavodsk	45.47885
Indian/Antananarivo	2020/04/08	maintenance	44.53333	Sakaraha	-22.9
Europe/Berlin	2018/09/24	good	10.30215	Bad Segeberg	53.94313
Asia/Shanghai	21 Jun 2017	accep	114.68333	Heyuan	23.73333
Europe/Berlin	2021/03/07	maintenance	13.28702	Dahlem	52.4581
America/Chicago	2013/08/23	accep	-87.45476	Schererville	41.47892
Australia/Brisbane	2019/05/28	maintenance	153.10236	Carindale	-27.50578
Europe/London	2014-04-25	good	-0.32247	Lancing	50.82882
Europe/London	2014/01/03	average	-0.36053	Bushey	51.64316
America/Los_Angeles	06 Jul 2017	average	-122.40433	Visitacion Valley	37.71715
Asia/Shanghai	2020-02-02	accep	122.20488	Zhoushan	29.98869
Asia/Almaty	16 Jan 2020	average	84.87144	Zaysan	47.46657
Asia/Kolkata	23 Aug 2019	average	78.40102	Chharra	27.9247
America/Santiago	2013-05-16	accep	-70.6996	San Bernardo	-33.59217
Africa/Bamako	2017/01/24	accep	-8.07257	Kati	12.74409
America/Bogota	2014/07/16	excellent	-74.95472	Puerto Colombia	10.98778
Asia/Seoul	03/06/2019, 00:00:00	excellent	128.63083	Eisen	36.82167
Africa/Banjul	2014/05/05	building	-15.6	Farafenni	13.56667
Asia/Tbilisi	01/16/2019, 00:00:00	good	41.77921	Kobuleti	41.82143
America/Los_Angeles	08 Mar 2016	maintenance	-121.74052	Davis	38.54491
Asia/Kolkata	2020-08-20	average	84.63445	Rafiganj	24.81757
Asia/Karachi	29 Mar 2021	good	68.49143	Bhit Shah	25.80565
Asia/Shanghai	08/14/2013, 00:00:00	good	126.28333	Shuangcheng	45.35
Europe/Warsaw	2016-03-17	accep	18.34717	Reda	54.60528
Asia/Karachi	28 Feb 2014	average	73.97117	Naushahra Virkan	31.96258
Asia/Kolkata	2022/01/13	accep	76.12647	Chamba	32.55531
Africa/Addis_Ababa	2017-08-07	good	37.55	Arba Minch	6.03333
America/Lima	17 Aug 2016	accep	-76.70944	Chosica	-11.94306
Europe/Rome	11 Nov 2019	excellent	14.72443	Ragusa	36.92574
Asia/Shanghai	03/02/2022, 00:00:00	average	123.50266	Hushitai	41.94175
Asia/Kolkata	2022/04/06	average	75.37991	Deoli	25.75728
Asia/Kolkata	2021-08-29	excellent	76.56719	Aklera	24.41288
Europe/Berlin	2018/07/19	good	11.18709	Neuburg an der Donau	48.73218
Asia/Karachi	2019-09-08	building	74.12286	Kanganpur	30.76468
Asia/Bangkok	2016/07/28	excellent	104.64992	Kantharalak	14.64056
Europe/Lisbon	14 Apr 2018	average	-8.33147	Paredes	41.20485
Africa/Accra	2014-05-30	average	-1.4001	Mampong	7.06273
Europe/Berlin	02/26/2016, 00:00:00	accep	13.29371	Charlottenburg-Nord	52.53048
Asia/Jakarta	09/14/2015, 00:00:00	good	99.1625	Tebingtinggi	3.3285
Africa/Khartoum	05/30/2015, 00:00:00	accep	34.3869	Ar Ruseris	11.8659
Asia/Hong_Kong	12/16/2021, 00:00:00	maintenance	114.10479	Tsuen Wan	22.37066
Europe/Madrid	2018/07/17	accep	-8.2194	Ferrol	43.48961
America/El_Salvador	15 Feb 2016	building	-89.10944	Ilopango	13.70167
Africa/Lagos	10/02/2018, 00:00:00	building	5.06258	Igbara-Odo	7.50251
America/Mexico_City	08/23/2015, 00:00:00	excellent	-94.91386	Acayucan	17.94979
Africa/Lubumbashi	17 Nov 2012	good	29.47306	Beni	0.49113
Europe/London	05/27/2016, 00:00:00	average	-0.29825	Surbiton	51.39148
Indian/Antananarivo	2016/06/23	average	46.58333	Ikalamavony	-21.15
Europe/Berlin	2022/07/31	average	9.5926	Walsrode	52.86147
Europe/Berlin	2020/01/03	excellent	7.20769	Siegburg	50.80019
Asia/Bangkok	02/21/2013, 00:00:00	maintenance	102.42587	Bua Yai	15.58552
Europe/Rome	12/16/2012, 00:00:00	good	12.6723	Ariccia	41.72063
Asia/Kolkata	2018-12-11	average	77.40858	Leteri	24.05979
Africa/Lagos	04 Aug 2022	accep	4.74161	Ilesa	7.62789
Asia/Kolkata	01/11/2021, 00:00:00	excellent	73.7553	Calangute	15.5439
America/Denver	2018-05-24	average	-111.90466	Saratoga Springs	40.34912
America/Argentina/Cordoba	2019/09/04	average	-61.4867	Rafaela	-31.25033
America/New_York	05 May 2014	accep	-82.45426	Venice	27.09978
Europe/Minsk	05 Jan 2016	building	30.2049	Vitebsk	55.1904
Asia/Aqtobe	2016-10-01	building	59.6	Shalqar	47.83333
America/Bogota	11 Dec 2016	excellent	-74.73584	Honda	5.20856
Europe/London	29 Apr 2014	average	-4.22398	Inverness	57.47908
America/Chicago	19 Apr 2013	good	-94.74049	Longview	32.5007
Asia/Manila	2022-09-25	excellent	123.33471	Dipolog	8.56697
Asia/Shanghai	22 Nov 2021	accep	122.20488	Zhoushan	29.98869
Europe/Istanbul	2021-12-05	average	42.85693	Patnos	39.22493
America/New_York	11/23/2019, 00:00:00	average	-76.43941	Middle River	39.33427
Europe/Moscow	2022/02/22	maitennce	37.49338	Tyoply Stan	55.62047
Asia/Hong_Kong	2019/07/21	maintenance	114.10479	Tsuen Wan	22.37066
America/Mexico_City	11/11/2013, 00:00:00	accep	-99.32556	San Lorenzo Acopilco	19.32889
Asia/Tokyo	2015/11/12	average	136.51667	Komono	35
Asia/Jakarta	07/19/2013, 00:00:00	accep	114.33333	Muncar	-8.43333
Europe/Berlin	2018-08-06	excellent	8.86704	Nidderau	50.23805
Africa/Lubumbashi	2013/05/25	accep	29.47306	Beni	0.49113
Africa/Algiers	26 Oct 2021	accep	1.04945	Frenda	35.06544
Asia/Kolkata	03/31/2013, 00:00:00	good	86.59611	Saharsa	25.87498
Asia/Shanghai	20 Aug 2015	building	123.17306	Liaoyang	41.27194
Europe/Brussels	2017-01-09	excellent	4.21372	Temse	51.12794
America/Chicago	09/28/2015, 00:00:00	average	-95.36969	Muskogee	35.74788
America/Bahia	07/19/2015, 00:00:00	accep	-39.25	Muritiba	-12.91667
Asia/Krasnoyarsk	05/20/2019, 00:00:00	excellent	92.48278	Lesosibirsk	58.23583
America/Sao_Paulo	2019-07-18	good	-48.62789	Caldas Novas	-17.74431
Europe/Oslo	03/22/2013, 00:00:00	average	16.54165	Harstad	68.79833
Europe/Berlin	2019/04/07	accep	9.15214	Aschaffenburg	49.97704
Asia/Almaty	2015-10-05	average	84.87144	Zaysan	47.46657
Asia/Bangkok	11/12/2012, 00:00:00	good	102.05461	Tak Bai	6.25947
Asia/Shanghai	2019/05/26	good	120.03308	Guli	28.88162
America/Bahia	04/06/2022, 00:00:00	good	-38.94722	Canavieiras	-15.675
America/Sao_Paulo	10/28/2013, 00:00:00	average	-50.19556	Iturama	-19.72806
America/New_York	2016-06-26	average	-80.66756	Belle Glade	26.68451
Europe/Moscow	07/26/2014, 00:00:00	excellent	35.96944	Volokolamsk	56.03361
Europe/Helsinki	2016/03/15	accep	24.95034	Kallio	60.18427
America/Bogota	2013/08/02	building	-74.73584	Honda	5.20856
America/New_York	07 Nov 2015	maintenance	-82.07842	Punta Gorda Isles	26.91756
Africa/Douala	19 May 2014	maintenance	11.5	Mbalmayo	3.51667
Asia/Tashkent	2016-11-02	average	72.34424	Andijon	40.78206
Asia/Kolkata	2013-12-27	good	79.41727	Gingee	12.25282
Africa/Lagos	10 Dec 2019	good	8.2926	Kafanchan	9.58126
Europe/Madrid	10/30/2015, 00:00:00	accep	-3.67029	Las Gabias	37.13548
Europe/Paris	2014-08-03	building	2.1699	Herblay	48.98994
Asia/Hong_Kong	2020/12/04	excellent	114.10479	Tsuen Wan	22.37066
Africa/Douala	05/05/2014, 00:00:00	average	9.00472	Idenao	4.2475
Europe/Paris	2018-08-04	excellent	4.63031	Arles	43.67681
Europe/Sarajevo	01/15/2013, 00:00:00	average	19.21437	Bijeljina	44.75874
America/Sao_Paulo	07/06/2022, 00:00:00	average	-51.87389	Sarandi	-23.44361
Asia/Manila	2015-08-08	excellent	123.33471	Dipolog	8.56697
America/New_York	03/19/2013, 00:00:00	building	-78.04471	Leland	34.25628
Asia/Manila	19 Dec 2016	excellent	121.3152	Calauan	14.14989
Europe/Berlin	30 Apr 2014	excellent	6.8625	Oberhausen	51.47805
America/Matamoros	31 May 2018	accep	-97.50417	Heroica Matamoros	25.87972
America/Sao_Paulo	08/21/2013, 00:00:00	good	-46.99583	Valinhos	-22.97056
Australia/Sydney	2015-03-02	average	150.99292	Baulkham Hills	-33.75881
America/Los_Angeles	2013/05/11	good	-116.97725	Beaumont	33.92946
America/Sao_Paulo	15 Jun 2014	building	-52.67056	Pato Branco	-26.22861
Asia/Kolkata	2020/11/26	accep	79.82979	Puducherry	11.93381
Pacific/Auckland	26 Aug 2020	maintenance	178.00417	Gisborne	-38.65333
Europe/Rome	16 Apr 2020	average	8.88104	Malnate	45.79377
Europe/Rome	11/13/2013, 00:00:00	maintenance	13.44275	Villabate	38.07789
Asia/Tokyo	12/08/2015, 00:00:00	excellent	138.89585	Annaka	36.33011
America/New_York	07/23/2014, 00:00:00	average	-73.89125	Cypress Hills	40.67705
Europe/Rome	2014-01-28	accep	14.30935	Afragola	40.92298
Europe/Berlin	2021/04/24	good	10.18527	Memmingen	47.98372
Asia/Kolkata	12/05/2017, 00:00:00	average	76.32756	Kalavoor	9.57046
Asia/Almaty	2018/04/17	excellent	84.87144	Zaysan	47.46657
America/New_York	26 Sep 2016	maintenance	-73.95097	Greenpoint	40.72371
Asia/Hong_Kong	2021-01-15	accep	114.10479	Tsuen Wan	22.37066
Europe/Berlin	15 Oct 2016	good	11.32903	Weimar	50.9803
America/New_York	2013/07/07	building	-77.55777	Bon Air	37.52487
Asia/Dili	15 Mar 2020	average	125.21972	Maliana	-8.99167
Africa/Nairobi	2016/09/27	excellent	35.59642	Lodwar	3.11988
America/Los_Angeles	19 Jun 2022	accep	-121.75689	Watsonville	36.91023
America/New_York	14 Jul 2016	excellent	-77.37331	Mechanicsville	37.60876
Asia/Manila	2015-06-26	accep	120.56528	Pilar	14.66
Atlantic/Canary	05 Oct 2016	accep	-15.58602	Maspalomas	27.76056
Asia/Makassar	2017/08/22	accep	118.9707	Majene	-3.5403
Europe/Warsaw	03/16/2015, 00:00:00	average	18.34717	Reda	54.60528
Africa/Dar_es_Salaam	01 Sep 2022	excellent	35.7	Iringa	-7.76667
America/Los_Angeles	10/12/2019, 00:00:00	average	-122.40433	Visitacion Valley	37.71715
Europe/Vienna	13 Jan 2014	good	16.4	Floridsdorf	48.25
Asia/Kolkata	2013/02/19	excellent	86.79271	Madhipura	25.92127
America/Havana	12/25/2015, 00:00:00	good	-82.4017	Boyeros	23.0072
Europe/Kiev	2017/12/13	good	32.6178	Kherson	46.65581
America/Los_Angeles	11/04/2012, 00:00:00	building	-122.38731	Troutdale	45.53929
America/New_York	2022/04/13	accep	-84.50855	Covington	39.08367
America/Chicago	18 Sep 2015	excellent	-88.81395	Jackson	35.61452
Europe/Warsaw	03 Sep 2022	maintenance	17.4674	Brzeg	50.86079
America/Bahia	2014-05-21	average	-37.93278	Rio Real	-11.48472
America/New_York	2017-05-21	accep	-75.60804	West Chester	39.96097
Asia/Shanghai	02 Jun 2015	accep	117.55417	Zaozhuang	34.86472
Asia/Shanghai	08 May 2017	good	117.55417	Zaozhuang	34.86472
Europe/London	10/26/2020, 00:00:00	accep	-4.0573	Viewpark	55.82737
Asia/Tokyo	07 Aug 2015	average	141.95	Yamada	39.46667
Asia/Karachi	2018/11/26	average	71.67164	Qadirpur Ran	30.29184
Europe/Berlin	2014/08/08	excellent	10.5511	Gifhorn	52.47774
Asia/Shanghai	2021/01/31	average	111.50861	Danjiangkou	32.54278
Europe/Rome	2016-03-08	average	14.72443	Ragusa	36.92574
Asia/Manila	2020/08/03	building	124.84472	Maasin	10.13361
Europe/Moscow	2020-01-10	accep	47.1192	Buynaksk	42.819
America/Chicago	12/26/2013, 00:00:00	good	-93.08883	Lino Lakes	45.16024
America/New_York	2015-06-09	accep	-73.89125	Cypress Hills	40.67705
Asia/Tokyo	03/24/2016, 00:00:00	maintenance	136.84186	Toba	34.4833
Australia/Melbourne	29 Dec 2019	average	145.06667	Carnegie	-37.88333
America/Los_Angeles	2014/05/24	good	-117.23991	Opportunity	47.64995
America/New_York	20 Oct 2012	good	-76.43941	Middle River	39.33427
America/Merida	04 Dec 2016	building	-89.66123	Progreso	21.28306
America/Lima	2018-09-03	good	-73.25383	Iquitos	-3.74912
Europe/Madrid	2016-01-07	good	-1.325	Jumilla	38.47917
America/New_York	12/26/2020, 00:00:00	excellent	-84.20299	Lebanon	39.43534
Africa/Lubumbashi	12 Sep 2019	good	24.99798	Kamina	-8.73508
Europe/Stockholm	10/11/2014, 00:00:00	good	18.28333	Boo	59.33333
Africa/Tunis	2022-02-14	building	9.37082	Siliana	36.08497
Asia/Jakarta	04/23/2021, 00:00:00	excellent	103.61667	Jambi City	-1.6
Europe/London	07/20/2017, 00:00:00	accep	0.93333	East Dereham	52.68333
Asia/Tokyo	20 Jul 2015	accep	135.31667	Iwade	34.25
America/Sao_Paulo	26 Mar 2017	accep	-47.53028	Santa Gertrudes	-22.45667
Africa/Algiers	2014/05/29	average	4.08282	Beni Douala	36.61954
Europe/Warsaw	03/31/2016, 00:00:00	average	15.00835	Zgorzelec	51.14942
Europe/Paris	2015-04-24	average	2.18967	Rueil-Malmaison	48.8765
Europe/Paris	11/22/2020, 00:00:00	average	4.86667	Vienne	45.51667
America/Maceio	2013/05/27	good	-37.65	Lagarto	-10.91722
Asia/Tokyo	07/01/2015, 00:00:00	accep	137.36215	Namerikawa	36.75965
America/Maceio	06/12/2016, 00:00:00	acceptable	-37.65	Lagarto	-10.91722
Europe/Madrid	25 Nov 2015	average	-4.83076	Talavera de la Reina	39.96348
America/Cuiaba	2013-08-26	average	-52.35558	Nova Xavantina	-14.66463
Asia/Manila	2014-01-09	building	124.84472	Maasin	10.13361
America/Santiago	2021/12/20	excellent	-71.23106	La Ligua	-32.45242
Europe/Berlin	09/19/2014, 00:00:00	accep	13.10984	Oschatz	51.30001
America/New_York	08/30/2022, 00:00:00	accep	-84.20299	Lebanon	39.43534
America/Toronto	2017-10-21	accep	-73.86586	Beaconsfield	45.43341
Asia/Kolkata	02 Nov 2020	average	78.25795	Tiruppuvanam	9.82564
America/Sao_Paulo	21 Jun 2018	excellent	-41.88778	Itaperuna	-21.205
America/New_York	08 Feb 2019	building	-73.75513	Far Rockaway	40.60538
America/Los_Angeles	2020-12-26	average	-122.86705	Aloha	45.49428
Europe/Madrid	23 Dec 2021	excellent	-1.60452	Tudela	42.06166
Asia/Bangkok	2019-03-02	average	102.42587	Bua Yai	15.58552
Pacific/Auckland	08/04/2020, 00:00:00	accep	178.00417	Gisborne	-38.65333
Europe/Moscow	10/03/2018, 00:00:00	good	36.73307	Naro-Fominsk	55.38752
Asia/Tokyo	2018-04-26	good	139.6853	Shimotoda	35.815
Europe/London	2015-07-24	building	-2.12139	Brierley Hill	52.48173
Europe/Rome	14 Jul 2015	building	8.88104	Malnate	45.79377
Indian/Antananarivo	2016-08-04	maintenance	46.58333	Ikalamavony	-21.15
Asia/Kolkata	08/22/2013, 00:00:00	accep	88.18466	Diamond Harbour	22.19303
America/Bogota	05/20/2020, 00:00:00	excellent	-74.73584	Honda	5.20856
Europe/London	2016-08-27	maintenance	-0.32247	Lancing	50.82882
Asia/Damascus	20 Dec 2017	excellent	36.7138	Binnish	35.95664
Asia/Shanghai	2013-06-22	good	126.28333	Shuangcheng	45.35
America/Halifax	20 Dec 2017	accep	-63.13414	Charlottetown	46.23899
Europe/Berlin	2022/01/30	maintenance	8.51667	Verl	51.88333
Asia/Tokyo	07 Sep 2020	average	137.4	Toyokawa	34.81667
Europe/Madrid	2019-01-07	average	-1.325	Jumilla	38.47917
Asia/Kolkata	2020/12/17	good	75.16878	Moga	30.81383
Europe/Paris	07/02/2021, 00:00:00	average	5.16108	Bar-le-Duc	48.77275
America/New_York	2020-04-05	accep	-84.23381	Stockbridge	33.54428
Europe/London	14 Jun 2017	accep	-1.48119	Belper	53.0233
Europe/Moscow	2016/03/30	good	34.34691	Petrozavodsk	61.78491
America/Los_Angeles	07/23/2022, 00:00:00	good	-117.23991	Opportunity	47.64995
Europe/Rome	04/23/2014, 00:00:00	maitennce	9.29109	San Giuliano Milanese	45.39402
Asia/Jakarta	2016/03/13	accep	114.33333	Muncar	-8.43333
Asia/Shanghai	22 Aug 2014	accep	117.33333	Taozhuang	34.85
Europe/Moscow	01/20/2014, 00:00:00	good	35.90057	Tver	56.85836
Europe/Vilnius	10/06/2013, 00:00:00	good	24.75	Ukmerge	55.25
Europe/Bratislava	02/10/2020, 00:00:00	average	17.22635	Skalica	48.8449
Asia/Kolkata	04 Jul 2018	building	82.85749	Elamanchili	17.54907
Africa/Casablanca	17 Apr 2019	good	-5.22126	Azrou	33.43443
America/New_York	12/02/2019, 00:00:00	average	-75.64963	Pottstown	40.24537
Asia/Dhaka	2018-03-05	excellent	89.11943	Kushtia	23.9028
Asia/Kolkata	26 Feb 2018	good	79.41727	Gingee	12.25282
Europe/Moscow	2020/11/11	good	43.83992	Arzamas	55.39485
Africa/Gaborone	2019-11-11	excellent	27.46153	Tonota	-21.44236
America/New_York	2022/01/18	accep	-82.32483	Gainesville	29.65163
Europe/Istanbul	11/05/2013, 00:00:00	good	40.74357	Mardin	37.31309
Europe/Berlin	28 Apr 2018	average	10.18527	Memmingen	47.98372
Europe/Paris	2017/03/06	accep	-4.1	Quimper	48
America/Los_Angeles	2020/08/13	excellent	-119.01677	Porterville	36.06523
Europe/Rome	2017-11-13	excellent	17.58522	Francavilla Fontana	40.53123
America/Chicago	2014/09/22	excellent	-97.54667	Hutto	30.5427
Africa/Lagos	20 Aug 2018	average	9.0027	Gaya	11.86064
America/Porto_Velho	2020/02/27	good	-63.90389	Porto Velho	-8.76194
America/Indiana/Indianapolis	2019/10/05	average	-85.76942	Greenfield	39.78504
Africa/Lagos	03 Dec 2015	accep	3.64633	Shagamu	6.8485
Indian/Antananarivo	2018/04/11	accep	44.53333	Sakaraha	-22.9
Europe/Sarajevo	2022/08/10	average	19.21437	Bijeljina	44.75874
America/Montevideo	18 Feb 2017	good	-56.52361	Durazno	-33.38056
America/Santiago	08/04/2019, 00:00:00	good	-70.6996	San Bernardo	-33.59217
Europe/London	2015/06/26	excellent	0.93333	East Dereham	52.68333
America/Guayaquil	2019-09-21	excellent	-79.00453	Cuenca	-2.90055
Europe/Berlin	29 Oct 2014	average	12.1369	Zeitz	51.04962
America/Bogota	05/03/2019, 00:00:00	building	-77.03116	Buenaventura	3.8801
America/Los_Angeles	2019-03-01	average	-115.98391	Pahrump	36.20829
America/Phoenix	26 Jun 2021	excellent	-111.89903	Scottsdale	33.50921
Atlantic/Azores	2019/01/17	maintenance	-25.66689	Ponta Delgada	37.74615
Europe/Madrid	2014-06-16	maintenance	3.1631	Palafrugell	41.91738
Asia/Tokyo	2012/10/12	good	137.5	Shinshiro	34.9
America/Chicago	11/06/2020, 00:00:00	excellent	-88.42814	Huntley	42.16808
America/Costa_Rica	2014-12-25	average	-84.13722	San Rafael	9.92787
Africa/Algiers	2015-06-19	maintenance	2.95924	Cheraga	36.76775
Asia/Karachi	2015/11/24	excellent	73.97117	Naushahra Virkan	31.96258
Africa/Lubumbashi	2018/03/18	excellent	24.99798	Kamina	-8.73508
Asia/Kolkata	10/11/2021, 00:00:00	average	84.13864	Jashpurnagar	22.88783
Africa/Kampala	02/16/2020, 00:00:00	good	30.98551	Paidha	2.41669
Europe/Rome	05/29/2019, 00:00:00	excellent	17.80774	Mesagne	40.55851
America/New_York	2013-09-16	average	-77.02303	Fort Washington	38.70734
Asia/Krasnoyarsk	2021/05/14	building	92.48278	Lesosibirsk	58.23583
Indian/Antananarivo	2016-08-08	good	44.53333	Sakaraha	-22.9
Europe/Kiev	2014-07-25	good	30.96755	Zvenihorodka	49.07866
Europe/Copenhagen	2014-10-29	accep	12.53463	Frederiksberg	55.67938
Asia/Tokyo	07 Sep 2020	building	138.89585	Annaka	36.33011
Atlantic/Azores	2020-06-03	accep	-25.66689	Ponta Delgada	37.74615
America/Chicago	2018/08/31	good	-87.71255	South Lawndale	41.84364
Europe/Berlin	10/31/2019, 00:00:00	building	7.36027	Radevormwald	51.20219
Europe/Zurich	2015/08/11	excellent	6.10237	Onex	46.18396
Indian/Antananarivo	02/23/2021, 00:00:00	maintenance	48.41667	Ambatondrazaka	-17.83333
Europe/Amsterdam	2018-01-01	accep	6.76111	Hoogezand	53.16167
America/New_York	2016-03-09	average	-84.50855	Covington	39.08367
America/Chicago	2022/03/05	accep	-87.66561	Lower West Side	41.8542
Europe/Rome	08 Aug 2016	building	12.84052	Portogruaro	45.78071
Asia/Manila	2012/10/03	good	120.89694	Baliuag	14.95472
Europe/Madrid	09/01/2017, 00:00:00	excellent	-1.325	Jumilla	38.47917
Europe/Berlin	01/12/2013, 00:00:00	average	6.51352	Korschenbroich	51.19139
Asia/Shanghai	2019-12-13	excellent	117.55417	Zaozhuang	34.86472
Africa/Kampala	2017/08/14	accep	30.98551	Paidha	2.41669
Africa/Addis_Ababa	11/09/2012, 00:00:00	excellent	38.01667	Debre Tabor	11.85
Europe/Madrid	2018/04/30	building	2.35739	Cardedeu	41.63976
Pacific/Port_Moresby	30 Aug 2014	good	144.23058	Mount Hagen	-5.85746
Europe/London	2021/04/03	average	-0.91979	Lower Earley	51.42708
America/Chicago	2015-12-05	average	-96.39774	Brenham	30.16688
America/New_York	10/08/2020, 00:00:00	excellent	-84.67837	Acworth	34.06635
Asia/Kolkata	04/14/2014, 00:00:00	average	79.82979	Puducherry	11.93381
Europe/Istanbul	2015-08-22	maintenance	34.37389	Sungurlu	40.1675
America/Los_Angeles	01/19/2021, 00:00:00	average	-117.79394	North Tustin	33.76446
Asia/Karachi	12/15/2018, 00:00:00	average	68.21204	Larkana	27.55898
America/Chicago	2022/01/28	maintenance	-86.78777	Vestavia Hills	33.44872
Africa/Lubumbashi	02/10/2020, 00:00:00	excellent	24.99798	Kamina	-8.73508
America/Chicago	2021/07/24	average	-97.03285	Grand Forks	47.92526
Europe/Paris	2018-11-06	average	2.25	Saint-Omer	50.75
Asia/Kolkata	23 Nov 2014	good	77.23826	Sathyamangalam	11.50526
America/Havana	24 Apr 2019	excellent	-80.58556	Corralillo	22.98212
America/Lima	05/27/2015, 00:00:00	average	-76.70944	Chosica	-11.94306
Europe/Kiev	2020-01-04	average	26.97253	Krasyliv	49.65186
Asia/Urumqi	19 Nov 2021	average	86.00214	Hoxtolgay	46.51872
Asia/Shanghai	2021-07-04	maintenance	117.55417	Zaozhuang	34.86472
America/Detroit	01/30/2020, 00:00:00	building	-82.42491	Port Huron	42.97086
Europe/Madrid	15 Dec 2016	accep	2.35739	Cardedeu	41.63976
America/Argentina/Cordoba	2015/05/29	average	-60.93173	Esperanza	-31.4488
America/New_York	2013/08/22	maintenance	-81.38758	Palm Valley	30.17746
Europe/Samara	07/25/2017, 00:00:00	accep	51.3452	Otradnyy	53.37596
America/New_York	03/05/2017, 00:00:00	building	-81.23621	Lexington	33.98154
Europe/Paris	26 Oct 2014	excellent	2.2469	La Garenne-Colombes	48.90472
Asia/Tokyo	05/31/2018, 00:00:00	excellent	136.13108	Ueno-ebisumachi	34.75856
America/Chicago	2012/10/31	good	-87.93341	Pleasant Prairie	42.55308
Asia/Yekaterinburg	2016/10/14	accep	59.80222	Lesnoy	58.63667
America/Havana	2017-05-17	average	-82.4017	Boyeros	23.0072
Europe/Amsterdam	2018/08/13	maintenance	5.74861	Emmeloord	52.71083
Asia/Tokyo	2015-12-26	building	130.94098	Hita	33.3213
Europe/Paris	26 Aug 2018	average	2.08333	Marly-le-Roi	48.86667
Asia/Kolkata	2017-08-01	average	83.97573	Sambalpur	21.46527
Europe/London	23 Apr 2018	average	-1.99421	Devizes	51.35084
Asia/Seoul	12/26/2017, 00:00:00	accep	126.835	Goyang-si	37.65639
Asia/Shanghai	11/24/2015, 00:00:00	average	130.57211	Boli	45.75279
Asia/Yekaterinburg	01/26/2017, 00:00:00	building	76.92421	Izluchinsk	60.97944
America/New_York	06 Feb 2021	maintenance	-82.46148	Lutz	28.15112
America/Denver	2020/12/02	good	-104.22884	Carlsbad	32.42067
America/Los_Angeles	2012-11-25	average	-120.93549	Riverbank	37.73604
Europe/Paris	2014/01/23	excellent	4.91667	Bron	45.73333
Asia/Karachi	30 Aug 2019	excellent	71.57118	Daud Khel	32.87533
America/New_York	05/14/2013, 00:00:00	maintenance	-81.23621	Lexington	33.98154
Asia/Yekaterinburg	2018-01-14	accep	56.36091	Saraktash	51.78771
Europe/London	2016-09-15	good	-1.29772	Cowes	50.76306
Asia/Qyzylorda	2015-07-29	accep	65.50917	Kyzylorda	44.85278
Asia/Shanghai	02/22/2017, 00:00:00	good	122.22833	Yingkou	40.66482
America/Merida	18 Jul 2014	maintenance	-89.66123	Progreso	21.28306
Europe/Rome	2019/07/01	excellent	14.30935	Afragola	40.92298
Europe/Moscow	11/19/2017, 00:00:00	good	38.94324	Yablonovskiy	44.98901
Asia/Kolkata	31 Oct 2013	excellent	86.79271	Madhipura	25.92127
Asia/Aden	11/08/2013, 00:00:00	accep	46.83187	Ataq	14.53767
America/Chicago	10/23/2014, 00:00:00	average	-95.30106	Tyler	32.35126
Europe/Rome	12/17/2018, 00:00:00	good	13.39954	Falconara Marittima	43.62558
Europe/Rome	08/09/2017, 00:00:00	maintenance	11.04979	Castelfranco Emilia	44.59445
Europe/Rome	2015-03-29	good	12.70038	Cordenons	45.9836
Asia/Shanghai	2019/11/11	excellent	122.22833	Yingkou	40.66482
America/Belem	2021-11-17	excellent	-48.52333	Soure	-0.71667
Asia/Tokyo	2022/04/30	maintenance	141.95	Yamada	39.46667
America/Fortaleza	19 May 2019	acceptable	-40.7475	Guaraciaba do Norte	-4.16694
Africa/Mogadishu	2013-12-29	average	43.38531	Baki	9.89206
Europe/Brussels	2019-11-09	average	4.25633	Beveren	51.21187
Asia/Karachi	2018/07/02	good	73.38333	Sangla Hill	31.71667
Europe/Madrid	2018/04/25	average	-4.83076	Talavera de la Reina	39.96348
Europe/Moscow	31 Oct 2020	excellent	38.94324	Yablonovskiy	44.98901
Europe/Rome	06 Oct 2020	maitennce	14.30935	Afragola	40.92298
America/Bogota	2020-07-21	excellent	-74.73584	Honda	5.20856
Europe/Amsterdam	22 Jan 2017	accep	7.00417	Losser	52.26083
Asia/Makassar	2021/02/09	maintenance	117.59152	Tarakan	3.31332
Europe/Chisinau	2012/09/29	excellent	28.28489	Soroca	48.15659
Europe/Berlin	23 Oct 2020	average	12.16179	Landshut	48.52961
America/Los_Angeles	2022/03/26	average	-117.54866	Norco	33.93113
Asia/Makassar	2021/09/03	accep	117.59152	Tarakan	3.31332
Asia/Qyzylorda	09/27/2014, 00:00:00	average	65.50917	Kyzylorda	44.85278
America/Toronto	07/03/2020, 00:00:00	good	-73.86586	Beaconsfield	45.43341
Asia/Shanghai	2021-08-31	average	105.89333	Beidao	34.56861
Europe/Moscow	2021-03-02	building	37.56667	Likhobory	55.85
Europe/Berlin	12/02/2017, 00:00:00	good	9.47629	Stade	53.59337
Africa/Lagos	2020-05-19	average	12.19458	Biu	10.61285
Asia/Jakarta	2022-06-09	good	101.44167	Pekanbaru	0.51667
Europe/Sofia	01 Jul 2021	accep	27.25	Aytos	42.7
America/Phoenix	2013/11/02	acceptable	-111.89903	Scottsdale	33.50921
Asia/Vladivostok	2015-07-11	good	133.42825	Lesozavodsk	45.47885
America/Sao_Paulo	30 Jul 2017	maintenance	-47.1725	Artur Nogueira	-22.57306
Asia/Ulaanbaatar	01/31/2016, 00:00:00	excellent	106.88324	Ulan Bator	47.90771
America/Belem	2022-08-16	accep	-48.52333	Soure	-0.71667
Asia/Kolkata	16 Jul 2022	maintenance	73.06784	Sheoganj	25.13915
Europe/Paris	2016/06/30	excellent	2.18967	Rueil-Malmaison	48.8765
Europe/Madrid	01/01/2016, 00:00:00	average	-1.60452	Tudela	42.06166
Europe/Amsterdam	2018-12-02	average	5.22778	Culemborg	51.955
Africa/Tripoli	08 Jun 2022	good	10.18003	Ghat	24.96334
America/Havana	2022/07/11	average	-82.4017	Boyeros	23.0072
America/New_York	04/26/2019, 00:00:00	average	-82.90375	Dublin	32.54044
Africa/Lagos	2016/06/26	maintenance	4.92235	Efon-Alaaye	7.65649
