QoS	longitude	latitude	revision	station	location
accep	117.81667	36.81667	01 Jul 2022	Zhoucun	Asia/Shanghai
average	-89.71472	13.73417	01/28/2017, 00:00:00	Sonzacate	America/El_Salvador
excellent	11.412	45.50369	08/03/2018, 00:00:00	Montecchio Maggiore-Alte Ceccato	Europe/Rome
accep	4.63031	43.67681	07/16/2019, 00:00:00	Arles	Europe/Paris
building	145.06667	-37.88333	2020/07/08	Carnegie	Australia/Melbourne
maintenance	51.3452	53.37596	02/04/2017, 00:00:00	Otradnyy	Europe/Samara
average	4.63031	43.67681	10/01/2020, 00:00:00	Arles	Europe/Paris
accep	-2.09814	57.14369	2015/07/25	Aberdeen	Europe/London
good	74.85849	31.28092	02 Feb 2017	Patti	Asia/Kolkata
excellent	122.08333	46.08333	07/10/2019, 00:00:00	Ulanhot	Asia/Shanghai
excellent	72.34424	40.78206	2016-04-29	Andijon	Asia/Tashkent
accep	-80.58556	22.98212	2016/05/21	Corralillo	America/Havana
good	88.1453	22.4711	07/15/2015, 00:00:00	Pujali	Asia/Kolkata
accep	5.06258	7.50251	08/07/2015, 00:00:00	Igbara-Odo	Africa/Lagos
excellent	106.92667	-6.91806	06 Sep 2017	Sukabumi	Asia/Jakarta
maintenance	-71.8023	42.58342	20 Feb 2016	Fitchburg	America/New_York
maintenance	-1.5443	50.75767	05/01/2013, 00:00:00	Lymington	Europe/London
acceptable	116.11768	24.28859	2016-12-16	Meizhou	Asia/Shanghai
average	-91.73625	35.25064	2018/11/24	Searcy	America/Chicago
excellent	68.21204	27.55898	04/04/2016, 00:00:00	Larkana	Asia/Karachi
average	14.72443	36.92574	2021-02-27	Ragusa	Europe/Rome
accep	-73.47429	40.68066	2022-08-10	Massapequa	America/New_York
good	-73.75513	40.60538	2015/09/26	Far Rockaway	America/New_York
excellent	145.18333	-37.9	2021/03/26	Wheelers Hill	Australia/Melbourne
excellent	36.7138	35.95664	17 Oct 2019	Binnish	Asia/Damascus
average	75.37991	25.75728	2012-12-31	Deoli	Asia/Kolkata
excellent	-122.2608	38.17492	03/03/2019, 00:00:00	American Canyon	America/Los_Angeles
excellent	88.58	23.18	2017/05/22	Aistala	Asia/Kolkata
good	136.84186	34.4833	2014/12/26	Toba	Asia/Tokyo
maintenance	121.12251	14.62578	25 Sep 2017	Antipolo	Asia/Manila
average	-111.90466	40.34912	2017-05-06	Saratoga Springs	America/Denver
good	6.92917	52.31333	2020/08/28	Oldenzaal	Europe/Amsterdam
building	59.80222	58.63667	2016-08-17	Lesnoy	Asia/Yekaterinburg
accep	74.3092	33.37526	08/14/2013, 00:00:00	Rajaori	Asia/Kolkata
average	-117.70755	33.52253	09 May 2021	Laguna Niguel	America/Los_Angeles
accep	124.3697	9.6531	2020-04-05	Jagna	Asia/Manila
maintenance	-73.95097	40.72371	2012/12/11	Greenpoint	America/New_York
average	33.2525	57.97472	2017/12/18	Valday	Europe/Moscow
excellent	46.5813	54.8421	2016/03/26	Alatyr‚Äô	Europe/Moscow
average	34.3869	11.8659	2022-03-15	Ar Ruseris	Africa/Khartoum
accep	-4.83076	39.96348	09/26/2016, 00:00:00	Talavera de la Reina	Europe/Madrid
accep	-62.64102	8.35122	2016-05-09	Ciudad Guayana	America/Caracas
excellent	-87.66561	41.8542	2016/11/20	Lower West Side	America/Chicago
good	20.91361	41.92361	09/28/2014, 00:00:00	Bogovinje	Europe/Skopje
average	-104.83192	39.72943	07/27/2015, 00:00:00	Aurora	America/Denver
good	-2.09814	57.14369	08/15/2022, 00:00:00	Aberdeen	Europe/London
good	-111.78903	33.35283	10/25/2021, 00:00:00	Gilbert	America/Phoenix
accep	-122.23484	47.38093	2016-01-20	Kent	America/Los_Angeles
excellent	-102.04897	19.64745	28 Dec 2019	Paracho de Verduzco	America/Mexico_City
maitennce	-0.76773	38.38479	07/30/2013, 00:00:00	Novelda	Europe/Madrid
building	-72.09391	18.65297	2015/09/20	Thomazeau	America/Port-au-Prince
maintenance	7.02238	52.21099	2021/09/06	Gronau	Europe/Berlin
building	-86.58208	13.48082	2014/12/30	Somoto	America/Managua
good	-2.31938	6.46346	07 Mar 2016	Bibiani	Africa/Accra
maintenance	-84.62081	42.7392	2020-07-04	Waverly	America/Detroit
average	-74.15987	40.82232	2015-08-14	Nutley	America/New_York
good	29.24152	-26.93366	12 Jun 2017	Standerton	Africa/Johannesburg
maintenance	100.24529	5.4709	11/14/2016, 00:00:00	Batu Feringgi	Asia/Kuala_Lumpur
accep	-52.67056	-26.22861	05/13/2022, 00:00:00	Pato Branco	America/Sao_Paulo
excellent	-50.00639	-25.42944	04 Jul 2022	Palmeira	America/Sao_Paulo
average	114.51667	33.78333	2019/04/11	Wacheng	Asia/Shanghai
good	85.4265	55.8736	2020-03-15	Yashkino	Asia/Novokuznetsk
excellent	85.37752	22.10194	03/12/2020, 00:00:00	Barbil	Asia/Kolkata
good	-97.35992	19.8173	17 Oct 2017	Teziutlan	America/Mexico_City
average	31.3237	52.4089	2013/01/12	Dobrush	Europe/Minsk
accep	-82.35176	27.71809	05/07/2022, 00:00:00	Sun City Center	America/New_York
maintenance	86.68363	23.49668	11/21/2012, 00:00:00	Adra	Asia/Kolkata
building	35.90057	56.85836	12/14/2021, 00:00:00	Tver	Europe/Moscow
excellent	8.63333	52.2	2013-04-15	Kirchlengern	Europe/Berlin
excellent	30.28491	60.02427	2014-06-17	Kolomyagi	Europe/Moscow
good	35.23388	31.78336	08/12/2019, 00:00:00	East Jerusalem	Asia/Hebron
good	123.17306	41.27194	07/20/2022, 00:00:00	Liaoyang	Asia/Shanghai
accep	14.39024	42.22718	27 Jun 2021	Lanciano	Europe/Rome
good	125.51176	42.64031	01 Dec 2015	Dongfeng	Asia/Shanghai
accep	-1.48119	53.0233	2014-07-03	Belper	Europe/London
good	-50.00639	-25.42944	2013/03/04	Palmeira	America/Sao_Paulo
accep	4.8951	44.92801	20 Jan 2014	Valence	Europe/Paris
good	-117.23991	47.64995	10/09/2019, 00:00:00	Opportunity	America/Los_Angeles
excellent	22.53083	44.22639	27 Jan 2014	Negotin	Europe/Belgrade
average	13.58357	-1.63333	2019/05/12	Franceville	Africa/Libreville
excellent	69.01354	38.55632	2014/10/06	Vahdat	Asia/Dushanbe
accep	-91.77127	37.95143	07/16/2014, 00:00:00	Rolla	America/Chicago
accep	120.03308	28.88162	2018-02-06	Guli	Asia/Shanghai
maintenance	-90.10674	29.84576	05/25/2017, 00:00:00	Estelle	America/Chicago
average	168.31366	-17.73648	22 Dec 2020	Port-Vila	Pacific/Efate
excellent	-51.50361	-29.2975	31 Mar 2021	Carlos Barbosa	America/Sao_Paulo
average	15.07041	37.49223	2017-10-30	Catania	Europe/Rome
good	77.9129	25.6439	2018/01/26	Narwar	Asia/Kolkata
good	122.08333	46.08333	01/05/2015, 00:00:00	Ulanhot	Asia/Shanghai
excellent	-80.38297	42.8334	2013-03-23	Norfolk County	America/Toronto
average	-73.47429	40.68066	04/08/2020, 00:00:00	Massapequa	America/New_York
average	-119.27337	50.26729	2016-06-24	Vernon	America/Vancouver
excellent	-73.20483	41.16704	2020/09/27	Bridgeport	America/New_York
building	4.92235	7.65649	2012-12-07	Efon-Alaaye	Africa/Lagos
maintenance	7.36027	51.20219	2013/10/18	Radevormwald	Europe/Berlin
excellent	89.20083	55.54028	12/19/2017, 00:00:00	Sharypovo	Asia/Krasnoyarsk
good	8.96317	48.35149	05/26/2016, 00:00:00	Hechingen	Europe/Berlin
excellent	-111.89903	33.50921	11/28/2021, 00:00:00	Scottsdale	America/Phoenix
accep	13.63617	50.50301	2021/07/09	Most	Europe/Prague
accep	-71.10077	18.20854	2021-06-02	Santa Cruz de Barahona	America/Santo_Domingo
excellent	128.62667	34.8825	04/13/2015, 00:00:00	Sinhyeon	Asia/Seoul
excellent	8.62118	45.44694	2014/10/31	Novara	Europe/Rome
excellent	10.03478	37.16911	23 Dec 2013	El Alia	Africa/Tunis
excellent	-66.8499	18.03496	2017/08/17	Yauco	America/Puerto_Rico
maintenance	117.33333	34.85	13 Sep 2021	Taozhuang	Asia/Shanghai
building	32.88667	3.27833	04/06/2013, 00:00:00	Kitgum	Africa/Kampala
maintenance	1.04945	35.06544	18 Oct 2019	Frenda	Africa/Algiers
excellent	146.05093	-34.28853	2016-07-08	Griffith	Australia/Sydney
excellent	79.41727	12.25282	10 Sep 2021	Gingee	Asia/Kolkata
excellent	120.03308	28.88162	13 Feb 2014	Guli	Asia/Shanghai
accep	-1.5443	50.75767	2018-09-07	Lymington	Europe/London
good	117.7	35.85	2022/01/22	Dongdu	Asia/Shanghai
average	68.21204	27.55898	03 Jun 2019	Larkana	Asia/Karachi
average	-70.20749	8.62261	04/27/2019, 00:00:00	Barinas	America/Caracas
good	138.31667	36.65	2016/07/31	Suzaka	Asia/Tokyo
maintenance	73.38333	31.71667	19 Feb 2022	Sangla Hill	Asia/Karachi
accep	-5.682	5.84752	2021-12-08	Lakota	Africa/Abidjan
excellent	-52.35558	-14.66463	2017-08-24	Nova Xavantina	America/Cuiaba
excellent	9.15013	13.70727	2014/10/05	Mirriah	Africa/Niamey
maitennce	-104.22884	32.42067	2021/09/12	Carlsbad	America/Denver
good	76.35484	10.10649	2017/09/19	Alwaye	Asia/Kolkata
accep	14.30935	40.92298	2015-10-20	Afragola	Europe/Rome
average	35.23388	31.78336	2018/05/11	East Jerusalem	Asia/Hebron
average	44.7662	40.49748	2020/09/22	Hrazdan	Asia/Yerevan
excellent	17.4674	50.86079	05/29/2020, 00:00:00	Brzeg	Europe/Warsaw
maintenance	-9.24671	38.72706	31 Jan 2014	Carnaxide	Europe/Lisbon
accep	74.80555	34.08565	03 Mar 2013	Srinagar	Asia/Kolkata
accep	38.07083	54.90083	2017/08/10	Stupino	Europe/Moscow
average	114.51667	33.78333	2018/06/12	Wacheng	Asia/Shanghai
average	69.01354	38.55632	2017-04-17	Vahdat	Asia/Dushanbe
accep	77.0202	43.41949	2019-10-16	Otegen Batyra	Asia/Almaty
good	114.51667	33.78333	2017-04-29	Wacheng	Asia/Shanghai
good	106.85417	-6.48167	2015/07/01	Cibinong	Asia/Jakarta
average	18.30056	50.5107	29 Dec 2016	Strzelce Opolskie	Europe/Warsaw
good	-8.53778	7.57944	11/13/2021, 00:00:00	New Yekepa	Africa/Monrovia
accep	-42.19667	-21.41222	15 Dec 2017	Miracema	America/Sao_Paulo
accep	-66.8499	18.03496	01/17/2016, 00:00:00	Yauco	America/Puerto_Rico
accep	4.25633	51.21187	2015/04/03	Beveren	Europe/Brussels
accep	5.51978	51.44889	07/22/2020, 00:00:00	Tongelre	Europe/Amsterdam
excellent	-61.4867	-31.25033	12 Sep 2016	Rafaela	America/Argentina/Cordoba
maintenance	-74.15987	40.82232	02/06/2016, 00:00:00	Nutley	America/New_York
accep	2.61667	48.98333	03 Dec 2021	Mitry-Mory	Europe/Paris
maintenance	-94.91386	17.94979	06 Feb 2022	Acayucan	America/Mexico_City
excellent	5.03586	43.83125	01 Aug 2015	Cavaillon	Europe/Paris
maintenance	-91.58045	41.6764	19 Jun 2013	Coralville	America/Chicago
building	91.61356	26.44931	11/17/2021, 00:00:00	Rangia	Asia/Kolkata
excellent	0.47713	51.39323	22 Dec 2018	Strood	Europe/London
average	91.84128	22.83957	2013-08-12	Manikchari	Asia/Dhaka
accep	-1.325	38.47917	09/14/2019, 00:00:00	Jumilla	Europe/Madrid
maintenance	116.82887	-1.26753	28 May 2017	Balikpapan	Asia/Makassar
excellent	2.25	50.75	03 Dec 2013	Saint-Omer	Europe/Paris
average	-82.32483	29.65163	2018/02/04	Gainesville	America/New_York
maintenance	-87.882	41.85059	2020/03/18	Westchester	America/Chicago
average	140.73667	41.77583	05/16/2020, 00:00:00	Hakodate	Asia/Tokyo
good	101.18445	13.44581	12 Jan 2014	Phanat Nikhom	Asia/Bangkok
maintenance	-0.33525	53.7446	2019-07-28	Kingston upon Hull	Europe/London
excellent	41.77921	41.82143	2013-06-17	Kobuleti	Asia/Tbilisi
good	22.53083	44.22639	10/07/2017, 00:00:00	Negotin	Europe/Belgrade
accep	21.32778	42	2013/02/20	Saraj	Europe/Skopje
excellent	34.86563	31.92923	14 Nov 2019	Ramla	Asia/Jerusalem
excellent	78.55757	17.34769	09/21/2015, 00:00:00	Lal Bahadur Nagar	Asia/Kolkata
accep	2.35739	41.63976	2016/03/28	Cardedeu	Europe/Madrid
accep	4.62744	36.06386	02 Jan 2013	El Achir	Africa/Algiers
excellent	-1.5443	50.75767	10/18/2019, 00:00:00	Lymington	Europe/London
accep	-42.98194	-22.53722	2017-10-28	Guapimirim	America/Sao_Paulo
building	-44.31389	-19.7625	2014-03-05	Esmeraldas	America/Sao_Paulo
maintenance	-73.78458	41.0051	11/06/2019, 00:00:00	Scarsdale	America/New_York
average	12.19458	10.61285	2014/04/24	Biu	Africa/Lagos
average	-3.59625	5.27247	2022-05-18	Bonoua	Africa/Abidjan
building	34.11169	0.46005	02/03/2021, 00:00:00	Busia	Africa/Nairobi
building	34.75699	31.39547	2013/02/16	Rahat	Asia/Jerusalem
excellent	72.54566	29.69221	07/12/2022, 00:00:00	Hasilpur	Asia/Karachi
good	-74.15987	40.82232	2018-11-16	Nutley	America/New_York
average	76.32756	9.57046	2019/02/14	Kalavoor	Asia/Kolkata
good	-7.32097	41.1053	2018/01/17	Custoias	Europe/Lisbon
accep	122.22833	40.66482	03/30/2022, 00:00:00	Yingkou	Asia/Shanghai
maintenance	68.11759	26.9423	12/11/2021, 00:00:00	Tharu Shah	Asia/Karachi
good	26.97253	49.65186	2021/04/29	Krasyliv	Europe/Kiev
average	46.04833	51.40944	2017-10-15	Privolzhskiy	Europe/Saratov
average	2.59753	8.88649	29 Aug 2021	Tchaourou	Africa/Porto-Novo
average	38.66667	-6.25	2016-08-31	Mvomero	Africa/Dar_es_Salaam
average	-98.11889	19.04222	09 Jul 2013	Casa Blanca	America/Mexico_City
maintenance	145.13643	-38.16604	29 Jun 2022	Frankston South	Australia/Melbourne
excellent	136.61667	36.53333	07/14/2013, 00:00:00	Nonoichi	Asia/Tokyo
accep	-100.44843	20.74122	2022-09-22	Santa Rosa Jauregui	America/Mexico_City
accep	5.22778	51.955	16 Sep 2013	Culemborg	Europe/Amsterdam
average	73.85535	18.51957	04 Jun 2016	Pune	Asia/Kolkata
excellent	42.85693	39.22493	09/14/2013, 00:00:00	Patnos	Europe/Istanbul
good	112.01667	-7.81667	2014/07/12	Kediri	Asia/Jakarta
accep	145.06667	-37.88333	2013/03/23	Carnegie	Australia/Melbourne
average	-2.98333	53.83333	2016-05-30	Poulton-le-Fylde	Europe/London
accep	38.01667	11.85	21 Apr 2015	Debre Tabor	Africa/Addis_Ababa
excellent	-5.53715	50.11861	09/27/2018, 00:00:00	Penzance	Europe/London
maintenance	3.64633	6.8485	2013/04/11	Shagamu	Africa/Lagos
average	14.34085	40.87363	2019/07/09	Volla	Europe/Rome
maintenance	79.87116	6.84019	2022-09-04	Dehiwala-Mount Lavinia	Asia/Colombo
good	76.0586	16.06213	2019-05-08	Hungund	Asia/Kolkata
excellent	123.33471	8.56697	2015/08/02	Dipolog	Asia/Manila
good	12.84052	45.78071	2013/09/18	Portogruaro	Europe/Rome
average	-4.0573	55.82737	2020/09/05	Viewpark	Europe/London
building	-42.19667	-21.41222	2013/11/17	Miracema	America/Sao_Paulo
excellent	-93.75018	32.52515	28 Aug 2021	Shreveport	America/Chicago
accep	-1.60452	42.06166	22 Feb 2018	Tudela	Europe/Madrid
building	11.37703	48.06919	30 May 2013	Gauting	Europe/Berlin
excellent	15.28318	-4.26613	01/18/2022, 00:00:00	Brazzaville	Africa/Brazzaville
good	-48.52333	-0.71667	2015-02-12	Soure	America/Belem
excellent	2.31889	35.21222	09/13/2020, 00:00:00	Ksar Chellala	Africa/Algiers
good	-41.88778	-21.205	2013-03-03	Itaperuna	America/Sao_Paulo
average	-117.14392	32.9156	23 Feb 2014	Mira Mesa	America/Los_Angeles
accep	-88.27205	44.27804	04/08/2016, 00:00:00	Kaukauna	America/Chicago
average	-73.89875	40.93121	2017/12/26	Yonkers	America/New_York
average	-89.66123	21.28306	03/27/2019, 00:00:00	Progreso	America/Merida
average	-49.27306	-25.42778	02 Dec 2019	Curitiba	America/Sao_Paulo
maintenance	125.51176	42.64031	08/06/2014, 00:00:00	Dongfeng	Asia/Shanghai
accep	-69.08333	-16.25	04 Feb 2022	Yunguyo	America/Lima
maintenance	59.6	47.83333	02/01/2022, 00:00:00	Shalqar	Asia/Aqtobe
maintenance	-81.26367	28.90054	17 Sep 2018	Deltona	America/New_York
maintenance	5.22778	51.955	2021/09/13	Culemborg	Europe/Amsterdam
good	77.656	28.71271	10/31/2015, 00:00:00	Pilkhua	Asia/Kolkata
excellent	84.63445	24.81757	2022/07/15	Rafiganj	Asia/Kolkata
good	-87.66561	41.8542	07/19/2013, 00:00:00	Lower West Side	America/Chicago
average	5.23333	52.09	2015-09-02	Zeist	Europe/Amsterdam
average	14.39024	42.22718	04/30/2017, 00:00:00	Lanciano	Europe/Rome
good	9.5586	54.52156	01/04/2013, 00:00:00	Schleswig	Europe/Berlin
accep	-80.38297	42.8334	2013-11-24	Norfolk County	America/Toronto
average	-87.88754	41.15376	08/24/2013, 00:00:00	Bourbonnais	America/Chicago
acceptable	1.15597	51.78967	03 Sep 2022	Clacton-on-Sea	Europe/London
good	-69.96533	43.91452	07/21/2021, 00:00:00	Brunswick	America/New_York
good	-0.74934	51.62907	2020/05/20	High Wycombe	Europe/London
excellent	-95.63079	31.76212	2022/05/30	Palestine	America/Chicago
accep	-105.36369	22.49396	2020/05/09	Acaponeta	America/Mazatlan
excellent	112.73333	38.40917	03/16/2017, 00:00:00	Xinzhou	Asia/Shanghai
accep	57.3552	51.4781	11/10/2021, 00:00:00	Kuvandyk	Asia/Yekaterinburg
excellent	152.70493	-25.54073	2014/01/20	Maryborough	Australia/Brisbane
accep	27.06365	50.18545	2018/01/10	Shepetivka	Europe/Kiev
accep	34.34691	61.78491	04/01/2017, 00:00:00	Petrozavodsk	Europe/Moscow
accep	21.32778	42	10/13/2018, 00:00:00	Saraj	Europe/Skopje
building	17.58522	40.53123	2021/11/11	Francavilla Fontana	Europe/Rome
average	-1.60452	42.06166	2022/07/07	Tudela	Europe/Madrid
building	146.05093	-34.28853	2022-02-05	Griffith	Australia/Sydney
good	-61.51889	10.66668	31 Oct 2020	Port of Spain	America/Port_of_Spain
excellent	121.06761	12.35275	25 Mar 2013	San Jose	Asia/Manila
excellent	-47.53028	-22.45667	2017-09-19	Santa Gertrudes	America/Sao_Paulo
accep	4.74161	7.62789	2017-03-19	Ilesa	Africa/Lagos
building	1.10687	41.15612	2017-02-25	Reus	Europe/Madrid
accep	127.08472	36.20389	2014-07-29	Nonsan	Asia/Seoul
average	-1.325	38.47917	2013-06-29	Jumilla	Europe/Madrid
good	116.11768	24.28859	2018/09/03	Meizhou	Asia/Shanghai
building	-91.73625	35.25064	2021/04/01	Searcy	America/Chicago
excellent	31.4976	26.67319	2020/09/09	Juhaynah	Africa/Cairo
good	24.95034	60.18427	09/15/2016, 00:00:00	Kallio	Europe/Helsinki
good	0.75	52.41667	06/13/2014, 00:00:00	Thetford	Europe/London
accep	27.18052	39.12074	2016-06-20	Bergama	Europe/Istanbul
good	-111.78903	33.35283	27 Mar 2022	Gilbert	America/Phoenix
maintenance	1.53414	42.50729	06 Jan 2015	les Escaldes	Europe/Andorra
accep	-87.65644	41.80753	05/06/2013, 00:00:00	New City	America/Chicago
accep	34.37389	40.1675	2020/11/13	Sungurlu	Europe/Istanbul
good	39.8302	64.5635	25 Oct 2018	Severodvinsk	Europe/Moscow
good	74.83554	14.62072	01/24/2015, 00:00:00	Sirsi	Asia/Kolkata
excellent	-117.54866	33.93113	22 Nov 2012	Norco	America/Los_Angeles
maintenance	85.83334	20.88197	07/08/2014, 00:00:00	Bhuban	Asia/Kolkata
accep	-89.99038	38.58894	07 Jun 2018	Fairview Heights	America/Chicago
average	-119.27337	50.26729	12/23/2019, 00:00:00	Vernon	America/Vancouver
excellent	4.07601	50.88506	2014-10-25	Denderleeuw	Europe/Brussels
average	-73.25383	-3.74912	2018/03/03	Iquitos	America/Lima
average	-74.38987	40.65538	04 Sep 2013	Scotch Plains	America/New_York
maintenance	-75.64963	40.24537	08/22/2017, 00:00:00	Pottstown	America/New_York
excellent	6.26764	4.92675	2019-11-09	Yenagoa	Africa/Lagos
maintenance	76.0586	16.06213	02/23/2022, 00:00:00	Hungund	Asia/Kolkata
accep	5.58472	52.14	07/12/2015, 00:00:00	Barneveld	Europe/Amsterdam
excellent	116.10146	5.90702	2022-04-09	Donggongon	Asia/Kuching
average	-47.1725	-22.57306	02/21/2018, 00:00:00	Artur Nogueira	America/Sao_Paulo
good	20.22625	30.75545	2016/02/25	Ajdabiya	Africa/Tripoli
maintenance	-95.30106	32.35126	10/21/2013, 00:00:00	Tyler	America/Chicago
accep	-1.05366	43.71032	06/10/2016, 00:00:00	Dax	Europe/Paris
good	38.94324	44.98901	07/28/2020, 00:00:00	Yablonovskiy	Europe/Moscow
accep	86.79271	25.92127	08/23/2022, 00:00:00	Madhipura	Asia/Kolkata
excellent	71.30633	21.34222	18 Feb 2013	Kundla	Asia/Kolkata
accep	9.72749	48.28259	03/15/2014, 00:00:00	Ehingen	Europe/Berlin
maintenance	-1.29243	53.49389	2016/05/01	Mexborough	Europe/London
accep	120.57224	15.72892	2016-12-07	Burgos	Asia/Manila
accep	-90.10674	29.84576	19 Jan 2022	Estelle	America/Chicago
building	-87.65644	41.80753	2019-11-16	New City	America/Chicago
accep	-0.91979	51.42708	2015-09-07	Lower Earley	Europe/London
average	6.8625	51.47805	10 Jul 2016	Oberhausen	Europe/Berlin
accep	51.0193	35.6803	2013/08/10	Shahre Jadide Andisheh	Asia/Tehran
good	1.00288	49.28669	02/27/2016, 00:00:00	Elbeuf	Europe/Paris
accep	10.98461	48.35693	2016/08/07	Friedberg	Europe/Berlin
average	76.56719	24.41288	27 Apr 2016	Aklera	Asia/Kolkata
average	37.92792	53.93361	2021/08/17	Kireyevsk	Europe/Moscow
accep	88.58	23.18	2015-02-15	Aistala	Asia/Kolkata
average	-58.38341	-34.64966	27 Apr 2017	Barracas	America/Argentina/Buenos_Aires
good	37.00438	-7.60361	02 Dec 2021	Kidodi	Africa/Dar_es_Salaam
average	-118.25508	34.14251	2014-02-07	Glendale	America/Los_Angeles
excellent	116.10146	5.90702	01 Feb 2016	Donggongon	Asia/Kuching
good	6.51352	51.19139	2018/04/09	Korschenbroich	Europe/Berlin
good	-91.06177	33.41012	29 Jul 2017	Greenville	America/Chicago
average	6.8625	51.47805	10/04/2012, 00:00:00	Oberhausen	Europe/Berlin
maitennce	-82.42491	42.97086	2018-01-19	Port Huron	America/Detroit
excellent	10.58082	35.72917	16 Nov 2015	Msaken	Africa/Tunis
excellent	142.45778	44.35056	12/03/2012, 00:00:00	Nayoro	Asia/Tokyo
accep	15.00913	37.51803	29 Sep 2017	Misterbianco	Europe/Rome
average	-3.67029	37.13548	23 Jul 2018	Las Gabias	Europe/Madrid
maintenance	75.11937	20.88098	2013-06-07	Parola	Asia/Kolkata
good	152.70493	-25.54073	03 Apr 2018	Maryborough	Australia/Brisbane
maintenance	-58.70072	-34.74785	10/18/2018, 00:00:00	Pontevedra	America/Argentina/Buenos_Aires
average	-76.43941	39.33427	2015-04-11	Middle River	America/New_York
accep	100.04427	13.8196	04/10/2013, 00:00:00	Nakhon Pathom	Asia/Bangkok
good	-76.78319	18.00747	03/23/2014, 00:00:00	New Kingston	America/Jamaica
average	136.13108	34.75856	2013-01-19	Ueno-ebisumachi	Asia/Tokyo
maintenance	34.34691	61.78491	05/22/2016, 00:00:00	Petrozavodsk	Europe/Moscow
good	120.03308	28.88162	2016/10/15	Guli	Asia/Shanghai
good	14.39024	42.22718	2013/03/26	Lanciano	Europe/Rome
good	75.96976	15.73628	17 Jun 2021	Gajendragarh	Asia/Kolkata
accep	-75.64963	40.24537	04/30/2016, 00:00:00	Pottstown	America/New_York
good	-97.50417	25.87972	15 Feb 2020	Heroica Matamoros	America/Matamoros
good	-8.33147	41.20485	05/10/2014, 00:00:00	Paredes	Europe/Lisbon
good	168.31366	-17.73648	2020/03/27	Port-Vila	Pacific/Efate
good	-97.90308	31.12406	2021-12-26	Copperas Cove	America/Chicago
excellent	-118.25508	34.14251	2021-12-26	Glendale	America/Los_Angeles
good	59.80222	58.63667	2018-07-28	Lesnoy	Asia/Yekaterinburg
average	67.84222	40.11583	29 Oct 2012	Jizzax	Asia/Samarkand
maintenance	6.76111	53.16167	11/29/2020, 00:00:00	Hoogezand	Europe/Amsterdam
average	144.23058	-5.85746	21 Jan 2015	Mount Hagen	Pacific/Port_Moresby
maintenance	16.4	48.25	10/06/2017, 00:00:00	Floridsdorf	Europe/Vienna
good	-97.50417	25.87972	2016/07/01	Heroica Matamoros	America/Matamoros
average	3.50309	34.15429	07 May 2013	Messaad	Africa/Algiers
average	8.73812	41.91886	2019/12/30	Ajaccio	Europe/Paris
building	-102.04897	19.64745	2015/07/07	Paracho de Verduzco	America/Mexico_City
good	73.08333	19.21667	27 Oct 2020	Dombivli	Asia/Kolkata
excellent	-8.07257	12.74409	2014-11-23	Kati	Africa/Bamako
average	53.47103	54.48147	2021/05/19	Oktyabr‚Äôskiy	Asia/Yekaterinburg
accep	-2.09814	57.14369	20 Oct 2012	Aberdeen	Europe/London
excellent	-86.99666	33.45122	11 Sep 2022	Hueytown	America/Chicago
average	-37.03861	-10.90889	2016-10-02	Barra dos Coqueiros	America/Maceio
maintenance	27.18052	39.12074	2022/03/13	Bergama	Europe/Istanbul
average	78.15794	12.1277	2018-02-13	Dharmapuri	Asia/Kolkata
excellent	18.69303	12.18441	2021/05/12	Mongo	Africa/Ndjamena
maintenance	30.38167	59.80917	08 Oct 2019	Shushary	Europe/Moscow
average	49.62251	27.0174	2018-12-07	Al Jubayl	Asia/Riyadh
accep	136.61667	36.53333	2013/08/30	Nonoichi	Asia/Tokyo
maintenance	43.63417	43.96222	2018/01/08	Novopavlovsk	Europe/Moscow
good	44.7662	40.49748	09/01/2014, 00:00:00	Hrazdan	Asia/Yerevan
accep	-98.11889	19.04222	10/14/2013, 00:00:00	Casa Blanca	America/Mexico_City
accep	-7.35	53.53333	10/27/2014, 00:00:00	An Muileann gCearr	Europe/Dublin
excellent	-48.59278	-23.7975	2016-12-01	Buri	America/Sao_Paulo
average	24.95034	60.18427	2021-02-21	Kallio	Europe/Helsinki
good	-91.11667	14.93333	2020-09-04	Chichicastenango	America/Guatemala
excellent	-95.63079	31.76212	2018-03-31	Palestine	America/Chicago
good	10.58082	35.72917	27 Mar 2020	Msaken	Africa/Tunis
average	-73.75335	45.4473	2019-08-03	Dorval	America/Toronto
average	-8.2503	37.08819	09 Dec 2016	Albufeira	Europe/Lisbon
accep	34.86563	31.92923	2015-10-18	Ramla	Asia/Jerusalem
building	112.23109	-7.57897	03 Nov 2020	Diwek	Asia/Jakarta
accep	68.88871	25.95533	2018-10-06	Jhol	Asia/Karachi
building	77.70636	28.98002	05/11/2020, 00:00:00	Meerut	Asia/Kolkata
excellent	19.27498	50.20528	05/28/2016, 00:00:00	Jaworzno	Europe/Warsaw
accep	-82.07842	26.91756	11 Jun 2019	Punta Gorda Isles	America/New_York
excellent	-76.70944	-11.94306	2014-02-15	Chosica	America/Lima
accep	-118.25508	34.14251	2017/10/08	Glendale	America/Los_Angeles
good	33.2525	57.97472	11/06/2016, 00:00:00	Valday	Europe/Moscow
building	72.93924	18.87813	2016/12/20	Uran	Asia/Kolkata
building	-76.88442	40.2737	2022/08/16	Harrisburg	America/New_York
maintenance	15.87735	4.94273	04/08/2014, 00:00:00	Carnot	Africa/Bangui
excellent	-111.99633	40.65995	2021/03/27	Kearns	America/Denver
maintenance	4.85668	36.27462	04/10/2014, 00:00:00	Bordj Zemoura	Africa/Algiers
excellent	168.31366	-17.73648	2019-07-07	Port-Vila	Pacific/Efate
maintenance	120.97844	14.8361	08 Nov 2013	Guyong	Asia/Manila
good	15.46667	47.05	2017-01-21	Sankt Peter	Europe/Vienna
average	37.92792	53.93361	2012/10/19	Kireyevsk	Europe/Moscow
good	38.12408	53.77166	04/24/2016, 00:00:00	Bogoroditsk	Europe/Moscow
accep	-1.48119	53.0233	2018/04/07	Belper	Europe/London
accep	-4.0573	55.82737	02 Jun 2022	Viewpark	Europe/London
average	-84.13722	9.92787	2020-06-19	San Rafael	America/Costa_Rica
average	-89.64066	40.56754	2017/01/31	Pekin	America/Chicago
good	8.64409	48.07667	11 Jan 2018	Trossingen	Europe/Berlin
maintenance	-52.67056	-26.22861	2022/04/07	Pato Branco	America/Sao_Paulo
maintenance	-82.45426	27.09978	2020-01-04	Venice	America/New_York
average	38.66667	-6.25	19 Dec 2017	Mvomero	Africa/Dar_es_Salaam
maintenance	-53.13722	-22.92306	2019-03-18	Loanda	America/Sao_Paulo
average	43.2379	50.06	2022/07/24	Mikhaylovka	Europe/Volgograd
excellent	-2.98333	53.83333	2016/03/15	Poulton-le-Fylde	Europe/London
accep	8.91229	49.13645	09/02/2022, 00:00:00	Eppingen	Europe/Berlin
good	101.18445	13.44581	10/01/2021, 00:00:00	Phanat Nikhom	Asia/Bangkok
accep	13.29371	52.53048	17 Apr 2021	Charlottenburg-Nord	Europe/Berlin
good	-76.78319	18.00747	2014-02-24	New Kingston	America/Jamaica
excellent	120.5875	16.455	07/04/2018, 00:00:00	La Trinidad	Asia/Manila
good	-1.60452	42.06166	2018/09/30	Tudela	Europe/Madrid
average	-105.36369	22.49396	2013/08/07	Acaponeta	America/Mazatlan
average	2.25	50.75	2017/06/18	Saint-Omer	Europe/Paris
average	14.34085	40.87363	11/18/2015, 00:00:00	Volla	Europe/Rome
excellent	123.758	10.20898	09/20/2022, 00:00:00	Naga	Asia/Manila
accep	-74.01042	41.50343	2016/06/23	Newburgh	America/New_York
accep	-89.10944	13.70167	02 Apr 2017	Ilopango	America/El_Salvador
excellent	38.12408	53.77166	06/10/2019, 00:00:00	Bogoroditsk	Europe/Moscow
maintenance	115.04814	30.24706	2021/04/28	Huangshi	Asia/Shanghai
average	30.2049	55.1904	2016/06/09	Vitebsk	Europe/Minsk
good	38.07083	54.90083	2018/10/29	Stupino	Europe/Moscow
excellent	-1.29772	50.76306	2017/08/13	Cowes	Europe/London
maintenance	29.24152	-26.93366	2019-08-01	Standerton	Africa/Johannesburg
accep	120.5875	16.455	25 Sep 2016	La Trinidad	Asia/Manila
good	30.79165	-27.76952	2022-07-31	Vryheid	Africa/Johannesburg
excellent	76.12647	32.55531	2022/01/03	Chamba	Asia/Kolkata
average	98.6738	3.7278	2015-11-14	Labuhan Deli	Asia/Jakarta
accep	-156.47432	20.88953	2021-05-21	Kahului	Pacific/Honolulu
average	-1.06667	53.78333	2020/11/18	Selby	Europe/London
excellent	72.54064	31.82539	2020-05-21	Sillanwali	Asia/Karachi
good	-2.58736	56.56317	02 Jan 2017	Arbroath	Europe/London
excellent	19.91667	-11.78333	03 May 2017	Luena	Africa/Luanda
accep	13.44275	38.07789	02/20/2022, 00:00:00	Villabate	Europe/Rome
good	140.72287	53.14657	2013-09-15	Nikolayevsk-on-Amure	Asia/Vladivostok
excellent	99.96667	8.43333	24 Apr 2014	Nakhon Si Thammarat	Asia/Bangkok
average	-66.8499	18.03496	2017-03-09	Yauco	America/Puerto_Rico
maintenance	2.61667	48.98333	03/14/2017, 00:00:00	Mitry-Mory	Europe/Paris
building	120.74221	31.64615	2021/01/17	Changshu City	Asia/Shanghai
excellent	112.23109	-7.57897	05/09/2021, 00:00:00	Diwek	Asia/Jakarta
good	-96.39774	30.16688	2014/12/03	Brenham	America/Chicago
accep	-45.94722	-21.42917	05 Sep 2013	Alfenas	America/Sao_Paulo
excellent	41.00817	38.13708	2019-08-23	Silvan	Europe/Istanbul
average	117.63083	35.50056	2017-12-06	Pingyi	Asia/Shanghai
good	47.1192	42.819	2017-05-21	Buynaksk	Europe/Moscow
average	129.96972	33.4425	2020-01-03	Karatsu	Asia/Tokyo
excellent	-85.76942	39.78504	2012/11/09	Greenfield	America/Indiana/Indianapolis
excellent	98.50893	16.68911	2022/07/01	Myawadi	Asia/Yangon
excellent	33	-2.68333	2021-01-07	Usagara	Africa/Dar_es_Salaam
average	138.89585	36.33011	2014-12-11	Annaka	Asia/Tokyo
good	3.55665	36.72544	2016/06/25	Thenia	Africa/Algiers
excellent	-41.88778	-21.205	2021/05/09	Itaperuna	America/Sao_Paulo
accep	123.50266	41.94175	01/15/2022, 00:00:00	Hushitai	Asia/Shanghai
excellent	5.4584	43.32393	05/05/2015, 00:00:00	Les Olives	Europe/Paris
good	46.83187	14.53767	2020-12-05	Ataq	Asia/Aden
excellent	-118.25508	34.14251	2016/01/08	Glendale	America/Los_Angeles
maintenance	4.18333	7.6	2013/09/11	Olupona	Africa/Lagos
accep	-1.86343	38.10558	2015/03/18	Caravaca	Europe/Madrid
maintenance	-8.33147	41.20485	02/13/2013, 00:00:00	Paredes	Europe/Lisbon
accep	71.21169	21.59983	2021/10/06	Amreli	Asia/Kolkata
excellent	-77.02303	38.70734	12/18/2015, 00:00:00	Fort Washington	America/New_York
building	76.03889	18.18158	2016-12-05	Osmanabad	Asia/Kolkata
accep	120.82747	37.30553	2014-04-07	Zhuangyuan	Asia/Shanghai
building	46.83187	14.53767	07 Mar 2018	Ataq	Asia/Aden
average	-0.59543	44.80477	2022/08/01	Talence	Europe/Paris
good	-120.00865	46.32374	01/27/2014, 00:00:00	Sunnyside	America/Los_Angeles
excellent	9.22796	48.46458	12 Mar 2017	Pfullingen	Europe/Berlin
excellent	73.7553	15.5439	2019-08-09	Calangute	Asia/Kolkata
accep	4.8951	44.92801	15 Nov 2021	Valence	Europe/Paris
excellent	-2.98884	43.32686	2014/05/10	Leioa	Europe/Madrid
maintenance	-74.38987	40.65538	09/04/2016, 00:00:00	Scotch Plains	America/New_York
maintenance	-80.58556	22.98212	19 Nov 2018	Corralillo	America/Havana
excellent	135.21667	35.06667	01/15/2015, 00:00:00	Sasayama	Asia/Tokyo
accep	-98.11889	19.04222	2022-06-21	Casa Blanca	America/Mexico_City
accep	4.52529	50.71229	2013-08-30	Rixensart	Europe/Brussels
building	2.45012	48.90982	2014-11-03	Bobigny	Europe/Paris
excellent	-71.05977	42.35843	2018-08-05	Boston	America/New_York
building	-85.43772	10.63504	27 Apr 2015	Liberia	America/Costa_Rica
maintenance	-89.64066	40.56754	29 Jun 2013	Pekin	America/Chicago
good	102.42587	15.58552	2020-02-20	Bua Yai	Asia/Bangkok
average	-52.51028	-28.81833	2021/12/21	Soledade	America/Sao_Paulo
accep	0.30367	51.38673	2019/08/22	Hartley	Europe/London
average	-113.3187	53.51684	2019-11-24	Sherwood Park	America/Edmonton
average	4.85668	36.27462	10/05/2020, 00:00:00	Bordj Zemoura	Africa/Algiers
excellent	136.51667	35	2015-10-23	Komono	Asia/Tokyo
excellent	74.4818	30.21121	22 Jan 2013	Malaut	Asia/Kolkata
average	-1.4001	7.06273	11 Jan 2017	Mampong	Africa/Accra
good	79.5286	29.22254	2013-10-18	Haldwani	Asia/Kolkata
average	18.34717	54.60528	2013-02-11	Reda	Europe/Warsaw
excellent	-3.52751	50.7236	2015/09/20	Exeter	Europe/London
good	7.02238	52.21099	2021-06-06	Gronau	Europe/Berlin
excellent	86.59509	26.11527	09/28/2020, 00:00:00	Supaul	Asia/Kolkata
maintenance	69.49015	56.11281	08/20/2015, 00:00:00	Ishim	Asia/Yekaterinburg
excellent	-91.11667	14.93333	2013/11/23	Chichicastenango	America/Guatemala
good	-97.03285	47.92526	06/07/2022, 00:00:00	Grand Forks	America/Chicago
accep	-111.99633	40.65995	2019/03/15	Kearns	America/Denver
average	73.85535	18.51957	11 Oct 2012	Pune	Asia/Kolkata
maintenance	12.53463	55.67938	03 Sep 2013	Frederiksberg	Europe/Copenhagen
excellent	-5.682	5.84752	2012-10-16	Lakota	Africa/Abidjan
accep	117.7	35.85	13 Jan 2018	Dongdu	Asia/Shanghai
good	4.18333	7.6	04 Mar 2021	Olupona	Africa/Lagos
excellent	15.00835	51.14942	11 Aug 2013	Zgorzelec	Europe/Warsaw
average	-83.2321	33.08014	10/01/2019, 00:00:00	Milledgeville	America/New_York
average	38.12408	53.77166	14 Mar 2016	Bogoroditsk	Europe/Moscow
excellent	35.59642	3.11988	2021/08/06	Lodwar	Africa/Nairobi
accep	-119.01677	36.06523	2013/11/30	Porterville	America/Los_Angeles
average	-99.32556	19.32889	17 Nov 2013	San Lorenzo Acopilco	America/Mexico_City
accep	-65.61427	-27.4338	25 Jul 2017	Aguilares	America/Argentina/Tucuman
good	5.16108	48.77275	12/25/2019, 00:00:00	Bar-le-Duc	Europe/Paris
maintenance	46.5813	54.8421	2013/01/17	Alatyr‚Äô	Europe/Moscow
accep	-69.08333	-16.25	07/28/2021, 00:00:00	Yunguyo	America/Lima
accep	-37.65	-10.91722	2021-01-13	Lagarto	America/Maceio
building	-86.11084	41.75338	09 Jun 2016	Granger	America/Indiana/Indianapolis
maintenance	-87.70172	41.72059	2021/05/31	Evergreen Park	America/Chicago
good	88.18466	22.19303	2017/01/26	Diamond Harbour	Asia/Kolkata
excellent	120.56528	14.66	02/06/2013, 00:00:00	Pilar	Asia/Manila
building	-102.36764	31.84568	2015/01/31	Odessa	America/Chicago
accep	-2.52398	53.19146	09/12/2017, 00:00:00	Winsford	Europe/London
good	120.4861	16.0438	03/22/2017, 00:00:00	Manaoag	Asia/Manila
maintenance	3.47717	36.76639	01/05/2013, 00:00:00	Boumerdas	Africa/Algiers
excellent	27.02444	39.59611	2014/10/08	Edremit	Europe/Istanbul
building	117.63083	35.50056	10/08/2013, 00:00:00	Pingyi	Asia/Shanghai
maintenance	112.19028	30.35028	21 Jan 2015	Jingzhou	Asia/Shanghai
good	-2.58736	56.56317	05/14/2015, 00:00:00	Arbroath	Europe/London
excellent	-122.40433	37.71715	2017-12-21	Visitacion Valley	America/Los_Angeles
excellent	4.21372	51.12794	2020-09-02	Temse	Europe/Brussels
good	40.74357	37.31309	2015/02/14	Mardin	Europe/Istanbul
average	140.73667	41.77583	01/08/2017, 00:00:00	Hakodate	Asia/Tokyo
good	30.38167	59.80917	2021/04/28	Shushary	Europe/Moscow
excellent	121.12251	14.62578	2021-02-28	Antipolo	Asia/Manila
good	151.07986	-33.88096	2020-07-30	Strathfield	Australia/Sydney
building	-1.98956	5.30383	08/16/2016, 00:00:00	Tarkwa	Africa/Accra
accep	104.64992	14.64056	2014/09/12	Kantharalak	Asia/Bangkok
accep	37.38115	55.63711	05/05/2015, 00:00:00	Solntsevo	Europe/Moscow
good	12.19458	10.61285	02/23/2015, 00:00:00	Biu	Africa/Lagos
average	38.2739	46.7055	2017/01/28	Yeysk	Europe/Moscow
good	2.25	50.75	2014-05-15	Saint-Omer	Europe/Paris
accep	10.18527	47.98372	21 Nov 2014	Memmingen	Europe/Berlin
excellent	-88.31476	36.61033	08/08/2018, 00:00:00	Murray	America/Chicago
excellent	-72.09391	18.65297	2013/07/14	Thomazeau	America/Port-au-Prince
excellent	13.28702	52.4581	01/24/2014, 00:00:00	Dahlem	Europe/Berlin
excellent	-87.88754	41.15376	26 Jun 2018	Bourbonnais	America/Chicago
building	-87.66561	41.8542	18 Jul 2018	Lower West Side	America/Chicago
accep	8.4493	50.09019	2021/09/24	Hofheim am Taunus	Europe/Berlin
good	-1.47217	53.46506	2016/10/20	Chapletown	Europe/London
good	-94.91386	17.94979	2022-03-06	Acayucan	America/Mexico_City
maintenance	-87.882	41.85059	2019-03-24	Westchester	America/Chicago
average	-81.79819	41.48199	2014-01-05	Lakewood	America/New_York
accep	-6.03731	37.35813	2019-11-28	San Juan de Aznalfarache	Europe/Madrid
good	8.96317	48.35149	2013-10-08	Hechingen	Europe/Berlin
average	-58.38341	-34.64966	01 Jul 2013	Barracas	America/Argentina/Buenos_Aires
good	4.86667	45.51667	05/14/2019, 00:00:00	Vienne	Europe/Paris
average	72.93924	18.87813	03/01/2019, 00:00:00	Uran	Asia/Kolkata
maintenance	9.37082	36.08497	12 Oct 2018	Siliana	Africa/Tunis
accep	68.21204	27.55898	2021/06/24	Larkana	Asia/Karachi
excellent	113.13148	23.02677	07/12/2020, 00:00:00	Foshan	Asia/Shanghai
average	7.60872	43.78956	17 Mar 2019	Ventimiglia	Europe/Rome
excellent	-35.71667	-8.66667	12/06/2013, 00:00:00	Catende	America/Recife
building	31.33078	47.56494	2016-08-12	Voznesensk	Europe/Kiev
accep	-8.33147	41.20485	2014-02-15	Paredes	Europe/Lisbon
average	5.2875	51.65333	30 May 2015	Vught	Europe/Amsterdam
excellent	36.73307	55.38752	2016/01/10	Naro-Fominsk	Europe/Moscow
building	15.16554	-4.5833	2018/10/11	Kasangulu	Africa/Kinshasa
good	4.21372	51.12794	23 Jan 2015	Temse	Europe/Brussels
excellent	24.71204	41.57439	2019-06-24	Smolyan	Europe/Sofia
average	123.89071	10.31672	2015-06-08	Cebu City	Asia/Manila
good	78.55757	17.34769	11/12/2021, 00:00:00	Lal Bahadur Nagar	Asia/Kolkata
accep	65.27258	58.04254	06 Apr 2013	Tavda	Asia/Yekaterinburg
maintenance	9.5586	54.52156	08/13/2020, 00:00:00	Schleswig	Europe/Berlin
building	60.8019	56.9083	2014-02-24	Beryozovsky	Asia/Yekaterinburg
building	81.54855	26.2649	2014-12-16	Jais	Asia/Kolkata
building	-119.48568	49.88307	17 Oct 2012	Kelowna	America/Vancouver
excellent	-1.99421	51.35084	2016-02-07	Devizes	Europe/London
accep	34.4587	-13.7804	2019-04-15	Salima	Africa/Blantyre
accep	-15.6	13.56667	09 Dec 2021	Farafenni	Africa/Banjul
building	-82.42491	42.97086	03/25/2013, 00:00:00	Port Huron	America/Detroit
good	-2.31938	6.46346	2013/11/23	Bibiani	Africa/Accra
maintenance	4.18333	7.6	2019/10/18	Olupona	Africa/Lagos
building	-77.4286	39.00622	02/14/2017, 00:00:00	Sterling	America/New_York
average	-73.58248	45.40008	2012/11/13	Sainte-Catherine	America/Toronto
excellent	76.32756	9.57046	2013/02/19	Kalavoor	Asia/Kolkata
good	-74.28459	40.5576	2016-07-10	Woodbridge	America/New_York
average	-63.90389	-8.76194	01/23/2014, 00:00:00	Porto Velho	America/Porto_Velho
maintenance	4.91667	45.73333	2014/10/11	Bron	Europe/Paris
excellent	71.57737	21.53889	2018/11/20	Gariadhar	Asia/Kolkata
excellent	2.08333	48.86667	2019-02-06	Marly-le-Roi	Europe/Paris
good	29.91582	31.20176	04/27/2016, 00:00:00	Alexandria	Africa/Cairo
average	137.23333	35.8	06/09/2016, 00:00:00	Gero	Asia/Tokyo
excellent	-40.7475	-4.16694	2014/11/13	Guaraciaba do Norte	America/Fortaleza
average	-86.77917	36.02506	11 Mar 2017	Brentwood Estates	America/Chicago
building	35.7	-7.76667	2019-06-10	Iringa	Africa/Dar_es_Salaam
good	7.2278	50.64336	2020-03-29	Bad Honnef	Europe/Berlin
building	-8.2503	37.08819	02/18/2018, 00:00:00	Albufeira	Europe/Lisbon
average	-87.45476	41.47892	2017/09/24	Schererville	America/Chicago
good	-111.78903	33.35283	10/09/2017, 00:00:00	Gilbert	America/Phoenix
good	34.86563	31.92923	2013-01-01	Ramla	Asia/Jerusalem
maintenance	121.96361	6.95194	26 Sep 2017	Recodo	Asia/Manila
good	4.91667	45.73333	06 Oct 2013	Bron	Europe/Paris
accep	-8.2194	43.48961	2017/10/18	Ferrol	Europe/Madrid
average	24.04142	54.39635	10/22/2013, 00:00:00	Alytus	Europe/Vilnius
accep	68.88871	25.95533	24 Sep 2014	Jhol	Asia/Karachi
average	114.68333	23.73333	2020/06/16	Heyuan	Asia/Shanghai
average	4.07601	50.88506	17 Oct 2013	Denderleeuw	Europe/Brussels
good	8.96317	48.35149	05/25/2016, 00:00:00	Hechingen	Europe/Berlin
accep	8.61839	49.68369	06/30/2018, 00:00:00	Bensheim	Europe/Berlin
maintenance	25.8191	53.5942	31 Dec 2018	Novogrudok	Europe/Minsk
good	9.5926	52.86147	05/09/2015, 00:00:00	Walsrode	Europe/Berlin
excellent	70.96699	30.46907	13 Aug 2021	Kot Addu	Asia/Karachi
average	73.08333	19.21667	28 Jul 2020	Dombivli	Asia/Kolkata
accep	-1.08593	50.79205	06/16/2014, 00:00:00	Southsea	Europe/London
average	-82.90375	32.54044	02/10/2017, 00:00:00	Dublin	America/New_York
accep	68.49143	25.80565	2020/04/04	Bhit Shah	Asia/Karachi
maintenance	27.02444	39.59611	15 Jul 2021	Edremit	Europe/Istanbul
average	34.8732	32.05971	2014-06-16	Ganei Tikva	Asia/Jerusalem
excellent	-0.91979	51.42708	23 Apr 2020	Lower Earley	Europe/London
maitennce	73.7553	15.5439	2022-03-10	Calangute	Asia/Kolkata
good	-87.45476	41.47892	01 Apr 2013	Schererville	America/Chicago
excellent	123.62494	12.37169	09/04/2014, 00:00:00	Masbate	Asia/Manila
average	-3.67029	37.13548	2016/03/21	Las Gabias	Europe/Madrid
average	44.53333	-22.9	07/10/2013, 00:00:00	Sakaraha	Indian/Antananarivo
accep	0.75	52.41667	06/04/2019, 00:00:00	Thetford	Europe/London
accep	-122.2608	38.17492	07/23/2016, 00:00:00	American Canyon	America/Los_Angeles
average	14.72443	36.92574	2020/10/20	Ragusa	Europe/Rome
maintenance	19.27498	50.20528	11/07/2015, 00:00:00	Jaworzno	Europe/Warsaw
building	104.1451	15.79408	2021-09-27	Yasothon	Asia/Bangkok
excellent	78.40102	27.9247	09/05/2017, 00:00:00	Chharra	Asia/Kolkata
maintenance	59.80222	58.63667	2019-05-05	Lesnoy	Asia/Yekaterinburg
excellent	-87.45476	41.47892	19 Jun 2014	Schererville	America/Chicago
average	76.11996	11.12018	01 Feb 2017	Manjeri	Asia/Kolkata
maintenance	31.3237	52.4089	12/10/2016, 00:00:00	Dobrush	Europe/Minsk
excellent	-73.95958	40.57788	2015/11/19	Brighton Beach	America/New_York
maintenance	19.61222	44.97639	2019/12/16	Sremska Mitrovica	Europe/Belgrade
building	-4.83076	39.96348	2021-10-25	Talavera de la Reina	Europe/Madrid
good	130.94098	33.3213	12/29/2016, 00:00:00	Hita	Asia/Tokyo
excellent	34.34691	61.78491	2014/08/13	Petrozavodsk	Europe/Moscow
average	4.63031	43.67681	2018-09-08	Arles	Europe/Paris
excellent	76.12647	32.55531	12/30/2014, 00:00:00	Chamba	Asia/Kolkata
good	10.18003	24.96334	01 Oct 2013	Ghat	Africa/Tripoli
average	-60.1831	46.1351	2015/06/09	Sydney	America/Glace_Bay
building	14.66737	41.55947	2022/04/14	Campobasso	Europe/Rome
accep	29.91582	31.20176	2022-06-17	Alexandria	Africa/Cairo
good	29.26639	37.58105	2017-03-13	Serinhisar	Europe/Istanbul
good	-53.13722	-22.92306	06/07/2017, 00:00:00	Loanda	America/Sao_Paulo
average	-82.07842	26.91756	12/31/2018, 00:00:00	Punta Gorda Isles	America/New_York
maitennce	8.73812	41.91886	20 Dec 2019	Ajaccio	Europe/Paris
average	0.47713	51.39323	2016/10/14	Strood	Europe/London
average	-51.87389	-23.44361	07/13/2016, 00:00:00	Sarandi	America/Sao_Paulo
excellent	77.40858	24.05979	01/09/2022, 00:00:00	Leteri	Asia/Kolkata
accep	89.11943	23.9028	08/08/2016, 00:00:00	Kushtia	Asia/Dhaka
excellent	30.98551	2.41669	2014/12/04	Paidha	Africa/Kampala
building	-113.3187	53.51684	2012/10/21	Sherwood Park	America/Edmonton
good	10.18003	24.96334	14 Apr 2013	Ghat	Africa/Tripoli
excellent	19.21437	44.75874	2015-08-12	Bijeljina	Europe/Sarajevo
building	5.55575	46.67535	30 Jun 2015	Lons-le-Saunier	Europe/Paris
excellent	5.03586	43.83125	2013/06/20	Cavaillon	Europe/Paris
excellent	-74.28459	40.5576	2016-06-02	Woodbridge	America/New_York
excellent	69.01354	38.55632	2015-01-09	Vahdat	Asia/Dushanbe
building	38.28402	34.5624	2022-03-01	Tadmur	Asia/Damascus
accep	-77.37331	37.60876	11/02/2018, 00:00:00	Mechanicsville	America/New_York
average	-97.50417	25.87972	05/04/2013, 00:00:00	Heroica Matamoros	America/Matamoros
average	-76.43941	39.33427	2021-05-05	Middle River	America/New_York
maintenance	-95.30106	32.35126	12/25/2018, 00:00:00	Tyler	America/Chicago
maintenance	-5.53715	50.11861	10/11/2019, 00:00:00	Penzance	Europe/London
good	30.4347	-1.9487	24 Jul 2021	Rwamagana	Africa/Kigali
excellent	140.72287	53.14657	2016/05/06	Nikolayevsk-on-Amure	Asia/Vladivostok
excellent	-61.4867	-31.25033	23 Sep 2018	Rafaela	America/Argentina/Cordoba
building	29.65806	-4.83	07/13/2015, 00:00:00	Mwandiga	Africa/Dar_es_Salaam
accep	77.40858	24.05979	2021-01-16	Leteri	Asia/Kolkata
accep	-84.13722	9.92787	31 Dec 2014	San Rafael	America/Costa_Rica
average	117.27583	35.64889	2016/10/28	Sishui	Asia/Shanghai
excellent	122.08333	46.08333	2022/02/04	Ulanhot	Asia/Shanghai
excellent	72.93924	18.87813	2019-05-17	Uran	Asia/Kolkata
accep	-1.29772	50.76306	2018-12-29	Cowes	Europe/London
maintenance	19.91667	-11.78333	04/02/2018, 00:00:00	Luena	Africa/Luanda
maitennce	137.23333	35.8	2017/12/19	Gero	Asia/Tokyo
accep	122.22833	40.66482	2021-12-27	Yingkou	Asia/Shanghai
building	10.5511	52.47774	2015-03-17	Gifhorn	Europe/Berlin
excellent	39.28333	-10.33333	2015/03/23	Nyangao	Africa/Dar_es_Salaam
excellent	46.58333	-21.15	04/13/2017, 00:00:00	Ikalamavony	Indian/Antananarivo
excellent	-1.98956	5.30383	09/15/2016, 00:00:00	Tarkwa	Africa/Accra
excellent	178.00417	-38.65333	2019/08/20	Gisborne	Pacific/Auckland
excellent	-65.71875	-21.44345	09/13/2019, 00:00:00	Tupiza	America/La_Paz
excellent	115.70111	37.73222	05/10/2021, 00:00:00	Hengshui	Asia/Shanghai
accep	43.91385	54.03876	2015/10/26	Kovylkino	Europe/Moscow
accep	71.57118	32.87533	08/05/2015, 00:00:00	Daud Khel	Asia/Karachi
good	-73.0515	41.55815	2014-01-30	Waterbury	America/New_York
accep	-82.32483	29.65163	2022/07/21	Gainesville	America/New_York
average	144.09638	43.82634	04/06/2015, 00:00:00	Motomachi	Asia/Tokyo
good	2.08333	48.86667	10/16/2012, 00:00:00	Marly-le-Roi	Europe/Paris
acceptable	9.22796	48.46458	12 Mar 2020	Pfullingen	Europe/Berlin
accep	-0.91979	51.42708	2021-01-03	Lower Earley	Europe/London
average	46.10925	43.35071	12 Jun 2013	Gudermes	Europe/Moscow
accep	35.59642	3.11988	2018/09/30	Lodwar	Africa/Nairobi
good	-65.71875	-21.44345	2017/12/09	Tupiza	America/La_Paz
maintenance	-94.74049	32.5007	2017-05-16	Longview	America/Chicago
average	-88.3162	42.24113	2020/02/09	Crystal Lake	America/Chicago
good	38.15035	49.41029	2017-11-06	Svatove	Europe/Zaporozhye
maintenance	-117.70755	33.52253	2018/07/08	Laguna Niguel	America/Los_Angeles
average	86.59509	26.11527	2015/11/09	Supaul	Asia/Kolkata
average	31.3237	52.4089	2016/03/10	Dobrush	Europe/Minsk
accep	-49.27306	-25.42778	2017/09/15	Curitiba	America/Sao_Paulo
average	-119.0376	34.21639	2022-04-17	Camarillo	America/Los_Angeles
average	69.49015	56.11281	27 Sep 2013	Ishim	Asia/Yekaterinburg
accep	-49.27306	-25.42778	10/02/2016, 00:00:00	Curitiba	America/Sao_Paulo
average	115.04814	30.24706	22 Jan 2013	Huangshi	Asia/Shanghai
building	-120.43572	34.95303	05 Oct 2020	Santa Maria	America/Los_Angeles
maintenance	-2.31938	6.46346	2013-08-02	Bibiani	Africa/Accra
average	118.9707	-3.5403	2018-11-04	Majene	Asia/Makassar
maitennce	115.8614	-31.95224	05/27/2013, 00:00:00	Perth	Australia/Perth
average	-77.03116	3.8801	2016-02-02	Buenaventura	America/Bogota
good	-69.08333	-16.25	2016-08-16	Yunguyo	America/Lima
accep	-120.00865	46.32374	30 Jun 2022	Sunnyside	America/Los_Angeles
excellent	2.31889	35.21222	09 Feb 2018	Ksar Chellala	Africa/Algiers
good	2.2469	48.90472	2013-11-07	La Garenne-Colombes	Europe/Paris
average	-91.11667	14.93333	2019/06/24	Chichicastenango	America/Guatemala
excellent	13.63617	50.50301	2014/04/29	Most	Europe/Prague
maintenance	31.33078	47.56494	2022-07-12	Voznesensk	Europe/Kiev
maintenance	-43.80139	-20.25333	2013-08-08	Itabirito	America/Sao_Paulo
accep	9.47629	53.59337	02/09/2018, 00:00:00	Stade	Europe/Berlin
accep	98.19151	14.0823	08/20/2022, 00:00:00	Dawei	Asia/Yangon
excellent	2.1699	48.98994	2020-04-29	Herblay	Europe/Paris
good	1.26738	51.84819	2022-05-27	Walton-on-the-Naze	Europe/London
excellent	-73.9614	10.15031	2020/02/27	El Copey	America/Bogota
excellent	57.3552	51.4781	04/05/2019, 00:00:00	Kuvandyk	Asia/Yekaterinburg
average	16.43915	43.50891	2012/10/24	Split	Europe/Zagreb
good	-1.06667	53.78333	2014/09/10	Selby	Europe/London
good	-5.682	5.84752	02/28/2016, 00:00:00	Lakota	Africa/Abidjan
good	-156.47432	20.88953	2017-12-16	Kahului	Pacific/Honolulu
average	10.03478	37.16911	2020/05/24	El Alia	Africa/Tunis
accep	39.85331	57.30185	2012/11/05	Gavrilov-Yam	Europe/Moscow
excellent	120.14278	32.50611	2013/04/05	Jiangyan	Asia/Shanghai
average	73.85535	18.51957	30 May 2014	Pune	Asia/Kolkata
accep	102.3278	2.2139	2018-01-28	Kampung Ayer Molek	Asia/Kuala_Lumpur
accep	34.34691	61.78491	09/19/2022, 00:00:00	Petrozavodsk	Europe/Moscow
excellent	136.51667	35	2015-04-03	Komono	Asia/Tokyo
maintenance	17.22635	48.8449	2014-10-24	Skalica	Europe/Bratislava
building	-122.86705	45.49428	07/16/2020, 00:00:00	Aloha	America/Los_Angeles
average	-72.86843	41.27621	2013-04-03	East Haven	America/New_York
maintenance	9.00472	4.2475	07/07/2015, 00:00:00	Idenao	Africa/Douala
accep	-0.74934	51.62907	28 Jun 2016	High Wycombe	Europe/London
excellent	126.835	37.65639	09 Mar 2015	Goyang-si	Asia/Seoul
good	104.09701	-1.26424	2021/02/06	Simpang	Asia/Jakarta
good	2.61667	48.98333	05/15/2015, 00:00:00	Mitry-Mory	Europe/Paris
average	-86.19903	11.84962	02 Sep 2017	Jinotepe	America/Managua
accep	88.1453	22.4711	12/15/2018, 00:00:00	Pujali	Asia/Kolkata
excellent	-79.2663	43.86682	2022/05/31	Markham	America/Toronto
accep	-88.3162	42.24113	06 Apr 2014	Crystal Lake	America/Chicago
maintenance	-62.64102	8.35122	04 Dec 2016	Ciudad Guayana	America/Caracas
good	-81.79819	41.48199	2021-10-14	Lakewood	America/New_York
excellent	-74.28459	40.5576	03 Jun 2015	Woodbridge	America/New_York
good	46.10925	43.35071	2012-10-14	Gudermes	Europe/Moscow
average	111.50861	32.54278	2016-04-01	Danjiangkou	Asia/Shanghai
excellent	59.6	47.83333	2014-12-24	Shalqar	Asia/Aqtobe
good	138.31667	36.65	03/29/2015, 00:00:00	Suzaka	Asia/Tokyo
excellent	-76.78319	18.00747	2012/11/20	New Kingston	America/Jamaica
excellent	38.01667	-5.41667	10 Dec 2018	Chanika	Africa/Dar_es_Salaam
average	-2.09814	57.14369	01/09/2020, 00:00:00	Aberdeen	Europe/London
average	7.11393	51.08468	2014/12/26	Burscheid	Europe/Berlin
maintenance	120.97844	14.8361	2020-05-06	Guyong	Asia/Manila
excellent	-156.47432	20.88953	2022/02/12	Kahului	Pacific/Honolulu
excellent	78.23456	28.92694	10/25/2019, 00:00:00	Bachhraon	Asia/Kolkata
average	117.33333	34.85	27 Feb 2017	Taozhuang	Asia/Shanghai
good	2.59753	8.88649	2012-10-18	Tchaourou	Africa/Porto-Novo
excellent	79.82979	11.93381	28 Dec 2016	Puducherry	Asia/Kolkata
good	75.37991	25.75728	15 Sep 2021	Deoli	Asia/Kolkata
average	-73.9614	10.15031	04/02/2013, 00:00:00	El Copey	America/Bogota
excellent	92.48278	58.23583	2018-12-19	Lesosibirsk	Asia/Krasnoyarsk
accep	35.34722	-23.85972	2021/05/21	Maxixe	Africa/Maputo
average	34.33825	53.59782	2019-04-02	Dyat‚Äôkovo	Europe/Moscow
excellent	12.16179	48.52961	2019-10-11	Landshut	Europe/Berlin
excellent	136.51667	35	2016/09/13	Komono	Asia/Tokyo
accep	2.31889	35.21222	2022/09/03	Ksar Chellala	Africa/Algiers
average	8.91229	49.13645	02/04/2020, 00:00:00	Eppingen	Europe/Berlin
average	83.97573	21.46527	2012/12/30	Sambalpur	Asia/Kolkata
good	142.45778	44.35056	2018/04/28	Nayoro	Asia/Tokyo
excellent	65.93249	36.21544	06 Jul 2013	Sar-e Pul	Asia/Kabul
good	-89.71472	13.73417	2013-08-16	Sonzacate	America/El_Salvador
maintenance	-111.78903	33.35283	2012-11-05	Gilbert	America/Phoenix
average	124.84472	10.13361	04/06/2019, 00:00:00	Maasin	Asia/Manila
accep	4.21372	51.12794	17 Jun 2020	Temse	Europe/Brussels
good	1.10687	41.15612	20 Nov 2013	Reus	Europe/Madrid
accep	-89.10944	13.70167	2018-10-10	Ilopango	America/El_Salvador
excellent	11.412	45.50369	23 Feb 2013	Montecchio Maggiore-Alte Ceccato	Europe/Rome
accep	144.09638	43.82634	14 Feb 2021	Motomachi	Asia/Tokyo
maintenance	3.16667	50.8	13 Nov 2017	Wevelgem	Europe/Brussels
maintenance	37.99117	44.92934	04/01/2021, 00:00:00	Krymsk	Europe/Moscow
excellent	2.29026	48.77644	2013/11/27	Sceaux	Europe/Paris
building	-52.2	-28.44917	06 Dec 2020	Marau	America/Sao_Paulo
accep	12.6723	41.72063	27 Jul 2013	Ariccia	Europe/Rome
average	-50.19556	-19.72806	2013-10-07	Iturama	America/Sao_Paulo
building	9.0027	11.86064	01/10/2015, 00:00:00	Gaya	Africa/Lagos
average	-48.67028	-28.24	25 Mar 2020	Imbituba	America/Sao_Paulo
maintenance	-5.53715	50.11861	26 Nov 2012	Penzance	Europe/London
average	-117.29198	33.03699	2015/10/19	Encinitas	America/Los_Angeles
building	-13.2356	8.48714	2013-04-04	Freetown	Africa/Freetown
accep	86.51499	23.1959	2020/07/06	Kenda	Asia/Kolkata
excellent	38.94324	44.98901	2022/06/19	Yablonovskiy	Europe/Moscow
good	13.10984	51.30001	02 Aug 2016	Oschatz	Europe/Berlin
excellent	-5.53715	50.11861	2015/09/17	Penzance	Europe/London
excellent	10.03988	53.6052	2014/09/08	Barmbek-Nord	Europe/Berlin
excellent	78.55757	17.34769	12/20/2012, 00:00:00	Lal Bahadur Nagar	Asia/Kolkata
maitennce	34.33825	53.59782	2012/12/18	Dyat‚Äôkovo	Europe/Moscow
good	-73.81669	45.44868	23 Jun 2013	Pointe-Claire	America/Toronto
excellent	44.7662	40.49748	02 Dec 2014	Hrazdan	Asia/Yerevan
good	4.07601	50.88506	01 Dec 2017	Denderleeuw	Europe/Brussels
maintenance	-72.47417	7.83389	2016/09/10	Villa del Rosario	America/Bogota
average	39.8302	64.5635	2014/12/30	Severodvinsk	Europe/Moscow
building	-73.25383	-3.74912	2016-11-01	Iquitos	America/Lima
average	101.02083	4.02219	2013-06-08	Teluk Intan	Asia/Kuala_Lumpur
good	5.55575	46.67535	02 Feb 2016	Lons-le-Saunier	Europe/Paris
accep	12.84052	45.78071	06/27/2021, 00:00:00	Portogruaro	Europe/Rome
average	-73.9614	10.15031	03/20/2018, 00:00:00	El Copey	America/Bogota
accep	69.67639	41.29444	2018-10-31	Parkent	Asia/Tashkent
excellent	67.84222	40.11583	2017-08-09	Jizzax	Asia/Samarkand
good	1.33467	43.61058	11 Aug 2015	Colomiers	Europe/Paris
excellent	103.81667	1.6	2019-03-27	Ulu Tiram	Asia/Kuala_Lumpur
accep	120.74221	31.64615	09/05/2022, 00:00:00	Changshu City	Asia/Shanghai
accep	-84.13722	9.92787	20 Dec 2015	San Rafael	America/Costa_Rica
maintenance	-77.02303	38.70734	2019-11-26	Fort Washington	America/New_York
maintenance	-123.02621	44.99012	2015/02/10	Keizer	America/Los_Angeles
excellent	4.21372	51.12794	14 Aug 2019	Temse	Europe/Brussels
accep	-67.15407	18.42745	14 Oct 2019	Aguadilla	America/Puerto_Rico
excellent	-121.75689	36.91023	26 May 2016	Watsonville	America/Los_Angeles
average	35.59642	3.11988	2020/10/02	Lodwar	Africa/Nairobi
building	29.65806	-4.83	2017-12-03	Mwandiga	Africa/Dar_es_Salaam
average	-2.1875	51.26	2021-05-31	Westbury	Europe/London
excellent	-6.90656	33.92866	06/12/2022, 00:00:00	Temara	Africa/Casablanca
good	106.92667	-6.91806	19 Jun 2022	Sukabumi	Asia/Jakarta
excellent	25.34244	50.75932	23 May 2022	Lutsk	Europe/Kiev
excellent	-98.11889	19.04222	04/25/2015, 00:00:00	Casa Blanca	America/Mexico_City
good	-51.87389	-23.44361	2022/07/18	Sarandi	America/Sao_Paulo
building	-115.98391	36.20829	2018-06-22	Pahrump	America/Los_Angeles
accep	-86.78777	33.44872	2014/04/03	Vestavia Hills	America/Chicago
average	-93.71133	41.57721	04/06/2020, 00:00:00	West Des Moines	America/Chicago
excellent	-87.71255	41.84364	16 Oct 2017	South Lawndale	America/Chicago
accep	120.74221	31.64615	06/14/2013, 00:00:00	Changshu City	Asia/Shanghai
good	9.00472	4.2475	2015/09/15	Idenao	Africa/Douala
good	-116.97725	33.92946	2019/05/07	Beaumont	America/Los_Angeles
excellent	77.70636	28.98002	2013-12-27	Meerut	Asia/Kolkata
accep	-50.00639	-25.42944	2021-05-05	Palmeira	America/Sao_Paulo
average	-1.60452	42.06166	02/01/2014, 00:00:00	Tudela	Europe/Madrid
average	35.59642	3.11988	05/11/2018, 00:00:00	Lodwar	Africa/Nairobi
good	9.02596	48.21644	28 Aug 2017	Albstadt	Europe/Berlin
good	32.86389	53.95278	2021-07-13	Roslavl‚Äô	Europe/Moscow
excellent	26.01649	44.43579	2016-08-10	Sector 6	Europe/Bucharest
maintenance	72.68533	22.75218	2018-04-26	Kheda	Asia/Kolkata
good	106.88324	47.90771	07/08/2022, 00:00:00	Ulan Bator	Asia/Ulaanbaatar
excellent	101.02083	4.02219	2022/09/12	Teluk Intan	Asia/Kuala_Lumpur
good	-73.47429	40.68066	12/06/2016, 00:00:00	Massapequa	America/New_York
accep	-80.38297	42.8334	15 Sep 2020	Norfolk County	America/Toronto
good	5.74861	52.71083	2015-12-14	Emmeloord	Europe/Amsterdam
average	6.8625	51.47805	2014-04-06	Oberhausen	Europe/Berlin
building	120.97844	14.8361	2014/09/03	Guyong	Asia/Manila
good	-76.88442	40.2737	09/24/2013, 00:00:00	Harrisburg	America/New_York
excellent	-74.28459	40.5576	2019/03/05	Woodbridge	America/New_York
building	-119.0376	34.21639	2016/12/19	Camarillo	America/Los_Angeles
average	118.9707	-3.5403	2014/08/08	Majene	Asia/Makassar
accep	104.64992	14.64056	03/15/2020, 00:00:00	Kantharalak	Asia/Bangkok
excellent	73.7553	15.5439	2019/01/31	Calangute	Asia/Kolkata
maintenance	111.73861	35.20889	06/20/2019, 00:00:00	Changzhi	Asia/Shanghai
good	8.96317	48.35149	09/10/2013, 00:00:00	Hechingen	Europe/Berlin
accep	137.23333	35.8	2020-02-04	Gero	Asia/Tokyo
building	42.54536	-0.35817	2016-10-25	Kismayo	Africa/Mogadishu
accep	-76.78319	18.00747	10/23/2013, 00:00:00	New Kingston	America/Jamaica
accep	-111.90466	40.34912	2015-08-16	Saratoga Springs	America/Denver
average	-42.98194	-22.53722	09/09/2020, 00:00:00	Guapimirim	America/Sao_Paulo
excellent	-87.66561	41.8542	2017/12/27	Lower West Side	America/Chicago
excellent	8.88104	45.79377	26 Dec 2015	Malnate	Europe/Rome
excellent	-81.56929	41.55838	2016/04/03	Collinwood	America/New_York
average	31.4976	26.67319	2022-08-05	Juhaynah	Africa/Cairo
good	98.19151	14.0823	11/09/2015, 00:00:00	Dawei	Asia/Yangon
good	-85.43772	10.63504	21 Dec 2016	Liberia	America/Costa_Rica
good	-83.55521	41.66394	2020-05-14	Toledo	America/New_York
average	34.11169	0.46005	03/23/2015, 00:00:00	Busia	Africa/Nairobi
building	133.42825	45.47885	2022/08/05	Lesozavodsk	Asia/Vladivostok
average	25.8191	53.5942	2019/06/07	Novogrudok	Europe/Minsk
accep	-90.10674	29.84576	2019-12-25	Estelle	America/Chicago
excellent	109.22921	34.65918	2018-01-30	Yanliang	Asia/Shanghai
building	9.85	53.63333	2019-02-28	Halstenbek	Europe/Berlin
accep	89.11943	23.9028	2016-11-05	Kushtia	Asia/Dhaka
average	117.27583	35.64889	2018/05/21	Sishui	Asia/Shanghai
average	3.47717	36.76639	2014-01-13	Boumerdas	Africa/Algiers
accep	-69.96533	43.91452	10/15/2014, 00:00:00	Brunswick	America/New_York
good	-91.77127	37.95143	22 Apr 2022	Rolla	America/Chicago
excellent	37.49338	55.62047	2018/12/01	Tyoply Stan	Europe/Moscow
building	31.4976	26.67319	2015-04-15	Juhaynah	Africa/Cairo
maintenance	-2.52398	53.19146	14 Jul 2019	Winsford	Europe/London
good	137.95378	35.82756	2014/12/17	Ina	Asia/Tokyo
average	13.29371	52.53048	2014-02-28	Charlottenburg-Nord	Europe/Berlin
accep	85.94001	25.49043	04 Jun 2021	Teghra	Asia/Kolkata
average	68.75915	27.52948	12/05/2016, 00:00:00	Khairpur Mir‚Äôs	Asia/Karachi
good	-60.1831	46.1351	03/06/2017, 00:00:00	Sydney	America/Glace_Bay
average	8.88104	45.79377	23 Oct 2015	Malnate	Europe/Rome
building	-1.4001	7.06273	12 Apr 2021	Mampong	Africa/Accra
average	77.0202	43.41949	2016/11/05	Otegen Batyra	Asia/Almaty
good	-88.31476	36.61033	2021/04/03	Murray	America/Chicago
building	48.87498	38.45598	2017/10/03	Astara	Asia/Baku
good	39.28333	-10.33333	22 May 2015	Nyangao	Africa/Dar_es_Salaam
excellent	32.86389	53.95278	2020-08-01	Roslavl‚Äô	Europe/Moscow
average	-75.69947	8.79577	2014/09/04	San Carlos	America/Bogota
maintenance	-122.86705	45.49428	02/15/2018, 00:00:00	Aloha	America/Los_Angeles
good	72.54566	29.69221	12 Apr 2021	Hasilpur	Asia/Karachi
accep	4.74161	7.62789	2013/08/03	Ilesa	Africa/Lagos
excellent	145.18333	-37.9	12 Dec 2016	Wheelers Hill	Australia/Melbourne
maintenance	-82.07842	26.91756	08 May 2013	Punta Gorda Isles	America/New_York
average	75.11937	20.88098	28 Mar 2015	Parola	Asia/Kolkata
excellent	-70.6996	-33.59217	04/24/2014, 00:00:00	San Bernardo	America/Santiago
maintenance	3.47717	36.76639	2021/05/20	Boumerdas	Africa/Algiers
good	126.835	37.65639	23 Aug 2016	Goyang-si	Asia/Seoul
excellent	-0.91979	51.42708	04/27/2014, 00:00:00	Lower Earley	Europe/London
average	-71.23106	-32.45242	2013/06/28	La Ligua	America/Santiago
accep	100.24529	5.4709	2014-11-18	Batu Feringgi	Asia/Kuala_Lumpur
good	-70.20749	8.62261	2020/06/05	Barinas	America/Caracas
accep	-84.50855	39.08367	2014-04-15	Covington	America/New_York
accep	-116.21677	33.7207	2013/06/19	Indio	America/Los_Angeles
average	122.22833	40.66482	08/31/2018, 00:00:00	Yingkou	Asia/Shanghai
excellent	2.12213	48.8222	07 Feb 2014	Le Chesnay	Europe/Paris
maintenance	-35.71667	-8.66667	16 Nov 2014	Catende	America/Recife
maintenance	-56.52361	-33.38056	2022-06-03	Durazno	America/Montevideo
maintenance	-52.20639	-3.20333	2021-07-20	Altamira	America/Santarem
good	-71.8023	42.58342	2016/09/13	Fitchburg	America/New_York
accep	121.96361	6.95194	10/30/2021, 00:00:00	Recodo	Asia/Manila
accep	10.7	4.96667	27 Mar 2019	Tonga	Africa/Douala
good	-74.96933	39.71734	14 Sep 2022	Sicklerville	America/New_York
good	-98.15529	26.18924	27 Feb 2016	San Juan	America/Chicago
average	79.5286	29.22254	2016-04-08	Haldwani	Asia/Kolkata
accep	-122.39168	40.58654	22 Dec 2014	Redding	America/Los_Angeles
good	137.23333	35.8	04/17/2013, 00:00:00	Gero	Asia/Tokyo
accep	-75.87877	5.6561	2021/01/30	Andes	America/Bogota
excellent	111.4834	65.93381	2022-08-14	Aykhal	Asia/Yakutsk
maintenance	-44.31389	-19.7625	15 Sep 2021	Esmeraldas	America/Sao_Paulo
good	-1.06667	53.78333	02/23/2013, 00:00:00	Selby	Europe/London
excellent	76.92421	60.97944	04 Aug 2021	Izluchinsk	Asia/Yekaterinburg
good	37.3825	37.05944	2022/03/06	Gaziantep	Europe/Istanbul
accep	7.2278	50.64336	22 Aug 2014	Bad Honnef	Europe/Berlin
good	-48.52333	-0.71667	08 Mar 2015	Soure	America/Belem
maintenance	16.4	48.25	2014/08/14	Floridsdorf	Europe/Vienna
maintenance	-80.58556	22.98212	2021-08-22	Corralillo	America/Havana
average	-7.35	53.53333	2017-02-01	An Muileann gCearr	Europe/Dublin
average	120.74221	31.64615	2013-07-12	Changshu City	Asia/Shanghai
average	65.50917	44.85278	2016-11-27	Kyzylorda	Asia/Qyzylorda
accep	5.16108	48.77275	19 Nov 2014	Bar-le-Duc	Europe/Paris
excellent	-41.25528	-19.32556	01 Oct 2017	Resplendor	America/Sao_Paulo
accep	30.98551	2.41669	2012/10/11	Paidha	Africa/Kampala
maitennce	122.08333	46.08333	24 Apr 2019	Ulanhot	Asia/Shanghai
average	18.30056	50.5107	2018/04/27	Strzelce Opolskie	Europe/Warsaw
accep	-82.4017	23.0072	2022/06/29	Boyeros	America/Havana
accep	26.01649	44.43579	2022/01/12	Sector 6	Europe/Bucharest
building	-122.2608	38.17492	04/24/2020, 00:00:00	American Canyon	America/Los_Angeles
accep	-84.62081	42.7392	2018/07/27	Waverly	America/Detroit
building	-74.73584	5.20856	2021/05/08	Honda	America/Bogota
building	-73.97069	40.64621	2020-08-06	Kensington	America/New_York
good	-77.70066	43.16547	2018-07-17	Gates-North Gates	America/New_York
maintenance	73.06784	25.13915	2020/04/01	Sheoganj	Asia/Kolkata
excellent	124.3697	9.6531	2019/12/08	Jagna	Asia/Manila
accep	20.22625	30.75545	2018/02/04	Ajdabiya	Africa/Tripoli
excellent	112.73333	38.40917	2018-08-08	Xinzhou	Asia/Shanghai
building	8.91229	49.13645	15 Feb 2015	Eppingen	Europe/Berlin
maintenance	-87.70172	41.72059	2019/11/27	Evergreen Park	America/Chicago
good	106.85417	-6.48167	2014/09/22	Cibinong	Asia/Jakarta
good	26.01649	44.43579	2021/09/13	Sector 6	Europe/Bucharest
accep	37.92792	53.93361	09 Mar 2013	Kireyevsk	Europe/Moscow
good	77.9129	25.6439	07/07/2014, 00:00:00	Narwar	Asia/Kolkata
maitennce	-89.99038	38.58894	2015/02/14	Fairview Heights	America/Chicago
average	97.01124	17.30858	10 Sep 2014	Kyaikto	Asia/Yangon
building	130.94098	33.3213	17 May 2014	Hita	Asia/Tokyo
average	122.05228	37.19723	2013/02/23	Tianfu	Asia/Shanghai
average	-82.32483	29.65163	2019-11-10	Gainesville	America/New_York
accep	2.18247	41.41204	13 Nov 2021	el Camp de l'Arpa del Clot	Europe/Madrid
building	-104.22884	32.42067	2020-12-26	Carlsbad	America/Denver
average	19.21437	44.75874	2022/08/03	Bijeljina	Europe/Sarajevo
average	102.05461	6.25947	2022-07-30	Tak Bai	Asia/Bangkok
average	112.01667	-7.81667	2013/03/20	Kediri	Asia/Jakarta
average	78.55757	17.34769	12/11/2015, 00:00:00	Lal Bahadur Nagar	Asia/Kolkata
average	-98.15529	26.18924	2022-08-27	San Juan	America/Chicago
accep	8.91229	49.13645	2021/03/02	Eppingen	Europe/Berlin
average	137.95378	35.82756	2017/06/22	Ina	Asia/Tokyo
accep	75.92694	14.46693	11 Dec 2015	Davangere	Asia/Kolkata
excellent	-88.70464	34.25807	07 Aug 2014	Tupelo	America/Chicago
good	15.28318	-4.26613	16 Jul 2017	Brazzaville	Africa/Brazzaville
average	112.73333	38.40917	04/13/2021, 00:00:00	Xinzhou	Asia/Shanghai
accep	5.74861	52.71083	2018/06/11	Emmeloord	Europe/Amsterdam
maintenance	137.4	34.81667	11 Jul 2019	Toyokawa	Asia/Tokyo
good	-2.98333	53.83333	29 Mar 2018	Poulton-le-Fylde	Europe/London
excellent	112.01667	-7.81667	02 Jul 2019	Kediri	Asia/Jakarta
good	-98.15529	26.18924	09/01/2020, 00:00:00	San Juan	America/Chicago
accep	9.29109	45.39402	2013-01-29	San Giuliano Milanese	Europe/Rome
accep	-94.91386	17.94979	01/12/2018, 00:00:00	Acayucan	America/Mexico_City
average	124.95278	6.33444	01 Nov 2019	Tupi	Asia/Manila
excellent	1.04945	35.06544	06 Jan 2020	Frenda	Africa/Algiers
excellent	-94.41551	39.09112	02/09/2013, 00:00:00	Independence	America/Chicago
building	-82.42491	42.97086	02/28/2021, 00:00:00	Port Huron	America/Detroit
excellent	-72.27814	42.93369	31 Jan 2013	Keene	America/New_York
good	32.86389	53.95278	2022-06-19	Roslavl‚Äô	Europe/Moscow
accep	24.43973	0.76755	12/21/2016, 00:00:00	Yangambi	Africa/Lubumbashi
accep	4.18333	7.6	2016/07/10	Olupona	Africa/Lagos
building	178.00417	-38.65333	18 Jul 2015	Gisborne	Pacific/Auckland
good	-6.90656	33.92866	2019/03/31	Temara	Africa/Casablanca
accep	-0.59543	44.80477	2014-08-01	Talence	Europe/Paris
average	8.51667	51.88333	2014-12-31	Verl	Europe/Berlin
accep	68.21204	27.55898	09/19/2014, 00:00:00	Larkana	Asia/Karachi
excellent	74.83554	14.62072	01 Nov 2016	Sirsi	Asia/Kolkata
average	17.10558	61.72744	31 Oct 2020	Hudiksvall	Europe/Stockholm
excellent	39.85331	57.30185	02 Jul 2021	Gavrilov-Yam	Europe/Moscow
excellent	78.14797	15.45144	2013/10/23	Betamcherla	Asia/Kolkata
good	117.27583	35.64889	2015-08-27	Sishui	Asia/Shanghai
good	-78.87836	35.05266	15 Dec 2019	Fayetteville	America/New_York
excellent	-87.88754	41.15376	2016-08-31	Bourbonnais	America/Chicago
excellent	16.86194	54.58048	2017-04-22	Ustka	Europe/Warsaw
good	-101.2591	21.01858	2013/11/11	Guanajuato	America/Mexico_City
average	136.61667	36.53333	10 Feb 2018	Nonoichi	Asia/Tokyo
accep	-87.70172	41.72059	19 Dec 2015	Evergreen Park	America/Chicago
building	-122.24092	47.4943	2020/07/17	Bryn Mawr-Skyway	America/Los_Angeles
average	116.82887	-1.26753	12/30/2017, 00:00:00	Balikpapan	Asia/Makassar
accep	-82.4017	23.0072	10 Apr 2022	Boyeros	America/Havana
accep	-73.26022	6.46838	2021/08/21	Socorro	America/Bogota
average	-93.263	45.0408	2018-06-04	Columbia Heights	America/Chicago
good	-74.26419	4.73245	02 Feb 2017	Madrid	America/Bogota
average	17.22635	48.8449	23 Sep 2019	Skalica	Europe/Bratislava
accep	88.28637	23.07492	2021/11/11	Pandua	Asia/Kolkata
accep	28.19028	59.37722	2014/02/25	Narva	Europe/Tallinn
accep	144.23058	-5.85746	11/13/2016, 00:00:00	Mount Hagen	Pacific/Port_Moresby
good	86.51499	23.1959	2022/06/16	Kenda	Asia/Kolkata
good	-97.54667	30.5427	2019/02/04	Hutto	America/Chicago
excellent	13.29371	52.53048	2016-06-15	Charlottenburg-Nord	Europe/Berlin
average	12.38878	43.1122	04/08/2013, 00:00:00	Perugia	Europe/Rome
good	-75.11028	-15.21194	27 Nov 2014	Minas de Marcona	America/Lima
average	-88.3162	42.24113	11/18/2020, 00:00:00	Crystal Lake	America/Chicago
average	38.2739	46.7055	07/26/2017, 00:00:00	Yeysk	Europe/Moscow
