location	revision	latitude	longitude	QoS	station
Europe/Paris	15 Mar 2014	44.80477	-0.59543	maintenance	Talence
Europe/London	2018/07/03	51.64316	-0.36053	maitennce	Bushey
America/Chicago	2013-04-02	30.5427	-97.54667	excellent	Hutto
Europe/Prague	2018/10/27	50.23271	12.87117	accep	Karlovy Vary
Africa/Windhoek	2014/02/20	-21.98333	16.91667	average	Okahandja
Europe/Copenhagen	14 Mar 2016	55.67938	12.53463	building	Frederiksberg
Asia/Jakarta	07/16/2021, 00:00:00	-7.01833	107.60389	excellent	Pameungpeuk
Asia/Tokyo	2020/03/26	36.75965	137.36215	average	Namerikawa
America/Bogota	2014/09/29	10.15031	-73.9614	good	El Copey
Asia/Shanghai	07/06/2019, 00:00:00	36.19278	117.65694	maintenance	Laiwu
Asia/Jakarta	2022/05/30	-7.54972	110.71639	excellent	Ngemplak
Europe/Paris	02 Nov 2021	43.11667	1.6	excellent	Pamiers
Europe/Paris	05/07/2016, 00:00:00	43.67681	4.63031	average	Arles
America/Bogota	28 Mar 2017	5.20856	-74.73584	maintenance	Honda
America/Santiago	2015/01/31	-30.60106	-71.19901	excellent	Ovalle
Europe/London	11 Oct 2021	51.42708	-0.91979	average	Lower Earley
Europe/London	22 Jul 2018	57.47908	-4.22398	excellent	Inverness
Europe/Paris	2020/12/06	41.91886	8.73812	accep	Ajaccio
America/Toronto	13 Aug 2018	45.43341	-73.86586	average	Beaconsfield
Africa/Lagos	28 Feb 2022	7.62789	4.74161	building	Ilesa
Europe/London	2020/02/14	50.7236	-3.52751	average	Exeter
Europe/Vienna	2020-12-30	47.05	15.46667	excellent	Sankt Peter
Asia/Manila	2016-09-06	10.13361	124.84472	building	Maasin
Asia/Kolkata	2018-02-23	21.46527	83.97573	maintenance	Sambalpur
America/Vancouver	2014/04/01	49.88307	-119.48568	good	Kelowna
Africa/Dar_es_Salaam	06/05/2013, 00:00:00	-2.68333	33	average	Usagara
Africa/Cairo	03/24/2013, 00:00:00	26.67319	31.4976	excellent	Juhaynah
Africa/Bangui	2016-11-13	4.94273	15.87735	maitennce	Carnot
America/Caracas	2021-02-02	9.91861	-68.30472	average	Tinaquillo
Europe/Brussels	2017-08-20	50.71229	4.52529	good	Rixensart
Europe/Berlin	12/22/2021, 00:00:00	48.35149	8.96317	good	Hechingen
Europe/Malta	2017/05/26	35.89972	14.51472	good	Valletta
Africa/Freetown	2018-04-23	8.48714	-13.2356	building	Freetown
Asia/Tokyo	2019/09/21	34.4833	136.84186	good	Toba
Africa/Ndjamena	2013/09/15	12.18441	18.69303	excellent	Mongo
Europe/Bratislava	2013-07-24	48.43174	17.8031	average	Hlohovec
Asia/Kolkata	09/22/2020, 00:00:00	20.88197	85.83334	excellent	Bhuban
Asia/Kolkata	04 Apr 2020	12.04161	75.35927	good	Talipparamba
Australia/Melbourne	2019/08/29	-37.88333	145.06667	average	Carnegie
Europe/Istanbul	2020-03-16	40.98894	28.67582	excellent	Yakuplu
America/Boise	2018-10-03	43.54072	-116.56346	excellent	Nampa
Asia/Kolkata	10/08/2020, 00:00:00	22.75218	72.68533	excellent	Kheda
Africa/Dar_es_Salaam	2019/02/01	-10.33333	39.28333	building	Nyangao
Asia/Samarkand	12 May 2017	40.11583	67.84222	average	Jizzax
Europe/Moscow	2014-08-16	55.63711	37.38115	building	Solntsevo
Asia/Jakarta	2016/03/19	-6.91806	106.92667	accep	Sukabumi
Asia/Aden	03/03/2013, 00:00:00	14.53767	46.83187	accep	Ataq
Asia/Tehran	2018-03-02	33.14447	47.3799	average	Darreh Shahr
Asia/Vladivostok	05/09/2016, 00:00:00	45.47885	133.42825	maintenance	Lesozavodsk
Europe/Paris	06/02/2013, 00:00:00	48.98994	2.1699	excellent	Herblay
Asia/Kolkata	22 Dec 2021	12.04161	75.35927	accep	Talipparamba
America/New_York	01/05/2018, 00:00:00	43.61062	-72.97261	good	Rutland
America/Fortaleza	28 Feb 2018	-4.24444	-42.29444	average	Barras
America/Mexico_City	24 Oct 2013	19.04222	-98.11889	accep	Casa Blanca
Africa/Lagos	2012/11/18	11.86064	9.0027	building	Gaya
Europe/Madrid	05 Oct 2015	42.06166	-1.60452	average	Tudela
Asia/Karachi	2021-02-03	25.95533	68.88871	excellent	Jhol
Asia/Kolkata	2014-05-02	16.06213	76.0586	average	Hungund
Asia/Yekaterinburg	18 Feb 2019	56.9083	60.8019	building	Beryozovsky
America/Costa_Rica	2013-03-14	10.63504	-85.43772	excellent	Liberia
Asia/Jakarta	12/05/2021, 00:00:00	3.7278	98.6738	accep	Labuhan Deli
Africa/Lagos	05/08/2013, 00:00:00	4.92675	6.26764	average	Yenagoa
Europe/Moscow	2014-04-03	55.63711	37.38115	accep	Solntsevo
Asia/Kolkata	02/03/2021, 00:00:00	16.06213	76.0586	accep	Hungund
Asia/Taipei	14 Mar 2020	23.5654	119.58627	accep	Magong
Europe/Moscow	2021-10-22	56.03361	35.96944	average	Volokolamsk
America/Santo_Domingo	2013/05/21	18.20854	-71.10077	average	Santa Cruz de Barahona
America/Havana	2015-10-20	23.04419	-82.00919	average	Jaruco
America/Sao_Paulo	18 Mar 2022	-17.74431	-48.62789	accep	Caldas Novas
Asia/Bishkek	12/24/2015, 00:00:00	40.93333	73	good	Jalal-Abad
America/Chicago	2022/03/28	26.18924	-98.15529	building	San Juan
Europe/Moscow	2015/08/16	56.03361	35.96944	excellent	Volokolamsk
Asia/Tokyo	31 Aug 2014	35.815	139.6853	good	Shimotoda
America/Mexico_City	02/23/2015, 00:00:00	19.8173	-97.35992	average	Teziutlan
Asia/Shanghai	2015-11-10	27.34089	117.4831	good	Shaowu
Africa/Monrovia	02/17/2019, 00:00:00	7.57944	-8.53778	average	New Yekepa
America/Martinique	09/26/2016, 00:00:00	14.67751	-60.94228	maintenance	Le Robert
America/Sao_Paulo	2019-01-30	-23.7975	-48.59278	good	Buri
America/Glace_Bay	02/12/2018, 00:00:00	46.1351	-60.1831	excellent	Sydney
America/Cuiaba	2015-03-29	-14.66463	-52.35558	maintenance	Nova Xavantina
Europe/London	2021-04-11	51.84819	1.26738	excellent	Walton-on-the-Naze
Europe/Madrid	2020-06-14	40.70995	0.57856	maintenance	Amposta
America/Lima	2015/03/22	-15.21194	-75.11028	excellent	Minas de Marcona
America/Sao_Paulo	04/23/2014, 00:00:00	-28.44917	-52.2	good	Marau
Africa/Dar_es_Salaam	2020/01/10	-5.41667	38.01667	average	Chanika
Asia/Manila	09/19/2022, 00:00:00	10.20898	123.758	excellent	Naga
Asia/Ulaanbaatar	2018-08-22	47.90771	106.88324	excellent	Ulan Bator
America/New_York	06/22/2022, 00:00:00	26.68451	-80.66756	good	Belle Glade
Asia/Tokyo	19 Jun 2020	34.61667	135.6	average	Yao
Asia/Yangon	07 Jan 2022	16.68911	98.50893	accep	Myawadi
America/New_York	2018-05-16	26.68451	-80.66756	building	Belle Glade
Asia/Manila	2015-02-05	12.35275	121.06761	excellent	San Jose
Asia/Manila	2015/02/05	14.8361	120.97844	excellent	Guyong
America/Toronto	15 May 2020	43.86682	-79.2663	maintenance	Markham
Europe/Rome	03 Apr 2020	37.49223	15.07041	average	Catania
Europe/Helsinki	05/18/2017, 00:00:00	60.2052	24.6522	excellent	Espoo
America/Los_Angeles	2018/03/07	37.71715	-122.40433	good	Visitacion Valley
America/Santiago	2020-12-02	-36.9256	-73.02841	building	Chiguayante
Europe/Paris	08/16/2019, 00:00:00	45.69558	4.7934	average	Saint-Genis-Laval
Asia/Bangkok	2020-07-18	15.58552	102.42587	accep	Bua Yai
Asia/Kolkata	17 Apr 2016	32.55531	76.12647	accep	Chamba
Europe/Istanbul	2016-08-08	38.13708	41.00817	average	Silvan
America/Mexico_City	2013/07/09	19.8173	-97.35992	good	Teziutlan
Europe/Rome	27 Jul 2013	40.87329	14.43865	maintenance	Somma Vesuviana
Europe/Rome	2021/06/09	45.9836	12.70038	good	Cordenons
America/Sao_Paulo	29 Sep 2018	-21.41222	-42.19667	excellent	Miracema
Europe/Moscow	2018/03/30	44.92934	37.99117	accep	Krymsk
Asia/Seoul	2020-03-23	36.20389	127.08472	good	Nonsan
Europe/Berlin	2018-10-06	52.86147	9.5926	average	Walsrode
Asia/Kolkata	30 Oct 2019	30.81383	75.16878	building	Moga
Europe/Rome	04/26/2022, 00:00:00	44.59445	11.04979	accep	Castelfranco Emilia
Europe/Moscow	2021-11-05	55.85	37.56667	accep	Likhobory
Africa/Bamako	2014-02-05	12.74409	-8.07257	good	Kati
America/New_York	2021/04/25	41.54566	-71.29144	accep	Middletown
America/Denver	02/21/2016, 00:00:00	40.34912	-111.90466	good	Saratoga Springs
Asia/Tokyo	2020/01/26	34.81667	137.4	good	Toyokawa
Europe/Madrid	2018-03-26	43.48961	-8.2194	excellent	Ferrol
Europe/London	2014-02-01	53.19146	-2.52398	good	Winsford
Asia/Tehran	2013-02-13	33.86419	48.26258	excellent	Aleshtar
Europe/Rome	13 Aug 2020	37.51803	15.00913	average	Misterbianco
Europe/Moscow	2022/03/02	56.03361	35.96944	excellent	Volokolamsk
Africa/Lagos	2014/04/24	6.45407	3.39467	average	Lagos
Australia/Perth	2018-12-23	-31.95224	115.8614	good	Perth
America/New_York	2021-08-10	42.93369	-72.27814	average	Keene
Asia/Kolkata	2021/03/22	22.10194	85.37752	good	Barbil
America/New_York	2014-07-04	40.72816	-74.07764	excellent	Jersey City
America/Caracas	2017/09/12	10.22677	-67.33122	good	La Victoria
America/Sao_Paulo	2022/01/04	-22.45667	-47.53028	excellent	Santa Gertrudes
Asia/Shanghai	18 Aug 2022	45.75279	130.57211	average	Boli
Asia/Tehran	04/30/2022, 00:00:00	33.86419	48.26258	good	Aleshtar
America/New_York	03/01/2014, 00:00:00	27.71809	-82.35176	building	Sun City Center
Europe/Paris	02/13/2013, 00:00:00	43.67681	4.63031	accep	Arles
Asia/Novokuznetsk	2020-09-11	55.8736	85.4265	average	Yashkino
America/Sao_Paulo	2022-05-23	-22.57306	-47.1725	accep	Artur Nogueira
America/New_York	21 Dec 2012	33.08014	-83.2321	accep	Milledgeville
Africa/Ndjamena	01/24/2016, 00:00:00	12.18441	18.69303	maintenance	Mongo
Asia/Yekaterinburg	04 Aug 2014	56.9083	60.8019	excellent	Beryozovsky
Asia/Kolkata	25 Jun 2021	21.46527	83.97573	excellent	Sambalpur
Europe/Samara	05/09/2013, 00:00:00	53.37596	51.3452	building	Otradnyy
America/Mexico_City	24 Aug 2019	19.32889	-99.32556	maintenance	San Lorenzo Acopilco
America/Chicago	2020-01-23	39.09112	-94.41551	building	Independence
Asia/Shanghai	07/31/2016, 00:00:00	37.30553	120.82747	maintenance	Zhuangyuan
Europe/London	2015-07-31	50.7236	-3.52751	average	Exeter
Asia/Manila	12/08/2014, 00:00:00	14.66	120.56528	maintenance	Pilar
Europe/Rome	19 Nov 2018	45.79377	8.88104	excellent	Malnate
Europe/Brussels	10/23/2012, 00:00:00	51.12794	4.21372	good	Temse
Asia/Kolkata	09/02/2018, 00:00:00	9.57046	76.32756	accep	Kalavoor
Europe/Berlin	2021-01-19	52.53048	13.29371	good	Charlottenburg-Nord
Australia/Melbourne	07/01/2015, 00:00:00	-38.16604	145.13643	maintenance	Frankston South
America/Los_Angeles	01/17/2019, 00:00:00	34.21639	-119.0376	good	Camarillo
Europe/Berlin	22 Dec 2012	50.72043	11.34046	building	Rudolstadt
Africa/Lagos	08/13/2018, 00:00:00	10.61285	12.19458	average	Biu
America/Santiago	2017/01/07	-36.9256	-73.02841	building	Chiguayante
Asia/Seoul	20 Jan 2022	36.6009	126.665	excellent	Hongseong
Asia/Baku	09 Oct 2012	41.09246	45.36561	maintenance	Qazax
Europe/Warsaw	01 Jun 2020	50.20528	19.27498	accep	Jaworzno
Europe/Rome	2013-07-25	45.39402	9.29109	excellent	San Giuliano Milanese
Asia/Jakarta	12/08/2019, 00:00:00	-6.91806	106.92667	maintenance	Sukabumi
Asia/Jakarta	2017/11/09	-6.48167	106.85417	excellent	Cibinong
Australia/Sydney	2017-10-12	-34.88422	150.60036	good	Nowra
America/Chicago	17 May 2019	33.44872	-86.78777	good	Vestavia Hills
Asia/Jakarta	2014-04-22	0.51667	101.44167	accep	Pekanbaru
Europe/Rome	03/04/2021, 00:00:00	40.87363	14.34085	average	Volla
Asia/Bangkok	2016-07-07	15.58552	102.42587	accep	Bua Yai
Europe/Skopje	2019-11-18	41.92361	20.91361	average	Bogovinje
Asia/Kolkata	2021/03/13	24.81757	84.63445	accep	Rafiganj
Europe/Berlin	2016-07-01	53.63333	9.85	good	Halstenbek
Europe/Berlin	23 Nov 2019	47.98372	10.18527	excellent	Memmingen
America/Havana	2016/07/09	22.98212	-80.58556	good	Corralillo
America/New_York	12/21/2013, 00:00:00	27.71809	-82.35176	average	Sun City Center
Asia/Jerusalem	2019-01-27	31.39547	34.75699	maintenance	Rahat
Europe/Berlin	11 Apr 2021	48.35149	8.96317	excellent	Hechingen
Europe/Berlin	2016-01-11	48.21644	9.02596	maintenance	Albstadt
Europe/Prague	13 Jun 2020	50.23271	12.87117	excellent	Karlovy Vary
Asia/Tokyo	2020/02/02	34.61667	135.6	good	Yao
Asia/Dushanbe	2019/08/13	38.55632	69.01354	average	Vahdat
Europe/Berlin	10/13/2012, 00:00:00	52.21099	7.02238	building	Gronau
America/New_York	2015/03/15	40.60538	-73.75513	maintenance	Far Rockaway
Asia/Karachi	2016-03-27	31.82539	72.54064	building	Sillanwali
Africa/Lubumbashi	11/25/2018, 00:00:00	0.49113	29.47306	maintenance	Beni
Europe/Amsterdam	2013/02/03	51.95838	4.47124	maintenance	Schiebroek
America/New_York	2014/02/23	34.25628	-78.04471	accep	Leland
Asia/Jakarta	11 Nov 2021	-6.8048	110.8405	excellent	Kudus
Africa/Algiers	2014/07/29	34.15429	3.50309	maintenance	Messaad
Europe/Istanbul	2021-01-17	37.58105	29.26639	excellent	Serinhisar
America/Guayaquil	2013/09/30	-2.13404	-79.59415	excellent	Milagro
Africa/Tripoli	2013-04-12	24.96334	10.18003	good	Ghat
Europe/Madrid	2020-11-18	41.91738	3.1631	excellent	Palafrugell
Asia/Kolkata	2017-04-16	25.6439	77.9129	maintenance	Narwar
Africa/Dar_es_Salaam	2015-01-11	-7.76667	35.7	excellent	Iringa
Asia/Kolkata	12/02/2013, 00:00:00	25.6439	77.9129	good	Narwar
America/Mexico_City	01/17/2022, 00:00:00	20.21322	-100.88023	good	Salvatierra
Asia/Jakarta	02/10/2020, 00:00:00	-8.43333	114.33333	average	Muncar
America/Mexico_City	2016/04/22	20.74122	-100.44843	accep	Santa Rosa Jauregui
Asia/Tokyo	2020-04-30	35.815	139.6853	building	Shimotoda
Asia/Jakarta	01/28/2020, 00:00:00	-6.91806	106.92667	excellent	Sukabumi
America/Sao_Paulo	2018-08-04	-19.72806	-50.19556	accep	Iturama
Europe/Berlin	12/20/2018, 00:00:00	48.35149	8.96317	average	Hechingen
America/Chicago	2021/11/19	42.55308	-87.93341	average	Pleasant Prairie
Asia/Kolkata	03/04/2017, 00:00:00	20.88197	85.83334	good	Bhuban
America/Santo_Domingo	07/03/2017, 00:00:00	18.20854	-71.10077	good	Santa Cruz de Barahona
America/Havana	25 May 2018	23.04419	-82.00919	good	Jaruco
Atlantic/Azores	2018-06-15	37.74615	-25.66689	maintenance	Ponta Delgada
Asia/Yekaterinburg	09 Aug 2020	58.7002	59.4839	accep	Kachkanar
Europe/Amsterdam	2019/02/11	52.14	5.58472	good	Barneveld
Europe/London	2014/12/24	50.75767	-1.5443	accep	Lymington
America/New_York	17 Apr 2016	40.5576	-74.28459	good	Woodbridge
America/Mexico_City	2019-08-26	20.74122	-100.44843	excellent	Santa Rosa Jauregui
Asia/Kolkata	2016-07-27	34.08565	74.80555	good	Srinagar
Europe/Rome	02/22/2018, 00:00:00	37.31065	13.57661	excellent	Agrigento
America/New_York	2022-04-06	43.1009	-75.23266	average	Utica
Europe/Moscow	2021-04-13	56.85836	35.90057	average	Tver
Europe/Berlin	03/28/2014, 00:00:00	48.35149	8.96317	average	Hechingen
Europe/Rome	2015-04-21	42.67164	14.01481	maintenance	Roseto degli Abruzzi
Africa/Johannesburg	03/30/2014, 00:00:00	-27.76952	30.79165	excellent	Vryheid
Africa/Dar_es_Salaam	2015/06/22	-6.8	39.25	accep	Magomeni
America/Bogota	04/07/2022, 00:00:00	7.83389	-72.47417	good	Villa del Rosario
America/Argentina/Tucuman	2013-09-26	-27.4338	-65.61427	excellent	Aguilares
Europe/Belgrade	2013/03/09	42.62833	20.89389	excellent	Glogovac
America/New_York	13 Oct 2020	41.9001	-71.08977	average	Taunton
Africa/Dar_es_Salaam	2018/08/10	-10.33333	39.28333	building	Nyangao
Asia/Shanghai	10/09/2018, 00:00:00	42.64031	125.51176	excellent	Dongfeng
Australia/Sydney	14 Oct 2020	-34.28853	146.05093	accep	Griffith
Asia/Kolkata	2014-07-17	25.87498	86.59611	accep	Saharsa
Asia/Almaty	2016/04/18	47.46657	84.87144	accep	Zaysan
Asia/Kolkata	07/03/2016, 00:00:00	24.81757	84.63445	average	Rafiganj
Asia/Tokyo	2014/08/07	35.82756	137.95378	good	Ina
Europe/Berlin	29 Oct 2020	52.21099	7.02238	average	Gronau
Asia/Yekaterinburg	22 Jun 2013	60.97944	76.92421	good	Izluchinsk
Europe/Madrid	02/22/2014, 00:00:00	41.41204	2.18247	excellent	el Camp de l'Arpa del Clot
Asia/Tehran	2016-10-03	36.64852	51.49621	accep	Nowshahr
America/Bahia	2018/07/02	-15.675	-38.94722	maintenance	Canavieiras
Asia/Shanghai	2017/03/11	35.50056	117.63083	maintenance	Pingyi
Asia/Shanghai	15 Mar 2020	36.19278	117.65694	average	Laiwu
America/Glace_Bay	18 May 2020	46.1351	-60.1831	good	Sydney
Europe/Lisbon	2014/07/29	37.08819	-8.2503	average	Albufeira
Europe/Istanbul	2021/04/14	40.1675	34.37389	excellent	Sungurlu
Europe/Amsterdam	2015-04-01	51.955	5.22778	accep	Culemborg
Asia/Karachi	25 Feb 2016	31.82539	72.54064	good	Sillanwali
America/New_York	2014-11-30	41.24255	-82.61573	excellent	Norwalk
America/New_York	29 Apr 2022	26.91756	-82.07842	maintenance	Punta Gorda Isles
Asia/Baku	02 Jan 2016	38.45598	48.87498	maintenance	Astara
America/Sao_Paulo	2018-05-18	-22.97056	-46.99583	maintenance	Valinhos
Europe/Berlin	07/11/2014, 00:00:00	50.23805	8.86704	maintenance	Nidderau
America/Los_Angeles	09/17/2022, 00:00:00	45.53929	-122.38731	good	Troutdale
America/New_York	25 Oct 2018	41.48199	-81.79819	average	Lakewood
America/Bahia	2013/06/25	-12.91667	-39.25	average	Muritiba
Europe/Amsterdam	10 Feb 2013	52.09	5.23333	accep	Zeist
Europe/Berlin	04/07/2019, 00:00:00	49.5099	6.74549	accep	Losheim
Africa/Libreville	2013-03-08	-1.63333	13.58357	average	Franceville
Europe/Sofia	04 Aug 2022	41.57439	24.71204	maintenance	Smolyan
America/New_York	2019/08/04	34.25628	-78.04471	good	Leland
Europe/London	21 Jun 2013	57.14369	-2.09814	accep	Aberdeen
Europe/Berlin	2018-11-02	48.28259	9.72749	excellent	Ehingen
Europe/Kiev	2013/06/11	45.99194	29.41824	average	Artsyz
America/Chicago	09/02/2015, 00:00:00	33.45122	-86.99666	excellent	Hueytown
Asia/Shanghai	27 May 2016	34.85	117.33333	accep	Taozhuang
Europe/Bratislava	02/09/2017, 00:00:00	48.8449	17.22635	good	Skalica
Asia/Tokyo	2012-12-18	34.61667	135.6	average	Yao
Asia/Karachi	2022/02/28	32.87533	71.57118	accep	Daud Khel
Europe/Madrid	05/25/2021, 00:00:00	43.32686	-2.98884	excellent	Leioa
Asia/Tokyo	2020/07/01	43.82634	144.09638	average	Motomachi
Asia/Kolkata	17 Aug 2013	30.81383	75.16878	excellent	Moga
America/Los_Angeles	10/25/2021, 00:00:00	44.99012	-123.02621	average	Keizer
America/Denver	2015/05/17	39.72943	-104.83192	building	Aurora
America/Managua	2013-04-01	11.84962	-86.19903	good	Jinotepe
America/Matamoros	2018/05/08	25.87972	-97.50417	accep	Heroica Matamoros
Europe/Madrid	09/22/2021, 00:00:00	38.47917	-1.325	accep	Jumilla
Europe/Berlin	30 Mar 2021	51.47805	6.8625	good	Oberhausen
Asia/Yangon	05/23/2019, 00:00:00	17.30858	97.01124	good	Kyaikto
America/Mexico_City	2021-01-17	20.28527	-103.42897	maitennce	Jocotepec
Asia/Tokyo	12/25/2021, 00:00:00	36.53333	136.61667	average	Nonoichi
Europe/Bratislava	09/08/2018, 00:00:00	48.8449	17.22635	excellent	Skalica
Europe/Amsterdam	14 Sep 2014	51.65333	5.2875	average	Vught
Asia/Tehran	2014-02-17	36.64852	51.49621	good	Nowshahr
America/Sao_Paulo	2013-06-10	-20.25333	-43.80139	average	Itabirito
America/Jamaica	2020-10-24	18.00747	-76.78319	good	New Kingston
America/Caracas	2022-01-28	9.91861	-68.30472	building	Tinaquillo
Europe/Berlin	2022-02-21	49.68369	8.61839	good	Bensheim
Africa/Accra	2016-11-01	5.30383	-1.98956	good	Tarkwa
Asia/Tokyo	2020-10-17	35.8	137.23333	building	Gero
Africa/Algiers	2021/08/31	36.27462	4.85668	accep	Bordj Zemoura
Asia/Kolkata	03/30/2021, 00:00:00	24.81757	84.63445	excellent	Rafiganj
America/Mexico_City	09/02/2021, 00:00:00	19.04222	-98.11889	good	Casa Blanca
Asia/Yekaterinburg	04/17/2022, 00:00:00	51.4781	57.3552	average	Kuvandyk
Asia/Shanghai	02/11/2013, 00:00:00	27.34089	117.4831	excellent	Shaowu
Asia/Shanghai	2015/07/15	37.73222	115.70111	building	Hengshui
America/Maceio	2019-07-28	-10.90889	-37.03861	maintenance	Barra dos Coqueiros
Pacific/Port_Moresby	2021-08-13	-5.85746	144.23058	accep	Mount Hagen
Europe/Minsk	2021-03-05	55.1904	30.2049	excellent	Vitebsk
Asia/Karachi	2014-05-14	29.38242	70.91106	excellent	Alipur
Europe/London	08 May 2019	56.56317	-2.58736	maintenance	Arbroath
Europe/Madrid	2022-06-24	43.48961	-8.2194	average	Ferrol
America/Chicago	05/24/2019, 00:00:00	38.06084	-97.92977	good	Hutchinson
America/New_York	2017/04/01	41.66394	-83.55521	accep	Toledo
Europe/London	22 Mar 2021	57.14369	-2.09814	excellent	Aberdeen
America/Chicago	11/08/2013, 00:00:00	35.25064	-91.73625	accep	Searcy
Europe/Paris	08/14/2022, 00:00:00	44.92801	4.8951	building	Valence
Asia/Kolkata	12/06/2014, 00:00:00	18.18158	76.03889	excellent	Osmanabad
America/Los_Angeles	2022-06-08	33.03699	-117.29198	accep	Encinitas
America/Chicago	06/19/2017, 00:00:00	41.15376	-87.88754	average	Bourbonnais
Africa/Tunis	12 Apr 2021	37.16911	10.03478	building	El Alia
Europe/Bucharest	26 Jan 2015	44.43579	26.01649	maintenance	Sector 6
Asia/Phnom_Penh	20 Sep 2018	13.65805	102.56365	good	Paoy Paet
Europe/London	12 Dec 2015	50.75767	-1.5443	good	Lymington
America/Lima	2017-03-10	-11.94306	-76.70944	good	Chosica
Africa/Porto-Novo	2022/05/07	8.88649	2.59753	excellent	Tchaourou
Asia/Jakarta	02/06/2015, 00:00:00	-1.26424	104.09701	good	Simpang
Asia/Kolkata	2016-06-19	26.11527	86.59509	good	Supaul
Europe/Paris	06 Mar 2019	48.98333	2.61667	excellent	Mitry-Mory
America/Sao_Paulo	16 Aug 2021	-22.92306	-53.13722	accep	Loanda
Africa/Lagos	2018/11/08	6.8485	3.64633	good	Shagamu
Asia/Shanghai	06/26/2015, 00:00:00	34.56861	105.89333	maintenance	Beidao
Pacific/Auckland	2018/04/22	-38.65333	178.00417	excellent	Gisborne
Europe/Istanbul	12/13/2017, 00:00:00	38.13708	41.00817	good	Silvan
America/Argentina/Cordoba	2014-08-13	-31.4488	-60.93173	good	Esperanza
Europe/Paris	12 Sep 2017	43.61058	1.33467	average	Colomiers
Asia/Shanghai	17 Jan 2021	34.85	117.33333	maintenance	Taozhuang
America/Bogota	2020/03/05	4.73245	-74.26419	average	Madrid
Africa/Algiers	2021/02/23	36.27462	4.85668	building	Bordj Zemoura
Africa/Maputo	2017/10/04	-23.85972	35.34722	good	Maxixe
America/Chicago	07/31/2021, 00:00:00	45.0408	-93.263	building	Columbia Heights
Europe/Madrid	2013-11-02	41.91738	3.1631	maintenance	Palafrugell
Asia/Kolkata	03/24/2021, 00:00:00	9.57046	76.32756	building	Kalavoor
Africa/Cairo	11 Jan 2015	31.20176	29.91582	average	Alexandria
Africa/Niamey	10/24/2021, 00:00:00	13.70727	9.15013	good	Mirriah
Asia/Tokyo	2018-04-15	39.46667	141.95	average	Yamada
Europe/Moscow	2013/12/19	55.63711	37.38115	excellent	Solntsevo
Europe/Berlin	2022-09-13	47.98372	10.18527	accep	Memmingen
Asia/Manila	24 Oct 2014	14.62578	121.12251	excellent	Antipolo
Africa/Accra	06 Nov 2021	6.46346	-2.31938	good	Bibiani
America/Bogota	2015/04/14	10.98778	-74.95472	good	Puerto Colombia
Europe/Rome	2017-10-09	42.67164	14.01481	average	Roseto degli Abruzzi
Africa/Conakry	2016/06/28	9.535	-13.68778	excellent	Camayenne
Asia/Manila	2014-03-26	14.62578	121.12251	maintenance	Antipolo
Asia/Kolkata	2013-11-08	15.45144	78.14797	average	Betamcherla
Europe/Prague	2017-03-10	50.50301	13.63617	accep	Most
America/Martinique	2017/07/11	14.67751	-60.94228	average	Le Robert
Europe/Lisbon	26 Apr 2015	38.72706	-9.24671	average	Carnaxide
Europe/Berlin	2013/12/21	50.80019	7.20769	average	Siegburg
Asia/Dhaka	23 Jul 2022	23.9028	89.11943	average	Kushtia
Asia/Tokyo	2015/04/19	36.33011	138.89585	accep	Annaka
Europe/Paris	25 Mar 2019	48.8222	2.12213	excellent	Le Chesnay
Australia/Perth	02 Dec 2019	-32.05251	115.88782	building	Willetton
Asia/Karachi	2013-12-09	27.52948	68.75915	average	Khairpur Mir‚Äôs
Africa/Dar_es_Salaam	2014-08-12	-6.8	39.25	good	Magomeni
Europe/Warsaw	07 Jan 2019	50.5107	18.30056	good	Strzelce Opolskie
America/Recife	19 May 2016	-8.28333	-35.03333	good	Cabo
Africa/Johannesburg	2018-02-12	-26.93366	29.24152	excellent	Standerton
Europe/London	11/25/2017, 00:00:00	57.14369	-2.09814	good	Aberdeen
Europe/Madrid	21 Jul 2021	43.32686	-2.98884	average	Leioa
Asia/Karachi	10 Jul 2019	31.71667	73.38333	accep	Sangla Hill
Asia/Jakarta	2019-03-11	-7.01833	107.60389	excellent	Pameungpeuk
America/New_York	2015/10/13	41.14676	-73.49484	good	New Canaan
America/Chicago	04/15/2013, 00:00:00	41.85059	-87.882	good	Westchester
America/New_York	11/03/2018, 00:00:00	33.98154	-81.23621	good	Lexington
Africa/Dar_es_Salaam	2016-02-02	-5.41667	38.01667	good	Chanika
Europe/Moscow	09 May 2021	55.64776	38.02486	accep	Malakhovka
America/New_York	2014-02-11	41.50343	-74.01042	good	Newburgh
Europe/Amsterdam	2021-08-22	51.65333	5.2875	accep	Vught
Asia/Jerusalem	2019-12-22	32.05971	34.8732	accep	Ganei Tikva
America/Costa_Rica	2017-08-20	9.92787	-84.13722	average	San Rafael
Asia/Karachi	2013/09/29	31.96258	73.97117	good	Naushahra Virkan
America/New_York	2014-02-14	39.33427	-76.43941	good	Middle River
America/New_York	2013-08-06	38.91817	-78.19444	building	Front Royal
America/Chicago	02/11/2022, 00:00:00	29.53885	-95.44744	accep	Fresno
America/New_York	2022-09-24	34.25628	-78.04471	average	Leland
Africa/Lagos	11/20/2020, 00:00:00	9.58126	8.2926	good	Kafanchan
Europe/Amsterdam	2019/10/08	52.26083	7.00417	average	Losser
America/Guayaquil	2013-12-20	-2.90055	-79.00453	excellent	Cuenca
America/New_York	26 Sep 2013	40.68066	-73.47429	accep	Massapequa
Europe/Paris	2017/06/17	48.90982	2.45012	average	Bobigny
Asia/Shanghai	2016/05/09	23.73333	114.68333	good	Heyuan
America/New_York	2012/11/09	28.90054	-81.26367	accep	Deltona
America/Mexico_City	12/31/2014, 00:00:00	19.32889	-99.32556	excellent	San Lorenzo Acopilco
Europe/Warsaw	08 Dec 2012	54.60528	18.34717	excellent	Reda
Europe/Lisbon	2013-09-15	37.08819	-8.2503	maintenance	Albufeira
America/Chicago	2015/04/11	38.58894	-89.99038	accep	Fairview Heights
America/Los_Angeles	2017/03/01	33.95015	-118.03917	excellent	South Whittier
Asia/Karachi	24 Feb 2018	30.29184	71.67164	building	Qadirpur Ran
Europe/Moscow	2014-07-07	57.97472	33.2525	accep	Valday
Asia/Shanghai	2020/03/17	27.34089	117.4831	accep	Shaowu
Europe/Madrid	09 Apr 2018	42.64685	-5.55835	average	Villaquilambre
Asia/Kolkata	2020/11/04	25.75728	75.37991	accep	Deoli
Europe/Amsterdam	07/22/2015, 00:00:00	52.09	5.23333	building	Zeist
America/Sao_Paulo	04 Oct 2020	-20.25333	-43.80139	accep	Itabirito
America/New_York	2014-11-13	40.82232	-74.15987	building	Nutley
America/Chicago	2017-06-09	32.52515	-93.75018	average	Shreveport
Asia/Karachi	2014-05-27	25.95533	68.88871	maintenance	Jhol
Europe/Berlin	2017-05-19	52.53048	13.29371	building	Charlottenburg-Nord
America/Toronto	02 Sep 2014	45.44868	-73.81669	good	Pointe-Claire
America/Indiana/Indianapolis	11 Jan 2013	41.75338	-86.11084	good	Granger
Africa/Porto-Novo	2018-10-14	8.88649	2.59753	building	Tchaourou
Asia/Shanghai	2018-11-11	36.19278	117.65694	good	Laiwu
Asia/Yekaterinburg	2017/11/06	60.97944	76.92421	excellent	Izluchinsk
America/New_York	10/13/2017, 00:00:00	41.9001	-71.08977	good	Taunton
America/New_York	2015-10-31	39.96097	-75.60804	maintenance	West Chester
Europe/Moscow	2021-11-19	42.819	47.1192	excellent	Buynaksk
Europe/Berlin	05 Oct 2012	48.06919	11.37703	good	Gauting
Indian/Reunion	07/02/2014, 00:00:00	-20.88231	55.4504	good	Saint-Denis
Africa/Monrovia	2020-01-15	7.57944	-8.53778	good	New Yekepa
America/Chicago	2013-12-25	30.5427	-97.54667	accep	Hutto
Europe/Skopje	2015-07-21	41.92361	20.91361	maintenance	Bogovinje
Europe/London	12/18/2019, 00:00:00	50.7236	-3.52751	building	Exeter
America/Chicago	07/31/2014, 00:00:00	45.16024	-93.08883	building	Lino Lakes
Africa/Dar_es_Salaam	02/23/2019, 00:00:00	-6.8	39.25	average	Magomeni
America/Chicago	26 Aug 2020	40.56754	-89.64066	accep	Pekin
Africa/Addis_Ababa	12/11/2017, 00:00:00	11.85	38.01667	average	Debre Tabor
Europe/Berlin	2014/04/25	51.20219	7.36027	average	Radevormwald
Asia/Karachi	04/25/2015, 00:00:00	30.29184	71.67164	accep	Qadirpur Ran
Europe/Paris	2020/10/05	48.90472	2.2469	average	La Garenne-Colombes
America/Managua	2014-12-12	13.48082	-86.58208	accep	Somoto
Asia/Kolkata	2016-09-26	9.57046	76.32756	excellent	Kalavoor
Indian/Reunion	04 Jul 2020	-20.88231	55.4504	excellent	Saint-Denis
Europe/Skopje	17 Jul 2020	42	21.32778	excellent	Saraj
Asia/Bangkok	2018/06/12	13.51825	99.95469	average	Damnoen Saduak
Asia/Kolkata	19 Sep 2021	12.95629	78.27539	accep	Robertsonpet
Africa/Dar_es_Salaam	07/28/2019, 00:00:00	-6.25	38.66667	accep	Mvomero
Europe/Paris	19 Mar 2014	44.80477	-0.59543	accep	Talence
Asia/Ho_Chi_Minh	2019-07-27	10.29085	105.75635	good	Sa Dec
Europe/Madrid	2021/10/28	37.13548	-3.67029	accep	Las Gabias
America/New_York	04 Dec 2015	42.52787	-70.92866	excellent	Peabody
Europe/Berlin	2021-10-11	52.86147	9.5926	accep	Walsrode
America/Guayaquil	2022/01/02	-2.90055	-79.00453	maintenance	Cuenca
America/New_York	2018/02/16	38.96372	-76.99081	building	Chillum
America/Los_Angeles	2020-12-28	45.53929	-122.38731	building	Troutdale
Europe/Berlin	2019/05/27	52.21099	7.02238	building	Gronau
America/Los_Angeles	2017/12/24	33.92946	-116.97725	average	Beaumont
America/Los_Angeles	22 Oct 2017	44.99012	-123.02621	excellent	Keizer
Europe/Chisinau	21 Mar 2020	48.15659	28.28489	accep	Soroca
Europe/Moscow	05 Mar 2015	43.96222	43.63417	good	Novopavlovsk
Europe/Rome	2020-05-19	37.49223	15.07041	accep	Catania
America/Chicago	2014/09/28	30.16688	-96.39774	excellent	Brenham
Asia/Kolkata	2015-10-11	23.49668	86.68363	maintenance	Adra
Asia/Baku	06/20/2018, 00:00:00	41.09246	45.36561	excellent	Qazax
Asia/Shanghai	08/30/2015, 00:00:00	45.35	126.28333	average	Shuangcheng
Asia/Shanghai	2022-08-09	37.19723	122.05228	excellent	Tianfu
America/Santiago	2018/06/11	-33.59217	-70.6996	accep	San Bernardo
Europe/Rome	2014/07/28	37.49223	15.07041	excellent	Catania
Asia/Jerusalem	2013/12/31	31.39547	34.75699	good	Rahat
Europe/Berlin	2015-06-05	51.04962	12.1369	accep	Zeitz
Europe/Madrid	2013/09/01	43.48961	-8.2194	accep	Ferrol
America/Toronto	2020-07-10	45.44868	-73.81669	excellent	Pointe-Claire
Asia/Yekaterinburg	12/22/2018, 00:00:00	51.4781	57.3552	accep	Kuvandyk
America/New_York	26 Sep 2013	41.27621	-72.86843	good	East Haven
America/New_York	13 May 2019	38.96372	-76.99081	good	Chillum
America/Sao_Paulo	2021/11/07	-21.41222	-42.19667	maitennce	Miracema
America/Sao_Paulo	23 Jun 2020	-21.41222	-42.19667	accep	Miracema
America/Bogota	04/27/2018, 00:00:00	4.73245	-74.26419	average	Madrid
Europe/Moscow	2014-04-11	54.90083	38.07083	average	Stupino
Africa/Accra	09 Jan 2022	7.06273	-1.4001	average	Mampong
Europe/Amsterdam	03/18/2019, 00:00:00	52.09	5.23333	building	Zeist
America/Los_Angeles	01/14/2018, 00:00:00	34.09611	-118.10583	good	San Gabriel
Europe/Berlin	12/24/2021, 00:00:00	52.21099	7.02238	good	Gronau
America/Los_Angeles	2015-09-16	34.09611	-118.10583	accep	San Gabriel
Asia/Colombo	2012-10-19	6.84019	79.87116	average	Dehiwala-Mount Lavinia
Europe/London	2020-05-07	57.47908	-4.22398	good	Inverness
Europe/Moscow	2017-02-27	54.8421	46.5813	good	Alatyr‚Äô
Europe/Istanbul	22 Mar 2014	39.12074	27.18052	average	Bergama
America/New_York	2015/10/13	41.54566	-71.29144	average	Middletown
Asia/Shanghai	07/26/2018, 00:00:00	34.85	117.33333	accep	Taozhuang
America/Chicago	16 Aug 2014	41.85059	-87.882	good	Westchester
America/New_York	01 Jan 2018	39.33427	-76.43941	excellent	Middle River
Africa/Luanda	2017/09/05	-11.78333	19.91667	good	Luena
America/Sao_Paulo	2015/07/19	-25.42944	-50.00639	good	Palmeira
Asia/Kolkata	2013-05-13	26.11527	86.59509	accep	Supaul
Europe/Berlin	2012-12-29	49.5099	6.74549	average	Losheim
Europe/London	09 Jun 2020	51.26	-2.1875	average	Westbury
Europe/Paris	03/13/2022, 00:00:00	43.71032	-1.05366	maintenance	Dax
Europe/Istanbul	23 Nov 2021	39.12074	27.18052	maintenance	Bergama
Asia/Kolkata	07 Jul 2022	25.92127	86.79271	excellent	Madhipura
Europe/Rome	2020-01-12	42.67164	14.01481	average	Roseto degli Abruzzi
America/Argentina/Cordoba	02/08/2019, 00:00:00	-31.4488	-60.93173	excellent	Esperanza
Europe/Berlin	09/28/2018, 00:00:00	51.168	7.973	building	Finnentrop
Europe/Istanbul	12/25/2017, 00:00:00	37.31309	40.74357	building	Mardin
Africa/Mogadishu	2017-06-02	9.89206	43.38531	average	Baki
America/Detroit	15 Sep 2022	42.97086	-82.42491	building	Port Huron
Asia/Baghdad	05/18/2021, 00:00:00	32.61603	44.02488	good	Karbala
Europe/Rome	15 Sep 2017	40.87363	14.34085	building	Volla
America/New_York	23 Jul 2013	40.72816	-74.07764	maintenance	Jersey City
Europe/Paris	15 Dec 2018	41.91886	8.73812	good	Ajaccio
Europe/Berlin	2019-10-19	51.04962	12.1369	average	Zeitz
Europe/Brussels	03 Jan 2020	50.8	3.16667	good	Wevelgem
America/New_York	2022-02-10	41.16704	-73.20483	average	Bridgeport
America/New_York	2014-03-07	26.2173	-80.22588	excellent	North Lauderdale
Indian/Antananarivo	2016-01-22	-17.83333	48.41667	good	Ambatondrazaka
America/Managua	2020/11/18	11.84962	-86.19903	accep	Jinotepe
Asia/Ho_Chi_Minh	2020-01-01	10.29085	105.75635	accep	Sa Dec
America/New_York	2021-04-07	41.9001	-71.08977	building	Taunton
Asia/Karachi	15 May 2022	31.82539	72.54064	good	Sillanwali
Asia/Kolkata	2021/08/19	22.10194	85.37752	good	Barbil
America/Chicago	29 Mar 2014	41.57721	-93.71133	good	West Des Moines
Europe/Madrid	26 Jan 2020	40.42386	-3.53261	good	San Fernando de Henares
America/Chicago	2020-09-25	40.56754	-89.64066	excellent	Pekin
Europe/Rome	04/26/2013, 00:00:00	41.72063	12.6723	accep	Ariccia
Europe/Berlin	2014-07-11	50.09019	8.4493	maintenance	Hofheim am Taunus
Asia/Baku	2022-04-30	38.45598	48.87498	accep	Astara
Asia/Yekaterinburg	2016-11-06	51.78771	56.36091	average	Saraktash
America/Indiana/Indianapolis	05/14/2020, 00:00:00	39.78504	-85.76942	building	Greenfield
America/Lima	11 Oct 2015	-16.25	-69.08333	average	Yunguyo
Asia/Kolkata	2016-07-07	26.11527	86.59509	building	Supaul
America/Santarem	2021-11-25	-3.20333	-52.20639	average	Altamira
America/Sao_Paulo	05/27/2018, 00:00:00	-21.42917	-45.94722	average	Alfenas
Pacific/Auckland	2017/07/08	-38.65333	178.00417	maintenance	Gisborne
Australia/Melbourne	29 Mar 2022	-37.88333	145.06667	maitennce	Carnegie
America/Maceio	11/10/2017, 00:00:00	-10.91722	-37.65	accep	Lagarto
Europe/Rome	06/22/2022, 00:00:00	40.87363	14.34085	average	Volla
America/Mexico_City	27 Jan 2018	17.06542	-96.72365	accep	Oaxaca
America/Toronto	05 Sep 2020	43.86682	-79.2663	average	Markham
Asia/Kolkata	2022-09-27	25.87498	86.59611	excellent	Saharsa
Asia/Kolkata	2020/12/15	33.37526	74.3092	accep	Rajaori
America/Mexico_City	04 Jun 2018	16.75973	-93.11308	excellent	Tuxtla
America/New_York	18 Mar 2017	39.32011	-76.51552	excellent	Rosedale
Europe/Moscow	2022/01/20	54.84444	38.16694	accep	Kashira
America/Caracas	2013-03-15	8.62261	-70.20749	good	Barinas
Africa/Nairobi	27 Nov 2015	0.46005	34.11169	good	Busia
Africa/Lagos	2020/01/20	7.65649	4.92235	maintenance	Efon-Alaaye
Europe/Istanbul	2016/09/09	37.58105	29.26639	average	Serinhisar
America/Argentina/Buenos_Aires	2018/09/02	-37.32167	-59.13316	building	Tandil
Europe/Berlin	07/13/2021, 00:00:00	52.21099	7.02238	accep	Gronau
Asia/Kolkata	03/24/2017, 00:00:00	21.59983	71.21169	accep	Amreli
America/New_York	2019/03/12	34.06635	-84.67837	excellent	Acworth
Europe/Rome	2015-02-19	45.9836	12.70038	accep	Cordenons
Asia/Kolkata	13 Sep 2018	30.81383	75.16878	good	Moga
Asia/Kolkata	12/27/2019, 00:00:00	22.88783	84.13864	accep	Jashpurnagar
Europe/Andorra	2020/08/10	42.50729	1.53414	building	les Escaldes
Europe/London	2021-11-13	51.65	-0.2	good	Barnet
Africa/Gaborone	2016/08/16	-21.44236	27.46153	excellent	Tonota
America/Los_Angeles	2013-08-24	34.63915	-120.45794	good	Lompoc
Africa/Nairobi	2021/01/31	3.11988	35.59642	good	Lodwar
Europe/Amsterdam	2018-04-04	52.26083	7.00417	good	Losser
Europe/Helsinki	2020-05-11	65.84811	24.14662	acceptable	Tornio
America/Los_Angeles	03/12/2019, 00:00:00	32.9156	-117.14392	good	Mira Mesa
Australia/Brisbane	2014-09-17	-27.50578	153.10236	average	Carindale
America/Matamoros	2013/11/24	25.87972	-97.50417	building	Heroica Matamoros
Asia/Shanghai	2015/09/30	46.08333	122.08333	good	Ulanhot
Europe/Lisbon	05/23/2018, 00:00:00	41.1053	-7.32097	good	Custoias
Europe/Moscow	2022/09/08	60.02427	30.28491	average	Kolomyagi
Asia/Dhaka	26 Jun 2016	22.83957	91.84128	good	Manikchari
Asia/Yekaterinburg	25 Nov 2012	55.75556	60.70278	maintenance	Ozersk
America/Mexico_City	06/29/2018, 00:00:00	20.22816	-103.5687	good	Zacoalco de Torres
Australia/Sydney	21 Mar 2020	-33.75881	150.99292	maintenance	Baulkham Hills
Asia/Shanghai	11/04/2014, 00:00:00	30.35028	112.19028	average	Jingzhou
Europe/Madrid	02 May 2016	37.35813	-6.03731	average	San Juan de Aznalfarache
Asia/Kuching	2013-07-28	5.90702	116.10146	excellent	Donggongon
Asia/Shanghai	14 Aug 2017	30.35028	112.19028	average	Jingzhou
Asia/Tehran	21 Aug 2019	32.65246	51.67462	good	Isfahan
Africa/Tunis	07/22/2022, 00:00:00	36.08497	9.37082	good	Siliana
America/Mexico_City	10/30/2017, 00:00:00	16.75973	-93.11308	average	Tuxtla
Europe/Madrid	2017-04-20	41.63976	2.35739	average	Cardedeu
Asia/Manila	2020-02-27	10.20898	123.758	excellent	Naga
Asia/Shanghai	2017-05-03	34.65918	109.22921	excellent	Yanliang
Europe/Minsk	06/13/2015, 00:00:00	55.1904	30.2049	excellent	Vitebsk
Asia/Irkutsk	2022-01-27	51.82721	107.60627	excellent	Ulan-Ude
Asia/Yekaterinburg	2021-09-12	54.48147	53.47103	accep	Oktyabr‚Äôskiy
America/Mexico_City	21 Sep 2022	19.32932	-98.1664	maintenance	Contla
Europe/Madrid	01/08/2015, 00:00:00	42.64685	-5.55835	excellent	Villaquilambre
Europe/Berlin	05/16/2016, 00:00:00	51.168	7.973	good	Finnentrop
America/New_York	05/14/2015, 00:00:00	43.16547	-77.70066	good	Gates-North Gates
America/Recife	2018-03-22	-8.66667	-35.71667	good	Catende
Europe/Berlin	10/13/2019, 00:00:00	48.46458	9.22796	average	Pfullingen
Europe/Kiev	01/03/2014, 00:00:00	49.07866	30.96755	good	Zvenihorodka
America/New_York	05/28/2020, 00:00:00	42.35843	-71.05977	maintenance	Boston
Europe/Berlin	14 Feb 2017	49.68369	8.61839	excellent	Bensheim
Europe/Paris	2019/06/12	48.77644	2.29026	accep	Sceaux
Asia/Shanghai	2020/08/16	35.64889	117.27583	good	Sishui
Africa/Monrovia	2018-12-29	7.57944	-8.53778	excellent	New Yekepa
Asia/Karachi	06/23/2020, 00:00:00	32.17629	75.06583	good	Fazilpur
Indian/Antananarivo	2013-07-14	-21.15	46.58333	average	Ikalamavony
Asia/Kolkata	07/25/2013, 00:00:00	10.12268	77.54372	excellent	Periyakulam
Asia/Jerusalem	04 Feb 2019	31.92923	34.86563	maintenance	Ramla
America/New_York	2015-04-10	40.5576	-74.28459	accep	Woodbridge
Europe/Minsk	2013/10/17	52.4089	31.3237	good	Dobrush
Australia/Sydney	09/15/2021, 00:00:00	-34.28853	146.05093	accep	Griffith
America/Vancouver	11/23/2014, 00:00:00	49.88307	-119.48568	average	Kelowna
America/Chicago	2020/11/29	41.80753	-87.65644	excellent	New City
America/Bogota	2017-07-17	6.46838	-73.26022	accep	Socorro
Asia/Tokyo	03 Jan 2014	35.8	137.23333	accep	Gero
Europe/Berlin	12/20/2013, 00:00:00	50.82709	6.9747	excellent	Wesseling
Asia/Jakarta	2019/06/26	-1.26424	104.09701	excellent	Simpang
Asia/Tokyo	2022/08/15	35.8	137.23333	excellent	Gero
Europe/Berlin	07/05/2022, 00:00:00	52.21099	7.02238	good	Gronau
Asia/Tokyo	08/24/2020, 00:00:00	37.56667	140.11667	average	Inawashiro
Africa/Tunis	01/16/2015, 00:00:00	36.08497	9.37082	good	Siliana
Asia/Tokyo	2013/02/21	37.56667	140.11667	good	Inawashiro
America/Chicago	01/28/2013, 00:00:00	32.44874	-99.73314	excellent	Abilene
Asia/Hebron	24 Jun 2019	31.78336	35.23388	excellent	East Jerusalem
America/New_York	09/18/2018, 00:00:00	41.27621	-72.86843	maintenance	East Haven
Europe/Dublin	2018/09/07	53.43333	-7.95	excellent	Athlone
Asia/Manila	2013/01/16	14.8361	120.97844	good	Guyong
America/Fortaleza	2015/11/18	-4.42472	-41.45861	accep	Pedro II
America/New_York	12 Nov 2019	40.72371	-73.95097	accep	Greenpoint
Asia/Jakarta	24 Apr 2017	-7.54972	110.71639	building	Ngemplak
America/Vancouver	2019-01-07	49.88307	-119.48568	excellent	Kelowna
Africa/Accra	2014/09/04	6.46346	-2.31938	good	Bibiani
Europe/Berlin	02/04/2013, 00:00:00	53.94313	10.30215	accep	Bad Segeberg
Europe/Kiev	2021-08-16	46.65581	32.6178	accep	Kherson
Europe/Lisbon	2018/02/15	37.08819	-8.2503	good	Albufeira
America/New_York	2014/01/22	40.24537	-75.64963	excellent	Pottstown
Europe/Paris	2018-05-25	44.92801	4.8951	excellent	Valence
Asia/Karachi	2015-12-24	31.82539	72.54064	average	Sillanwali
America/Lima	15 Dec 2020	-11.94306	-76.70944	excellent	Chosica
America/Recife	2018/10/22	-8.66667	-35.71667	accep	Catende
Europe/Rome	2022-04-26	45.44694	8.62118	excellent	Novara
America/Chicago	01 Apr 2017	37.95143	-91.77127	building	Rolla
Asia/Kolkata	2014/01/25	26.32293	91.00632	accep	Barpeta
Asia/Urumqi	2018/04/06	46.51872	86.00214	good	Hoxtolgay
Africa/Kampala	2015-01-26	3.27833	32.88667	maintenance	Kitgum
Europe/London	2021-02-09	53.00974	-3.05814	excellent	Rhosllanerchrugog
Asia/Bangkok	27 Jun 2020	16.0567	103.65309	excellent	Roi Et
America/Chicago	2015-11-23	35.74788	-95.36969	excellent	Muskogee
America/New_York	2012/11/23	41.0051	-73.78458	good	Scarsdale
Europe/Prague	07 Sep 2019	50.50301	13.63617	building	Most
America/Los_Angeles	2014/01/10	44.99012	-123.02621	accep	Keizer
Asia/Jakarta	06 Oct 2017	-7.54972	110.71639	excellent	Ngemplak
Africa/Algiers	2017-01-16	35.21222	2.31889	average	Ksar Chellala
America/New_York	2015-06-17	41.16704	-73.20483	accep	Bridgeport
Africa/Casablanca	06 Dec 2012	33.92866	-6.90656	good	Temara
Africa/Dar_es_Salaam	2018/11/25	-7.76667	35.7	good	Iringa
America/New_York	05/25/2014, 00:00:00	41.27621	-72.86843	good	East Haven
America/New_York	27 Mar 2016	27.71809	-82.35176	good	Sun City Center
Asia/Shanghai	2017/01/29	29.98869	122.20488	accep	Zhoushan
Europe/Berlin	07 Dec 2016	50.72043	11.34046	maintenance	Rudolstadt
Europe/Moscow	05/08/2021, 00:00:00	53.95278	32.86389	average	Roslavl‚Äô
America/Lima	2021/03/19	-16.25	-69.08333	excellent	Yunguyo
Asia/Yekaterinburg	04 Mar 2020	51.4781	57.3552	accep	Kuvandyk
America/Mexico_City	2014-01-04	19.32889	-99.32556	average	San Lorenzo Acopilco
Asia/Yekaterinburg	2020-01-29	58.04254	65.27258	excellent	Tavda
Europe/London	2020-11-22	52.66277	-2.01111	accep	Great Wyrley
America/Chicago	2019-05-19	32.35126	-95.30106	good	Tyler
Europe/London	06 May 2014	51.40148	-1.32471	accep	Newbury
Asia/Karachi	2020/08/01	26.9423	68.11759	excellent	Tharu Shah
Europe/London	04/18/2014, 00:00:00	50.82882	-0.32247	accep	Lancing
Europe/London	11 Jan 2014	50.75767	-1.5443	average	Lymington
America/Chicago	05 Aug 2021	41.57721	-93.71133	excellent	West Des Moines
America/New_York	08/16/2014, 00:00:00	41.16704	-73.20483	good	Bridgeport
Europe/Moscow	2017-07-16	56.85836	35.90057	excellent	Tver
Europe/Berlin	13 Mar 2015	49.13645	8.91229	good	Eppingen
Europe/Warsaw	2013-06-23	51.14942	15.00835	average	Zgorzelec
Asia/Shanghai	10/19/2015, 00:00:00	35.64889	117.27583	average	Sishui
Asia/Baku	2021-10-05	41.09246	45.36561	average	Qazax
America/Sao_Paulo	2013/04/07	-20.87306	-48.29694	maintenance	Viradouro
America/Los_Angeles	06/13/2019, 00:00:00	33.93113	-117.54866	average	Norco
Europe/Berlin	24 May 2016	49.68369	8.61839	average	Bensheim
Africa/Lagos	2013/04/30	6.8485	3.64633	good	Shagamu
America/New_York	2021/01/04	38.96372	-76.99081	maintenance	Chillum
America/Porto_Velho	06/26/2018, 00:00:00	-8.76194	-63.90389	good	Porto Velho
Europe/Zagreb	2020/09/22	43.50891	16.43915	good	Split
America/Sao_Paulo	04 Nov 2014	-28.24	-48.67028	excellent	Imbituba
Europe/Madrid	11 Jan 2022	42.64685	-5.55835	accep	Villaquilambre
Europe/London	19 Oct 2014	53.83333	-2.98333	accep	Poulton-le-Fylde
Europe/Vienna	25 Jun 2016	47.05	15.46667	good	Sankt Peter
Europe/Madrid	2020/08/21	41.41204	2.18247	good	el Camp de l'Arpa del Clot
America/Mexico_City	02/15/2022, 00:00:00	19.32889	-99.32556	accep	San Lorenzo Acopilco
Asia/Tehran	2018/03/30	36.64852	51.49621	building	Nowshahr
America/Boise	30 Sep 2015	43.54072	-116.56346	maintenance	Nampa
America/New_York	10/04/2012, 00:00:00	26.91756	-82.07842	excellent	Punta Gorda Isles
America/Chicago	12/24/2016, 00:00:00	41.85059	-87.882	excellent	Westchester
America/New_York	2015-04-05	40.65538	-74.38987	excellent	Scotch Plains
Asia/Damascus	2022/01/05	34.5624	38.28402	accep	Tadmur
Europe/Kiev	2015/08/31	51.67822	33.9162	excellent	Hlukhiv
America/New_York	2017/11/21	43.16547	-77.70066	excellent	Gates-North Gates
America/New_York	2016-02-24	39.00622	-77.4286	maintenance	Sterling
America/New_York	05/21/2017, 00:00:00	40.72816	-74.07764	accep	Jersey City
Europe/Moscow	12 Jun 2018	55.85	37.56667	accep	Likhobory
Europe/London	06/04/2021, 00:00:00	50.79205	-1.08593	good	Southsea
Europe/Samara	2015-01-15	53.37596	51.3452	accep	Otradnyy
Europe/London	2018-12-05	57.47908	-4.22398	building	Inverness
America/Bahia	2020-10-25	-11.48472	-37.93278	maintenance	Rio Real
Indian/Reunion	2015/03/19	-20.88231	55.4504	accep	Saint-Denis
Asia/Seoul	2015/03/02	36.82167	128.63083	average	Eisen
America/Chicago	16 Oct 2013	38.58894	-89.99038	excellent	Fairview Heights
Asia/Kolkata	07/13/2021, 00:00:00	24.41288	76.56719	excellent	Aklera
Africa/Maputo	15 Apr 2020	-23.85972	35.34722	accep	Maxixe
Europe/Madrid	01 Apr 2013	38.38479	-0.76773	building	Novelda
Asia/Kolkata	2019-11-26	22.88783	84.13864	excellent	Jashpurnagar
America/Sao_Paulo	07/30/2017, 00:00:00	-26.22861	-52.67056	maintenance	Pato Branco
America/Sao_Paulo	04/28/2018, 00:00:00	-20.25333	-43.80139	good	Itabirito
America/Chicago	2019-12-27	30.16688	-96.39774	excellent	Brenham
Africa/Casablanca	05/28/2020, 00:00:00	34.31	-2.16	excellent	Jerada
Asia/Bangkok	30 Apr 2015	16.0567	103.65309	good	Roi Et
America/Chicago	08 Apr 2015	39.09112	-94.41551	building	Independence
Europe/Moscow	2016-01-31	54.84444	38.16694	accep	Kashira
Africa/Accra	02 Oct 2014	6.46346	-2.31938	maintenance	Bibiani
Asia/Jakarta	01/02/2020, 00:00:00	-7.51611	109.05389	average	Wangon
Asia/Tokyo	2013-02-16	36.65	138.31667	good	Suzaka
Europe/Minsk	09/10/2022, 00:00:00	52.4089	31.3237	maintenance	Dobrush
Africa/Dar_es_Salaam	2016/04/21	-7.60361	37.00438	accep	Kidodi
America/Chicago	17 May 2021	31.84568	-102.36764	average	Odessa
Europe/London	11/13/2016, 00:00:00	53.83333	-2.98333	maintenance	Poulton-le-Fylde
Europe/London	2014-01-31	53.7446	-0.33525	maintenance	Kingston upon Hull
Europe/Berlin	21 Jul 2022	52.86147	9.5926	good	Walsrode
Asia/Yekaterinburg	2022/07/31	58.04254	65.27258	excellent	Tavda
Indian/Antananarivo	05 Mar 2016	-21.15	46.58333	maintenance	Ikalamavony
Asia/Kuala_Lumpur	2016/01/28	2.2139	102.3278	maintenance	Kampung Ayer Molek
Asia/Kolkata	2021/06/21	10.10649	76.35484	maintenance	Alwaye
Europe/Warsaw	2017/05/10	50.5107	18.30056	building	Strzelce Opolskie
Asia/Manila	15 Nov 2015	14.8361	120.97844	excellent	Guyong
Asia/Karachi	2020-06-22	29.38242	70.91106	good	Alipur
America/New_York	2017-06-18	34.06635	-84.67837	excellent	Acworth
Asia/Seoul	2022/03/04	34.8825	128.62667	good	Sinhyeon
America/Puerto_Rico	2017-10-17	18.42745	-67.15407	good	Aguadilla
Europe/Berlin	18 Jun 2016	51.08468	7.11393	average	Burscheid
Europe/Berlin	09/04/2014, 00:00:00	48.52961	12.16179	good	Landshut
Asia/Kolkata	2022/07/23	23.07492	88.28637	excellent	Pandua
Europe/Warsaw	12/26/2014, 00:00:00	51.14942	15.00835	average	Zgorzelec
America/Chicago	03/18/2020, 00:00:00	31.76212	-95.63079	average	Palestine
Europe/London	05/24/2016, 00:00:00	50.11861	-5.53715	excellent	Penzance
Africa/Lagos	2013-10-11	4.92675	6.26764	good	Yenagoa
Europe/Prague	07 Apr 2017	50.50301	13.63617	excellent	Most
America/Sao_Paulo	18 Nov 2015	-19.72806	-50.19556	good	Iturama
America/New_York	22 Dec 2014	41.50343	-74.01042	excellent	Newburgh
America/Sao_Paulo	07/08/2019, 00:00:00	-19.32556	-41.25528	average	Resplendor
Europe/London	2015-08-09	53.19146	-2.52398	average	Winsford
Europe/Berlin	04 Oct 2018	47.98372	10.18527	maintenance	Memmingen
Europe/Minsk	29 Mar 2015	53.5942	25.8191	maitennce	Novogrudok
America/Los_Angeles	05 Sep 2015	45.53929	-122.38731	good	Troutdale
Asia/Bangkok	2014/12/14	6.25947	102.05461	accep	Tak Bai
Asia/Makassar	17 Jun 2019	3.31332	117.59152	average	Tarakan
Europe/Moscow	04/09/2022, 00:00:00	54.39304	53.26023	average	Bavly
Asia/Tokyo	07 Feb 2015	33.4425	129.96972	average	Karatsu
America/New_York	2019/12/28	39.32288	-76.72803	maintenance	Woodlawn
Asia/Shanghai	2014-10-07	42.64031	125.51176	good	Dongfeng
Europe/Paris	08/04/2015, 00:00:00	45.69558	4.7934	good	Saint-Genis-Laval
America/Los_Angeles	01/26/2018, 00:00:00	32.9156	-117.14392	maintenance	Mira Mesa
Asia/Colombo	10/14/2020, 00:00:00	6.9909	79.883	maintenance	Hendala
Asia/Kolkata	27 Dec 2012	12.1277	78.15794	maintenance	Dharmapuri
Asia/Baghdad	02/21/2019, 00:00:00	32.61603	44.02488	good	Karbala
America/Mexico_City	05 Sep 2017	21.01858	-101.2591	average	Guanajuato
America/Argentina/Cordoba	2017/03/06	-31.4488	-60.93173	maintenance	Esperanza
Europe/Brussels	01/10/2016, 00:00:00	50.8	3.16667	maintenance	Wevelgem
Africa/Blantyre	09/22/2015, 00:00:00	-13.7804	34.4587	good	Salima
America/Chicago	09/16/2014, 00:00:00	41.8542	-87.66561	building	Lower West Side
America/New_York	11/07/2021, 00:00:00	25.67927	-80.31727	accep	Kendall
America/Los_Angeles	02/24/2015, 00:00:00	38.54491	-121.74052	maintenance	Davis
America/New_York	07 Apr 2019	33.98154	-81.23621	accep	Lexington
Europe/Rome	04 Feb 2021	36.92574	14.72443	maintenance	Ragusa
Asia/Yekaterinburg	02/08/2018, 00:00:00	54.48147	53.47103	accep	Oktyabr‚Äôskiy
America/Chicago	20 May 2017	37.95143	-91.77127	maintenance	Rolla
Asia/Kolkata	10/12/2019, 00:00:00	28.98002	77.70636	building	Meerut
Europe/London	2019/06/16	57.14369	-2.09814	good	Aberdeen
Asia/Bangkok	28 Dec 2014	15.46063	99.89166	accep	Thap Than
Africa/Lagos	2020/11/19	6.8485	3.64633	excellent	Shagamu
Europe/Berlin	05/30/2018, 00:00:00	48.28259	9.72749	accep	Ehingen
Europe/Istanbul	2015-11-26	37.31309	40.74357	excellent	Mardin
America/Bahia	29 Nov 2013	-10.95817	-38.79084	excellent	Tucano
Asia/Shanghai	19 Oct 2019	41.09822	120.74792	accep	Nanpiao
America/New_York	2021/03/30	40.94065	-73.99681	excellent	Dumont
America/Sao_Paulo	2017/01/24	-22.92306	-53.13722	excellent	Loanda
Asia/Shanghai	12/25/2015, 00:00:00	34.65918	109.22921	good	Yanliang
America/Argentina/Cordoba	11/16/2020, 00:00:00	-31.25033	-61.4867	good	Rafaela
America/New_York	2021-04-04	30.17746	-81.38758	average	Palm Valley
Europe/Madrid	03/09/2016, 00:00:00	37.13548	-3.67029	accep	Las Gabias
Asia/Shanghai	2012-12-14	23.29549	113.82465	maintenance	Licheng
Asia/Kolkata	2018-02-28	29.21399	78.95693	building	Kashipur
Europe/Berlin	09/01/2017, 00:00:00	52.4581	13.28702	good	Dahlem
America/Bahia	2016/12/26	-15.675	-38.94722	average	Canavieiras
America/Manaus	02/04/2022, 00:00:00	-3.14306	-58.44417	accep	Itacoatiara
Asia/Tokyo	2017/07/04	39.46667	141.95	good	Yamada
Africa/Lubumbashi	2020/05/15	0.49113	29.47306	accep	Beni
Europe/Paris	2018/01/27	48.86667	2.08333	good	Marly-le-Roi
Asia/Tokyo	02/11/2017, 00:00:00	39.46667	141.95	excellent	Yamada
Europe/London	31 May 2022	53.46506	-1.47217	accep	Chapletown
America/New_York	06/16/2013, 00:00:00	41.54566	-71.29144	excellent	Middletown
Africa/Monrovia	12/24/2012, 00:00:00	7.57944	-8.53778	average	New Yekepa
Europe/Samara	2013-02-24	53.37596	51.3452	average	Otradnyy
America/Chicago	11/14/2018, 00:00:00	42.55308	-87.93341	good	Pleasant Prairie
Asia/Jakarta	19 Jun 2013	-1.26424	104.09701	average	Simpang
Asia/Kolkata	2013-03-27	12.1277	78.15794	excellent	Dharmapuri
America/Matamoros	2014-10-09	25.87972	-97.50417	excellent	Heroica Matamoros
Asia/Kuala_Lumpur	11/28/2018, 00:00:00	1.6561	103.6032	excellent	Kulai
America/Jamaica	07/03/2014, 00:00:00	18.00747	-76.78319	accep	New Kingston
Pacific/Efate	03 Aug 2021	-17.73648	168.31366	maintenance	Port-Vila
Asia/Taipei	02/06/2019, 00:00:00	23.5654	119.58627	good	Magong
Asia/Kolkata	2017/12/10	11.12018	76.11996	maintenance	Manjeri
America/Fortaleza	07/05/2016, 00:00:00	-4.16694	-40.7475	average	Guaraciaba do Norte
Europe/Paris	04/17/2014, 00:00:00	43.11667	1.6	maintenance	Pamiers
Asia/Tashkent	2012/12/04	40.78206	72.34424	building	Andijon
Asia/Manila	29 Oct 2017	10.20898	123.758	good	Naga
Europe/Berlin	10 Dec 2012	52.4581	13.28702	excellent	Dahlem
Europe/Paris	2017/01/27	43.11667	1.6	excellent	Pamiers
Asia/Yekaterinburg	2021-08-20	54.48147	53.47103	average	Oktyabr‚Äôskiy
America/Chicago	10/07/2015, 00:00:00	42.16808	-88.42814	accep	Huntley
Africa/Abidjan	2022-03-24	5.27247	-3.59625	good	Bonoua
Europe/Volgograd	11/08/2021, 00:00:00	50.06	43.2379	excellent	Mikhaylovka
America/Chicago	03/25/2017, 00:00:00	33.45122	-86.99666	excellent	Hueytown
Asia/Shanghai	2022-01-25	35.50056	117.63083	maintenance	Pingyi
Asia/Shanghai	2018-07-05	41.94175	123.50266	good	Hushitai
Africa/Lagos	2016-09-18	7.6	4.18333	excellent	Olupona
Asia/Tehran	02/26/2020, 00:00:00	35.6803	51.0193	average	Shahre Jadide Andisheh
Asia/Kuala_Lumpur	2021/10/28	1.6	103.81667	good	Ulu Tiram
Asia/Tehran	2020/01/30	36.64852	51.49621	average	Nowshahr
Europe/Rome	2018/08/21	41.72063	12.6723	average	Ariccia
Asia/Jakarta	31 Dec 2012	-7.57897	112.23109	excellent	Diwek
America/Sao_Paulo	06/02/2022, 00:00:00	-22.53722	-42.98194	average	Guapimirim
America/New_York	2020/04/25	40.72816	-74.07764	maintenance	Jersey City
America/Caracas	23 Sep 2022	8.35122	-62.64102	maintenance	Ciudad Guayana
Atlantic/Azores	2016/06/05	37.74615	-25.66689	average	Ponta Delgada
America/Chicago	2018-10-23	29.53885	-95.44744	average	Fresno
Asia/Aden	09/18/2020, 00:00:00	14.53767	46.83187	building	Ataq
Europe/London	2022-06-27	53.49389	-1.29243	average	Mexborough
Asia/Kolkata	21 May 2014	30.21121	74.4818	good	Malaut
America/New_York	04 Nov 2019	38.70734	-77.02303	excellent	Fort Washington
Asia/Kolkata	2018-11-29	23.49668	86.68363	accep	Adra
Europe/Paris	2021-01-26	43.71032	-1.05366	maintenance	Dax
Africa/Gaborone	23 Oct 2016	-21.44236	27.46153	average	Tonota
Africa/Algiers	04/03/2018, 00:00:00	36.72544	3.55665	excellent	Thenia
America/Bahia	17 Jan 2022	-15.675	-38.94722	good	Canavieiras
Europe/Berlin	2016/04/09	49.97704	9.15214	accep	Aschaffenburg
America/Los_Angeles	2016-08-11	47.38093	-122.23484	acceptable	Kent
America/New_York	2019-05-27	39.32288	-76.72803	maintenance	Woodlawn
Asia/Tokyo	03/12/2019, 00:00:00	36	139.55722	good	Okegawa
Asia/Jakarta	2015-11-01	-6.91806	106.92667	excellent	Sukabumi
Europe/Bratislava	2015-05-26	48.8449	17.22635	maintenance	Skalica
Asia/Kolkata	2015-03-15	10.12268	77.54372	good	Periyakulam
Europe/Rome	05/02/2022, 00:00:00	37.51803	15.00913	average	Misterbianco
America/Havana	26 Aug 2017	23.0072	-82.4017	maintenance	Boyeros
America/Chicago	2017-04-17	41.15376	-87.88754	accep	Bourbonnais
Europe/Istanbul	2016/05/17	37.31309	40.74357	accep	Mardin
Asia/Yerevan	11/04/2016, 00:00:00	40.49748	44.7662	good	Hrazdan
America/Chicago	04/13/2020, 00:00:00	33.45122	-86.99666	average	Hueytown
Europe/Dublin	09/30/2013, 00:00:00	53.53333	-7.35	average	An Muileann gCearr
America/New_York	2018/01/13	27.71809	-82.35176	excellent	Sun City Center
Europe/Paris	2015-05-07	44.80477	-0.59543	building	Talence
Asia/Tashkent	2019-05-18	41.29444	69.67639	average	Parkent
Africa/Nairobi	07 May 2014	0.46005	34.11169	excellent	Busia
Asia/Tokyo	2021-06-08	34.9	137.5	excellent	Shinshiro
Asia/Kolkata	04/04/2021, 00:00:00	29.22254	79.5286	accep	Haldwani
America/Havana	07/19/2015, 00:00:00	23.04419	-82.00919	excellent	Jaruco
Europe/Paris	2018-02-27	43.11667	1.6	average	Pamiers
America/Chicago	19 Jul 2019	36.61033	-88.31476	accep	Murray
Europe/London	19 Jan 2022	51.40148	-1.32471	accep	Newbury
Asia/Tokyo	2020/11/02	36.24624	139.07204	accep	Fujioka
Europe/Helsinki	2020/10/02	60.2052	24.6522	good	Espoo
Asia/Kolkata	09/02/2022, 00:00:00	25.13915	73.06784	accep	Sheoganj
Asia/Shanghai	2017-07-22	37.73222	115.70111	maintenance	Hengshui
America/Argentina/Ushuaia	2020-11-04	-54.8	-68.3	good	Ushuaia
America/Edmonton	02 May 2017	53.51684	-113.3187	accep	Sherwood Park
Europe/Moscow	06/20/2016, 00:00:00	42.819	47.1192	accep	Buynaksk
America/Bogota	05/06/2016, 00:00:00	10.15031	-73.9614	good	El Copey
Europe/Moscow	10/03/2017, 00:00:00	53.53041	43.67663	maintenance	Nizhniy Lomov
Asia/Shanghai	05 Dec 2013	27.85	112.9	building	Xiangtan
Europe/Helsinki	2020-01-05	60.2052	24.6522	average	Espoo
Europe/Berlin	2013/11/14	51.21667	6.26667	average	Schwalmtal
America/Fortaleza	2015/01/01	-4.24444	-42.29444	accep	Barras
Asia/Kolkata	11/02/2015, 00:00:00	26.76628	83.36889	building	Gorakhpur
America/Los_Angeles	2015/10/28	32.9156	-117.14392	average	Mira Mesa
Europe/Berlin	03/27/2016, 00:00:00	53.6052	10.03988	average	Barmbek-Nord
Asia/Karachi	07/18/2021, 00:00:00	30.46907	70.96699	maitennce	Kot Addu
Europe/Berlin	12/08/2018, 00:00:00	52.86147	9.5926	excellent	Walsrode
Asia/Jakarta	2021/01/21	-7.81667	112.01667	good	Kediri
Europe/Belgrade	08/24/2020, 00:00:00	44.97639	19.61222	average	Sremska Mitrovica
Africa/Lagos	28 Jan 2020	6.15038	6.83042	average	Nkpor
America/Bahia	2019-11-15	-12.91667	-39.25	excellent	Muritiba
Europe/Kiev	01 Jun 2019	51.67822	33.9162	good	Hlukhiv
America/Sao_Paulo	04 Jul 2015	-20.25333	-43.80139	good	Itabirito
Europe/Vilnius	2016-06-07	55.25	24.75	excellent	Ukmerge
America/Toronto	27 Jun 2014	45.44868	-73.81669	average	Pointe-Claire
Asia/Shanghai	2012-12-16	34.56861	105.89333	excellent	Beidao
Europe/London	2018/09/19	51.39323	0.47713	average	Strood
Asia/Tokyo	30 May 2013	34.81667	137.4	average	Toyokawa
Europe/London	20 Jan 2021	51.40148	-1.32471	accep	Newbury
Africa/Cairo	05/29/2017, 00:00:00	31.20176	29.91582	good	Alexandria
Europe/Berlin	2015-03-17	48.06919	11.37703	average	Gauting
Europe/Istanbul	07/05/2017, 00:00:00	40.37528	28.88222	average	Mudanya
Asia/Kolkata	2017-08-28	26.11527	86.59509	accep	Supaul
Europe/Rome	2019/05/03	44.89784	8.86374	average	Tortona
Europe/London	2021/01/06	52.41667	0.75	accep	Thetford
Asia/Dhaka	16 Oct 2012	22.83957	91.84128	maintenance	Manikchari
Africa/Tripoli	05/23/2015, 00:00:00	30.75545	20.22625	excellent	Ajdabiya
Europe/Berlin	12/30/2021, 00:00:00	50.64336	7.2278	good	Bad Honnef
Africa/Lagos	2013-06-26	6.45407	3.39467	maintenance	Lagos
America/Toronto	04/09/2013, 00:00:00	43.86682	-79.2663	average	Markham
America/Montevideo	08/15/2013, 00:00:00	-33.38056	-56.52361	accep	Durazno
Europe/Berlin	2020/07/26	48.35693	10.98461	accep	Friedberg
America/Porto_Velho	2019/10/08	-8.76194	-63.90389	average	Porto Velho
Asia/Kolkata	11/12/2014, 00:00:00	28.98002	77.70636	excellent	Meerut
Europe/Rome	07/26/2019, 00:00:00	45.78071	12.84052	accep	Portogruaro
Asia/Kolkata	20 Apr 2022	22.4711	88.1453	good	Pujali
Europe/London	07/08/2021, 00:00:00	51.84819	1.26738	good	Walton-on-the-Naze
Asia/Qyzylorda	2015/09/24	44.85278	65.50917	good	Kyzylorda
America/Sao_Paulo	2020/09/30	-19.7625	-44.31389	accep	Esmeraldas
Europe/Moscow	2013-02-05	64.5635	39.8302	good	Severodvinsk
Asia/Manila	2013/03/07	14.14989	121.3152	average	Calauan
Asia/Tehran	2013/08/29	33.86419	48.26258	average	Aleshtar
America/Santiago	2013-05-24	-32.45242	-71.23106	accep	La Ligua
America/Los_Angeles	07/22/2020, 00:00:00	34.09611	-118.10583	excellent	San Gabriel
America/Detroit	2015/04/23	42.97086	-82.42491	average	Port Huron
America/Chicago	2014/07/09	44.73941	-93.12577	accep	Rosemount
Europe/Rome	2013/11/10	45.39402	9.29109	excellent	San Giuliano Milanese
America/Caracas	01/24/2017, 00:00:00	10.22677	-67.33122	average	La Victoria
America/Argentina/Cordoba	2018/10/31	-31.25033	-61.4867	average	Rafaela
Asia/Shanghai	11/03/2013, 00:00:00	23.02677	113.13148	excellent	Foshan
Europe/London	2021/05/23	50.79205	-1.08593	average	Southsea
Europe/Paris	2020/08/07	43.83125	5.03586	average	Cavaillon
America/Chicago	07/01/2016, 00:00:00	31.76212	-95.63079	accep	Palestine
America/Toronto	12/12/2016, 00:00:00	45.44868	-73.81669	good	Pointe-Claire
Europe/Berlin	2015/01/13	51.19139	6.51352	average	Korschenbroich
America/Sao_Paulo	01/18/2022, 00:00:00	-22.53722	-42.98194	accep	Guapimirim
Asia/Tokyo	2015/01/25	37.56667	140.11667	accep	Inawashiro
Asia/Seoul	2021-01-24	37.65639	126.835	average	Goyang-si
America/Boise	2019/11/15	43.54072	-116.56346	accep	Nampa
Asia/Manila	26 Jul 2016	9.6531	124.3697	accep	Jagna
Asia/Manila	09/24/2017, 00:00:00	12.97389	123.99333	good	Sorsogon
Asia/Kolkata	2019/03/25	11.50526	77.23826	accep	Sathyamangalam
America/New_York	2015/05/24	43.61062	-72.97261	excellent	Rutland
Africa/Casablanca	23 Jun 2014	34.31	-2.16	average	Jerada
Europe/Lisbon	10/09/2020, 00:00:00	38.72706	-9.24671	good	Carnaxide
America/New_York	2021-11-22	39.96097	-75.60804	average	West Chester
America/New_York	06/30/2021, 00:00:00	41.55815	-73.0515	maintenance	Waterbury
Africa/Lubumbashi	06/19/2013, 00:00:00	0.76755	24.43973	maitennce	Yangambi
Asia/Samarkand	11/21/2017, 00:00:00	40.11583	67.84222	good	Jizzax
America/New_York	2014-09-21	41.16704	-73.20483	excellent	Bridgeport
Asia/Karachi	2013/08/29	30.76468	74.12286	good	Kanganpur
Europe/Moscow	2021/01/01	53.93361	37.92792	building	Kireyevsk
Australia/Sydney	08/09/2015, 00:00:00	-33.79176	151.08057	average	Eastwood
Europe/Istanbul	2020-02-23	38.37255	34.02537	building	Aksaray
America/New_York	2018-03-04	38.96372	-76.99081	good	Chillum
Asia/Kolkata	28 Oct 2018	25.13915	73.06784	good	Sheoganj
Australia/Melbourne	23 Sep 2016	-38.16604	145.13643	excellent	Frankston South
Africa/Lagos	2016/03/15	12.74482	4.52514	good	Argungu
Europe/Berlin	2014/01/27	52.86147	9.5926	maintenance	Walsrode
Asia/Kolkata	2018-08-20	24.81757	84.63445	excellent	Rafiganj
Europe/Copenhagen	19 May 2022	55.67938	12.53463	accep	Frederiksberg
America/New_York	2018/10/31	30.17746	-81.38758	accep	Palm Valley
Asia/Tokyo	30 Sep 2014	35.8	137.23333	accep	Gero
America/Argentina/Buenos_Aires	2016-11-20	-34.64966	-58.38341	good	Barracas
Asia/Yangon	2015/01/13	16.68911	98.50893	excellent	Myawadi
Africa/Windhoek	10/26/2018, 00:00:00	-21.98333	16.91667	excellent	Okahandja
Europe/Prague	2021/03/06	50.23271	12.87117	building	Karlovy Vary
America/Havana	2018/08/08	23.0072	-82.4017	average	Boyeros
Europe/Warsaw	2021/02/04	50.5107	18.30056	maintenance	Strzelce Opolskie
America/Mexico_City	2014/12/15	19.04222	-98.11889	accep	Casa Blanca
Europe/Warsaw	01/05/2015, 00:00:00	50.20528	19.27498	accep	Jaworzno
Europe/Helsinki	2021/12/08	60.2052	24.6522	average	Espoo
Asia/Kuala_Lumpur	09 May 2013	4.88441	101.96857	good	Gua Musang
America/Panama	03/13/2017, 00:00:00	8.88988	-79.62603	good	Veracruz
Europe/Kiev	07/15/2020, 00:00:00	49.65186	26.97253	average	Krasyliv
Asia/Yangon	27 Dec 2015	14.0823	98.19151	good	Dawei
Europe/Berlin	01 Nov 2021	53.59337	9.47629	average	Stade
Africa/Lagos	09 Mar 2018	6.8485	3.64633	average	Shagamu
America/Toronto	02/14/2017, 00:00:00	45.40008	-73.58248	excellent	Sainte-Catherine
Asia/Manila	2019/06/14	10.31672	123.89071	accep	Cebu City
Asia/Bangkok	12 Jan 2021	6.25947	102.05461	excellent	Tak Bai
America/New_York	26 Sep 2018	40.65538	-74.38987	accep	Scotch Plains
Europe/Warsaw	04 Oct 2018	54.58048	16.86194	good	Ustka
Asia/Riyadh	09/13/2014, 00:00:00	27.0174	49.62251	good	Al Jubayl
America/Los_Angeles	09/21/2022, 00:00:00	33.7207	-116.21677	accep	Indio
Europe/Moscow	05/26/2013, 00:00:00	55.62047	37.49338	average	Tyoply Stan
Asia/Colombo	03/29/2018, 00:00:00	6.84019	79.87116	maintenance	Dehiwala-Mount Lavinia
Asia/Shanghai	2017-10-17	38.40917	112.73333	good	Xinzhou
Europe/Madrid	02/27/2015, 00:00:00	41.91738	3.1631	accep	Palafrugell
Asia/Hong_Kong	2015-12-18	22.37066	114.10479	average	Tsuen Wan
America/Chicago	2015/06/26	45.0408	-93.263	excellent	Columbia Heights
Asia/Shanghai	10/20/2019, 00:00:00	37.73222	115.70111	average	Hengshui
Asia/Hong_Kong	2014/01/26	22.37066	114.10479	accep	Tsuen Wan
America/Argentina/Buenos_Aires	07/06/2015, 00:00:00	-37.32167	-59.13316	good	Tandil
America/Mexico_City	26 Aug 2015	19.04222	-98.11889	excellent	Casa Blanca
Europe/Berlin	2012/12/18	50.80019	7.20769	excellent	Siegburg
Africa/Brazzaville	06 Mar 2014	-4.26613	15.28318	accep	Brazzaville
Europe/London	2015-01-08	53.00974	-3.05814	good	Rhosllanerchrugog
Europe/Rome	10/31/2019, 00:00:00	45.50369	11.412	average	Montecchio Maggiore-Alte Ceccato
Asia/Kuala_Lumpur	06/14/2013, 00:00:00	2.2139	102.3278	accep	Kampung Ayer Molek
America/Guayaquil	2015/01/18	-2.13404	-79.59415	average	Milagro
America/New_York	15 Apr 2016	41.16704	-73.20483	average	Bridgeport
Africa/Maputo	20 Jan 2014	-23.85972	35.34722	excellent	Maxixe
Asia/Kuala_Lumpur	2015-01-28	4.88441	101.96857	building	Gua Musang
America/Los_Angeles	03/06/2015, 00:00:00	47.80527	-122.24064	good	Bothell West
America/New_York	2016/08/17	27.09978	-82.45426	good	Venice
Africa/Lagos	2012/10/09	6.15038	6.83042	building	Nkpor
America/Bogota	2013-05-25	4.73245	-74.26419	excellent	Madrid
America/Los_Angeles	2012/10/28	36.20829	-115.98391	maintenance	Pahrump
Europe/Madrid	2013/12/14	38.68712	-4.10734	average	Puertollano
Europe/Brussels	07/04/2019, 00:00:00	51.21187	4.25633	maintenance	Beveren
Asia/Kolkata	2022/06/20	28.98002	77.70636	average	Meerut
America/Puerto_Rico	2018/02/11	18.03496	-66.8499	average	Yauco
Africa/Tunis	15 Jul 2022	36.08497	9.37082	average	Siliana
America/New_York	07/03/2013, 00:00:00	33.54428	-84.23381	good	Stockbridge
Europe/Paris	2013/07/26	43.83125	5.03586	excellent	Cavaillon
Africa/Lubumbashi	2016/04/26	0.76755	24.43973	excellent	Yangambi
Africa/Niamey	02/03/2020, 00:00:00	13.70727	9.15013	maintenance	Mirriah
Europe/Istanbul	12 Jul 2015	40.37528	28.88222	average	Mudanya
Asia/Shanghai	03/27/2015, 00:00:00	34.86472	117.55417	accep	Zaozhuang
America/Chicago	12/01/2018, 00:00:00	36.61033	-88.31476	acceptable	Murray
Asia/Kabul	2021/05/05	36.21544	65.93249	accep	Sar-e Pul
Africa/Dar_es_Salaam	03/04/2014, 00:00:00	-4.83	29.65806	building	Mwandiga
Europe/Brussels	17 Jul 2013	51.12794	4.21372	average	Temse
Europe/Lisbon	03/11/2019, 00:00:00	41.1053	-7.32097	excellent	Custoias
Pacific/Efate	06 Nov 2012	-17.73648	168.31366	accep	Port-Vila
Europe/Rome	02/15/2014, 00:00:00	41.72063	12.6723	excellent	Ariccia
America/New_York	2016-09-13	40.2737	-76.88442	good	Harrisburg
Pacific/Efate	03/10/2018, 00:00:00	-17.73648	168.31366	accep	Port-Vila
Asia/Kuala_Lumpur	2019-07-02	1.6561	103.6032	average	Kulai
Asia/Jakarta	2019-11-14	3.7278	98.6738	average	Labuhan Deli
Europe/Berlin	12/10/2021, 00:00:00	52.4581	13.28702	accep	Dahlem
Asia/Seoul	21 Oct 2016	34.8825	128.62667	accep	Sinhyeon
America/Sao_Paulo	26 Jun 2016	-25.42944	-50.00639	accep	Palmeira
Asia/Kolkata	2019-03-08	25.75728	75.37991	accep	Deoli
Asia/Kolkata	2021/05/15	28.98002	77.70636	excellent	Meerut
Atlantic/Canary	03 Aug 2020	27.76056	-15.58602	average	Maspalomas
Europe/Madrid	2022/03/09	38.47917	-1.325	average	Jumilla
Asia/Shanghai	2022-05-21	35.50056	117.63083	accep	Pingyi
America/Sao_Paulo	28 Jan 2022	-22.53722	-42.98194	building	Guapimirim
Asia/Kolkata	2013/03/19	22.19303	88.18466	average	Diamond Harbour
Asia/Qyzylorda	2014/01/28	44.85278	65.50917	excellent	Kyzylorda
Europe/London	2020/05/02	53.69786	-2.68758	accep	Leyland
Africa/Johannesburg	2016-10-27	-27.76952	30.79165	average	Vryheid
Europe/Amsterdam	07 Jan 2020	51.44889	5.51978	good	Tongelre
Australia/Brisbane	03/04/2017, 00:00:00	-25.54073	152.70493	good	Maryborough
Europe/Paris	19 Jun 2014	43.11667	1.6	average	Pamiers
Asia/Makassar	2021-06-22	-1.26753	116.82887	average	Balikpapan
Europe/Madrid	2019-07-07	42.06166	-1.60452	excellent	Tudela
America/Los_Angeles	07/04/2021, 00:00:00	36.20829	-115.98391	excellent	Pahrump
Asia/Tokyo	2022/07/29	36.65	138.31667	maintenance	Suzaka
America/New_York	15 Feb 2016	41.48199	-81.79819	building	Lakewood
Europe/Stockholm	17 Aug 2015	59.33333	18.28333	good	Boo
Africa/Dar_es_Salaam	01/30/2016, 00:00:00	-6.25	38.66667	accep	Mvomero
Asia/Karachi	07 Apr 2016	25.80565	68.49143	good	Bhit Shah
America/New_York	2018/01/18	41.0051	-73.78458	accep	Scarsdale
Asia/Kolkata	22 Oct 2017	12.25282	79.41727	good	Gingee
Asia/Yekaterinburg	2021-03-14	51.4781	57.3552	accep	Kuvandyk
Asia/Kolkata	2015/08/17	17.54907	82.85749	accep	Elamanchili
America/Chicago	2012-11-02	29.53885	-95.44744	acceptable	Fresno
America/Sao_Paulo	2018-11-08	-28.81833	-52.51028	maintenance	Soledade
Europe/London	01/16/2016, 00:00:00	57.14369	-2.09814	average	Aberdeen
Europe/London	2019-11-19	57.14369	-2.09814	excellent	Aberdeen
Asia/Kolkata	2020/10/11	25.13915	73.06784	accep	Sheoganj
