latitude	revision	location	QoS	longitude	station
-11.48472	07/27/2018, 00:00:00	America/Bahia	building	-37.93278	Rio Real
51.67822	2021-12-18	Europe/Kiev	maintenance	33.9162	Hlukhiv
34.06635	03/31/2016, 00:00:00	America/New_York	excellent	-84.67837	Acworth
41.91886	05/22/2015, 00:00:00	Europe/Paris	good	8.73812	Ajaccio
-22.45667	09/01/2015, 00:00:00	America/Sao_Paulo	good	-47.53028	Santa Gertrudes
59.37722	20 Jun 2022	Europe/Tallinn	excellent	28.19028	Narva
11.85	2016/11/19	Africa/Addis_Ababa	excellent	38.01667	Debre Tabor
40.93121	01/29/2021, 00:00:00	America/New_York	good	-73.89875	Yonkers
6.46838	2022-08-08	America/Bogota	maintenance	-73.26022	Socorro
36.06523	2013/02/25	America/Los_Angeles	accep	-119.01677	Porterville
14.8361	10 Mar 2015	Asia/Manila	average	120.97844	Guyong
24.05979	2017/08/24	Asia/Kolkata	excellent	77.40858	Leteri
45.49428	06/07/2016, 00:00:00	America/Los_Angeles	maintenance	-122.86705	Aloha
52.71083	2017/01/19	Europe/Amsterdam	building	5.74861	Emmeloord
42.35843	06/08/2022, 00:00:00	America/New_York	average	-71.05977	Boston
40.68066	2019-09-19	America/New_York	average	-73.47429	Massapequa
40.24537	09 Nov 2016	America/New_York	average	-75.64963	Pottstown
45.4473	12/13/2016, 00:00:00	America/Toronto	maintenance	-73.75335	Dorval
4.2475	20 May 2013	Africa/Douala	average	9.00472	Idenao
-5.41667	03/02/2020, 00:00:00	Africa/Dar_es_Salaam	accep	38.01667	Chanika
39.43534	2021-05-10	America/New_York	good	-84.20299	Lebanon
48.86667	2013/08/24	Europe/Paris	accep	2.08333	Marly-le-Roi
38.07789	23 Aug 2021	Europe/Rome	accep	13.44275	Villabate
-33.75881	11/22/2018, 00:00:00	Australia/Sydney	good	150.99292	Baulkham Hills
-2.13404	2017/06/10	America/Guayaquil	accep	-79.59415	Milagro
48.73218	2016-02-20	Europe/Berlin	excellent	11.18709	Neuburg an der Donau
54.03876	29 Jun 2019	Europe/Moscow	excellent	43.91385	Kovylkino
10.63504	2014/09/19	America/Costa_Rica	good	-85.43772	Liberia
-6.25	2018/05/16	Africa/Dar_es_Salaam	building	38.66667	Mvomero
40.55851	08/18/2019, 00:00:00	Europe/Rome	accep	17.80774	Mesagne
-11.94306	2016/03/26	America/Lima	accep	-76.70944	Chosica
34.77453	19 Feb 2022	America/Chicago	accep	-96.67834	Ada
11.12018	2019-08-01	Asia/Kolkata	good	76.11996	Manjeri
42.67164	20 Aug 2013	Europe/Rome	excellent	14.01481	Roseto degli Abruzzi
23.5654	05 Apr 2018	Asia/Taipei	excellent	119.58627	Magong
41.0051	12/12/2020, 00:00:00	America/New_York	building	-73.78458	Scarsdale
34.77453	08/14/2018, 00:00:00	America/Chicago	accep	-96.67834	Ada
3.11988	2014/03/22	Africa/Nairobi	excellent	35.59642	Lodwar
-31.95224	2014-01-21	Australia/Perth	accep	115.8614	Perth
40.81	02 Jan 2015	America/New_York	accep	-73.9625	Morningside Heights
33.08014	2019/12/12	America/New_York	good	-83.2321	Milledgeville
35.74788	2020-10-15	America/Chicago	excellent	-95.36969	Muskogee
36.19278	01/17/2021, 00:00:00	Asia/Shanghai	good	117.65694	Laiwu
9.15093	30 Jan 2015	America/Panama	average	-79.62098	Chilibre
50.71229	01 Dec 2016	Europe/Brussels	building	4.52529	Rixensart
47.4943	12/16/2018, 00:00:00	America/Los_Angeles	good	-122.24092	Bryn Mawr-Skyway
47.05	07/15/2019, 00:00:00	Europe/Vienna	accep	15.46667	Sankt Peter
50.72043	13 Aug 2022	Europe/Berlin	average	11.34046	Rudolstadt
-4.5833	2020-11-09	Africa/Kinshasa	accep	15.16554	Kasangulu
24.96334	2015-09-08	Africa/Tripoli	excellent	10.18003	Ghat
0.49113	03/17/2017, 00:00:00	Africa/Lubumbashi	excellent	29.47306	Beni
37.49223	2013/12/22	Europe/Rome	excellent	15.07041	Catania
42.28639	19 Jan 2017	Europe/Podgorica	good	18.84	Budva
31.39547	02 Apr 2015	Asia/Jerusalem	maintenance	34.75699	Rahat
41.57721	2015-12-27	America/Chicago	average	-93.71133	West Des Moines
65.93381	2022/03/27	Asia/Yakutsk	accep	111.4834	Aykhal
23.73333	2020/08/25	Asia/Shanghai	average	114.68333	Heyuan
34.8825	12/24/2020, 00:00:00	Asia/Seoul	good	128.62667	Sinhyeon
46.32313	2017/08/09	Europe/Paris	excellent	-0.45877	Niort
43.16547	17 Mar 2022	America/New_York	excellent	-77.70066	Gates-North Gates
42.06166	2017/11/17	Europe/Madrid	building	-1.60452	Tudela
-19.65	2014-06-30	Indian/Antananarivo	good	47.31667	Antanifotsy
53.51684	02/05/2016, 00:00:00	America/Edmonton	maintenance	-113.3187	Sherwood Park
35.89972	2016-08-04	Europe/Malta	accep	14.51472	Valletta
-22.92306	12 Mar 2019	America/Sao_Paulo	good	-53.13722	Loanda
48.8765	16 Apr 2014	Europe/Paris	excellent	2.18967	Rueil-Malmaison
7.06273	07/23/2022, 00:00:00	Africa/Accra	good	-1.4001	Mampong
51.04962	2015-12-04	Europe/Berlin	accep	12.1369	Zeitz
39.12074	2021/07/11	Europe/Istanbul	maintenance	27.18052	Bergama
9.3337	10/29/2018, 00:00:00	Asia/Manila	maintenance	122.8637	Santa Catalina
44.80477	2018/08/07	Europe/Paris	accep	-0.59543	Talence
47.98372	2021-06-23	Europe/Berlin	accep	10.18527	Memmingen
54.03876	07/12/2019, 00:00:00	Europe/Moscow	excellent	43.91385	Kovylkino
53.63333	2018-01-14	Europe/Berlin	accep	9.85	Halstenbek
54.03876	29 Oct 2012	Europe/Moscow	accep	43.91385	Kovylkino
38.68712	2020/08/17	Europe/Madrid	good	-4.10734	Puertollano
40.98894	2013-12-14	Europe/Istanbul	excellent	28.67582	Yakuplu
11.12018	2019/03/21	Asia/Kolkata	average	76.11996	Manjeri
47.90771	21 Mar 2016	Asia/Ulaanbaatar	acceptable	106.88324	Ulan Bator
-19.72806	01/22/2016, 00:00:00	America/Sao_Paulo	accep	-50.19556	Iturama
48.06919	2013/01/16	Europe/Berlin	maintenance	11.37703	Gauting
8.62261	06 Apr 2014	America/Caracas	excellent	-70.20749	Barinas
44.27804	2018-06-21	America/Chicago	good	-88.27205	Kaukauna
51.19139	12 Dec 2012	Europe/Berlin	accep	6.51352	Korschenbroich
27.92333	03/18/2014, 00:00:00	Asia/Shanghai	excellent	118.53333	Pucheng
34.21639	2021/10/21	America/Los_Angeles	excellent	-119.0376	Camarillo
1.6	2014/06/03	Asia/Kuala_Lumpur	maintenance	103.81667	Ulu Tiram
-6.8	28 Apr 2021	Africa/Dar_es_Salaam	good	39.25	Magomeni
45.75279	02 Mar 2021	Asia/Shanghai	accep	130.57211	Boli
-11.48472	2016/02/04	America/Bahia	excellent	-37.93278	Rio Real
45.75279	2016-05-24	Asia/Shanghai	good	130.57211	Boli
34.09611	2012-11-30	America/Los_Angeles	accep	-118.10583	San Gabriel
33.4425	11 Jul 2021	Asia/Tokyo	accep	129.96972	Karatsu
51.40148	03/30/2019, 00:00:00	Europe/London	accep	-1.32471	Newbury
50.09019	2021/07/05	Europe/Berlin	building	8.4493	Hofheim am Taunus
19.8173	03/11/2021, 00:00:00	America/Mexico_City	excellent	-97.35992	Teziutlan
31.64615	2014-10-20	Asia/Shanghai	good	120.74221	Changshu City
26.76628	27 Dec 2015	Asia/Kolkata	excellent	83.36889	Gorakhpur
43.11667	2018-01-08	Europe/Paris	excellent	1.6	Pamiers
20.88953	2015-11-06	Pacific/Honolulu	average	-156.47432	Kahului
51.39323	2014/08/07	Europe/London	good	0.47713	Strood
50.64336	21 Aug 2017	Europe/Berlin	accep	7.2278	Bad Honnef
45.78071	2015-09-29	Europe/Rome	maintenance	12.84052	Portogruaro
42.64031	2015/12/14	Asia/Shanghai	average	125.51176	Dongfeng
18.00747	2013-12-04	America/Jamaica	good	-76.78319	New Kingston
32.5007	31 Oct 2014	America/Chicago	average	-94.74049	Longview
39.96097	2013-04-13	America/New_York	excellent	-75.60804	West Chester
4.94273	2018-01-22	Africa/Bangui	maintenance	15.87735	Carnot
1.6561	2015/05/29	Asia/Kuala_Lumpur	accep	103.6032	Kulai
13.44581	19 Jan 2016	Asia/Bangkok	excellent	101.18445	Phanat Nikhom
47.76232	2021/04/07	America/Los_Angeles	average	-122.2054	Bothell
48.49144	03 Sep 2015	Europe/Berlin	good	9.20427	Reutlingen
34.15429	2021-12-16	Africa/Algiers	good	3.50309	Messaad
13.44581	11/17/2013, 00:00:00	Asia/Bangkok	maintenance	101.18445	Phanat Nikhom
6.15038	2015-08-01	Africa/Lagos	building	6.83042	Nkpor
46.7055	2017/10/23	Europe/Moscow	accep	38.2739	Yeysk
38.06084	2019/12/17	America/Chicago	maitennce	-97.92977	Hutchinson
26.9423	12/17/2017, 00:00:00	Asia/Karachi	maintenance	68.11759	Tharu Shah
-6.91806	2018/07/31	Asia/Jakarta	good	106.92667	Sukabumi
47.76232	07/26/2018, 00:00:00	America/Los_Angeles	average	-122.2054	Bothell
-21.44345	2022-07-15	America/La_Paz	accep	-65.71875	Tupiza
34.61667	2012/10/24	Asia/Tokyo	accep	135.6	Yao
49.07866	08/28/2015, 00:00:00	Europe/Kiev	excellent	30.96755	Zvenihorodka
9.57046	2018-02-21	Asia/Kolkata	average	76.32756	Kalavoor
55.82885	05/17/2014, 00:00:00	Europe/London	average	-4.21376	Rutherglen
10.22677	2016-06-18	America/Caracas	maintenance	-67.33122	La Victoria
53.59782	13 Oct 2020	Europe/Moscow	maintenance	34.33825	Dyat‚Äôkovo
48.8449	19 Jun 2022	Europe/Bratislava	building	17.22635	Skalica
55.54028	2014-12-08	Asia/Krasnoyarsk	average	89.20083	Sharypovo
20.28527	2019-02-20	America/Mexico_City	accep	-103.42897	Jocotepec
44.35056	04 Apr 2015	Asia/Tokyo	accep	142.45778	Nayoro
35.50056	03/03/2013, 00:00:00	Asia/Shanghai	average	117.63083	Pingyi
7.83389	20 Jan 2013	America/Bogota	excellent	-72.47417	Villa del Rosario
7.06273	19 Jan 2017	Africa/Accra	excellent	-1.4001	Mampong
25.75728	08/22/2020, 00:00:00	Asia/Kolkata	excellent	75.37991	Deoli
50.72043	29 Mar 2016	Europe/Berlin	average	11.34046	Rudolstadt
20.88098	2019-05-25	Asia/Kolkata	excellent	75.11937	Parola
11.8659	25 Oct 2016	Africa/Khartoum	accep	34.3869	Ar Ruseris
38.37255	2022/08/21	Europe/Istanbul	excellent	34.02537	Aksaray
-2.13404	07/09/2015, 00:00:00	America/Guayaquil	excellent	-79.59415	Milagro
-8.73508	05/11/2018, 00:00:00	Africa/Lubumbashi	average	24.99798	Kamina
-10.95817	2016/07/10	America/Bahia	excellent	-38.79084	Tucano
40.11583	07/17/2019, 00:00:00	Asia/Samarkand	good	67.84222	Jizzax
-34.64966	04/13/2022, 00:00:00	America/Argentina/Buenos_Aires	good	-58.38341	Barracas
27.76056	07/13/2022, 00:00:00	Atlantic/Canary	accep	-15.58602	Maspalomas
48.21644	12/29/2014, 00:00:00	Europe/Berlin	average	9.02596	Albstadt
39.08367	22 Oct 2012	America/New_York	average	-84.50855	Covington
28.88162	09/10/2013, 00:00:00	Asia/Shanghai	average	120.03308	Guli
50.86079	06/30/2017, 00:00:00	Europe/Warsaw	excellent	17.4674	Brzeg
14.62578	06/22/2017, 00:00:00	Asia/Manila	maintenance	121.12251	Antipolo
3.27833	2014-12-29	Africa/Kampala	building	32.88667	Kitgum
40.60538	2015-05-29	America/New_York	accep	-73.75513	Far Rockaway
3.27833	2018/01/24	Africa/Kampala	accep	32.88667	Kitgum
23.1959	09/12/2018, 00:00:00	Asia/Kolkata	average	86.51499	Kenda
25.66795	28 Aug 2022	Asia/Kolkata	average	85.83636	Dalsingh Sarai
-4.26613	2015-03-23	Africa/Brazzaville	excellent	15.28318	Brazzaville
41.75338	06 Nov 2016	America/Indiana/Indianapolis	accep	-86.11084	Granger
43.54072	2020/02/17	America/Boise	excellent	-116.56346	Nampa
-4.16694	2017/07/21	America/Fortaleza	accep	-40.7475	Guaraciaba do Norte
50.26729	17 Aug 2014	America/Vancouver	excellent	-119.27337	Vernon
19.32889	12 Jan 2018	America/Mexico_City	accep	-99.32556	San Lorenzo Acopilco
22.83957	10/22/2012, 00:00:00	Asia/Dhaka	building	91.84128	Manikchari
-34.88422	2020-01-21	Australia/Sydney	accep	150.60036	Nowra
-37.88333	2016/04/07	Australia/Melbourne	good	145.06667	Carnegie
41.55815	06 May 2018	America/New_York	good	-73.0515	Waterbury
32.42067	2017/11/23	America/Denver	building	-104.22884	Carlsbad
12.35275	26 Apr 2021	Asia/Manila	average	121.06761	San Jose
-54.8	01 Nov 2018	America/Argentina/Ushuaia	average	-68.3	Ushuaia
51.95838	04 Mar 2022	Europe/Amsterdam	maintenance	4.47124	Schiebroek
35.06667	08/08/2016, 00:00:00	Asia/Tokyo	excellent	135.21667	Sasayama
41.27194	14 Jul 2017	Asia/Shanghai	maintenance	123.17306	Liaoyang
30.76468	04/20/2017, 00:00:00	Asia/Karachi	average	74.12286	Kanganpur
43.31667	28 Apr 2015	Europe/Madrid	accep	-2.68333	Gernika-Lumo
-5.41667	2021/02/12	Africa/Dar_es_Salaam	accep	38.01667	Chanika
8.35122	2020/07/07	America/Caracas	excellent	-62.64102	Ciudad Guayana
-1.9487	2021-03-07	Africa/Kigali	building	30.4347	Rwamagana
41.57439	01/11/2015, 00:00:00	Europe/Sofia	average	24.71204	Smolyan
40.60538	06/27/2016, 00:00:00	America/New_York	average	-73.75513	Far Rockaway
51.38673	2020-08-03	Europe/London	average	0.30367	Hartley
14.95472	2016/05/23	Asia/Manila	accep	120.89694	Baliuag
51.168	04/01/2017, 00:00:00	Europe/Berlin	accep	7.973	Finnentrop
55.85	08/21/2015, 00:00:00	Europe/Moscow	accep	37.56667	Likhobory
-7.01833	2015/01/30	Asia/Jakarta	average	107.60389	Pameungpeuk
38.55632	2020-03-01	Asia/Dushanbe	accep	69.01354	Vahdat
23.5654	10/31/2019, 00:00:00	Asia/Taipei	accep	119.58627	Magong
51.168	12 Jan 2019	Europe/Berlin	building	7.973	Finnentrop
40.2737	2013-01-20	America/New_York	good	-76.88442	Harrisburg
20.88098	25 Jan 2014	Asia/Kolkata	maintenance	75.11937	Parola
47.46657	2018/02/16	Asia/Almaty	average	84.87144	Zaysan
50.86079	2020/11/23	Europe/Warsaw	accep	17.4674	Brzeg
15.5439	2020-01-17	Asia/Kolkata	building	73.7553	Calangute
10.15031	2022/09/21	America/Bogota	accep	-73.9614	El Copey
4.02219	2013/08/11	Asia/Kuala_Lumpur	maintenance	101.02083	Teluk Intan
45.4473	17 Mar 2020	America/Toronto	maintenance	-73.75335	Dorval
20.74122	2017/01/25	America/Mexico_City	excellent	-100.44843	Santa Rosa Jauregui
55.54028	2020/05/28	Asia/Krasnoyarsk	average	89.20083	Sharypovo
35.50056	2018/03/08	Asia/Shanghai	average	117.63083	Pingyi
53.78333	2020-06-24	Europe/London	average	-1.06667	Selby
32.42067	2019/10/08	America/Denver	maintenance	-104.22884	Carlsbad
28.98002	2019-08-18	Asia/Kolkata	building	77.70636	Meerut
40.37528	2019/09/17	Europe/Istanbul	good	28.88222	Mudanya
51.95838	06/02/2022, 00:00:00	Europe/Amsterdam	building	4.47124	Schiebroek
26.9423	2017/12/16	Asia/Karachi	excellent	68.11759	Tharu Shah
-27.76952	12/03/2018, 00:00:00	Africa/Johannesburg	good	30.79165	Vryheid
42.7392	09/10/2015, 00:00:00	America/Detroit	good	-84.62081	Waverly
-10.90889	2015-04-21	America/Maceio	accep	-37.03861	Barra dos Coqueiros
36.82167	2020/08/12	Asia/Seoul	good	128.63083	Eisen
28.71271	2016/01/02	Asia/Kolkata	building	77.656	Pilkhua
18.00747	2020-06-04	America/Jamaica	building	-76.78319	New Kingston
6.33444	05/19/2014, 00:00:00	Asia/Manila	excellent	124.95278	Tupi
20.88953	2019/04/24	Pacific/Honolulu	good	-156.47432	Kahului
40.82232	06/11/2015, 00:00:00	America/New_York	average	-74.15987	Nutley
38.38479	12 Dec 2016	Europe/Madrid	building	-0.76773	Novelda
37.49223	06 Dec 2013	Europe/Rome	good	15.07041	Catania
53.59782	2022/07/05	Europe/Moscow	excellent	34.33825	Dyat‚Äôkovo
21.28306	05/13/2018, 00:00:00	America/Merida	average	-89.66123	Progreso
17.34769	12/30/2019, 00:00:00	Asia/Kolkata	good	78.55757	Lal Bahadur Nagar
19.64745	2014-07-25	America/Mexico_City	accep	-102.04897	Paracho de Verduzco
53.94313	2020/01/15	Europe/Berlin	building	10.30215	Bad Segeberg
32.57756	2013-09-04	Asia/Karachi	maintenance	71.52847	Mianwali
10.15031	2019-06-06	America/Bogota	excellent	-73.9614	El Copey
0.51667	28 Jul 2016	Asia/Jakarta	accep	101.44167	Pekanbaru
-31.25033	01 Jan 2015	America/Argentina/Cordoba	good	-61.4867	Rafaela
50.09019	04/23/2020, 00:00:00	Europe/Berlin	excellent	8.4493	Hofheim am Taunus
27.92333	2015/04/13	Asia/Shanghai	accep	118.53333	Pucheng
14.62072	23 Mar 2014	Asia/Kolkata	excellent	74.83554	Sirsi
51.44889	2017-12-19	Europe/Amsterdam	good	5.51978	Tongelre
50.75	2021-12-24	Europe/Paris	accep	2.25	Saint-Omer
50.06	03 Jul 2020	Europe/Volgograd	good	43.2379	Mikhaylovka
8.62261	2017/12/14	America/Caracas	accep	-70.20749	Barinas
-27.50578	2013-10-11	Australia/Brisbane	excellent	153.10236	Carindale
41.77583	2020-08-21	Asia/Tokyo	excellent	140.73667	Hakodate
15.73628	19 Jun 2017	Asia/Kolkata	average	75.96976	Gajendragarh
-15.21194	2021/04/09	America/Lima	good	-75.11028	Minas de Marcona
18.57677	04/01/2015, 00:00:00	America/Port-au-Prince	good	-72.22625	Croix-des-Bouquets
7.62789	2019-09-12	Africa/Lagos	maintenance	4.74161	Ilesa
26.11527	2020/04/19	Asia/Kolkata	accep	86.59509	Supaul
48.07667	02 Nov 2021	Europe/Berlin	average	8.64409	Trossingen
44.92801	2021/05/10	Europe/Paris	excellent	4.8951	Valence
40.67705	06/21/2018, 00:00:00	America/New_York	excellent	-73.89125	Cypress Hills
51.20219	13 Feb 2014	Europe/Berlin	building	7.36027	Radevormwald
34.77453	2022/01/12	America/Chicago	good	-96.67834	Ada
43.61058	02/09/2020, 00:00:00	Europe/Paris	building	1.33467	Colomiers
26.68451	2015-10-30	America/New_York	good	-80.66756	Belle Glade
30.24706	2018-09-16	Asia/Shanghai	good	115.04814	Huangshi
42.30865	09/10/2018, 00:00:00	America/Detroit	good	-83.48216	Canton
-20.87306	2014-08-10	America/Sao_Paulo	accep	-48.29694	Viradouro
23.5654	2015-04-07	Asia/Taipei	average	119.58627	Magong
54.48147	05/05/2016, 00:00:00	Asia/Yekaterinburg	maintenance	53.47103	Oktyabr‚Äôskiy
-25.54073	2021-10-22	Australia/Brisbane	accep	152.70493	Maryborough
10.61285	11 Nov 2019	Africa/Lagos	maintenance	12.19458	Biu
44.22639	2021-06-03	Europe/Belgrade	good	22.53083	Negotin
12.18441	08/05/2019, 00:00:00	Africa/Ndjamena	good	18.69303	Mongo
33.43443	25 Apr 2013	Africa/Casablanca	good	-5.22126	Azrou
12.04161	11/04/2018, 00:00:00	Asia/Kolkata	building	75.35927	Talipparamba
45.35	06/11/2022, 00:00:00	Asia/Shanghai	good	126.28333	Shuangcheng
54.03876	24 May 2013	Europe/Moscow	accep	43.91385	Kovylkino
53.51684	2016-11-18	America/Edmonton	accep	-113.3187	Sherwood Park
55.25	2017/02/19	Europe/Vilnius	accep	24.75	Ukmerge
31.20176	01/21/2022, 00:00:00	Africa/Cairo	good	29.91582	Alexandria
36.75965	2016-07-25	Asia/Tokyo	excellent	137.36215	Namerikawa
-14.66463	09/28/2013, 00:00:00	America/Cuiaba	building	-52.35558	Nova Xavantina
49.03685	10/14/2021, 00:00:00	Europe/Berlin	accep	8.70745	Bretten
37.73604	2021/08/16	America/Los_Angeles	accep	-120.93549	Riverbank
51.30001	2015-01-18	Europe/Berlin	maintenance	13.10984	Oschatz
-19.72806	11/21/2021, 00:00:00	America/Sao_Paulo	average	-50.19556	Iturama
50.7236	2016/05/19	Europe/London	maintenance	-3.52751	Exeter
39.08367	2020/08/06	America/New_York	building	-84.50855	Covington
40.82232	2014-09-24	America/New_York	average	-74.15987	Nutley
32.42067	11/18/2013, 00:00:00	America/Denver	building	-104.22884	Carlsbad
41.92361	2016-08-30	Europe/Skopje	excellent	20.91361	Bogovinje
29.65163	2014/05/20	America/New_York	average	-82.32483	Gainesville
51.03427	05/21/2022, 00:00:00	Europe/Brussels	building	5.37429	Houthalen
14.62072	2016-03-25	Asia/Kolkata	accep	74.83554	Sirsi
26.2173	03/14/2020, 00:00:00	America/New_York	excellent	-80.22588	North Lauderdale
14.67751	2013-07-04	America/Martinique	accep	-60.94228	Le Robert
36.33011	26 Apr 2021	Asia/Tokyo	good	138.89585	Annaka
-28.81833	2014-07-13	America/Sao_Paulo	average	-52.51028	Soledade
32.5007	2015-03-27	America/Chicago	accep	-94.74049	Longview
55.8736	2013/12/20	Asia/Novokuznetsk	excellent	85.4265	Yashkino
36.27462	2020-08-23	Africa/Algiers	accep	4.85668	Bordj Zemoura
33.03699	2021-12-30	America/Los_Angeles	accep	-117.29198	Encinitas
21.53889	10/05/2019, 00:00:00	Asia/Kolkata	good	71.57737	Gariadhar
9.92787	06/12/2020, 00:00:00	America/Costa_Rica	excellent	-84.13722	San Rafael
40.93333	08 Apr 2019	Asia/Bishkek	excellent	73	Jalal-Abad
36.65	2017/04/18	Asia/Tokyo	good	138.31667	Suzaka
6.25947	2015-09-26	Asia/Bangkok	good	102.05461	Tak Bai
34.95303	02 Mar 2021	America/Los_Angeles	excellent	-120.43572	Santa Maria
48.25	04/26/2019, 00:00:00	Europe/Vienna	excellent	16.4	Floridsdorf
27.92333	09/25/2015, 00:00:00	Asia/Shanghai	average	118.53333	Pucheng
41.55815	09 Sep 2015	America/New_York	excellent	-73.0515	Waterbury
32.50611	2013/08/28	Asia/Shanghai	accep	120.14278	Jiangyan
40.98894	2022/08/15	Europe/Istanbul	accep	28.67582	Yakuplu
25.92127	06 Mar 2017	Asia/Kolkata	average	86.79271	Madhipura
39.59611	11 Feb 2020	Europe/Istanbul	maintenance	27.02444	Edremit
12.74409	2015-12-11	Africa/Bamako	good	-8.07257	Kati
37.08819	10/12/2016, 00:00:00	Europe/Lisbon	average	-8.2503	Albufeira
15.45144	24 Aug 2021	Asia/Kolkata	maintenance	78.14797	Betamcherla
50.71229	2020/09/21	Europe/Brussels	average	4.52529	Rixensart
10.58806	2014-05-31	Asia/Kolkata	building	77.24779	Udumalaippettai
21.01858	12/24/2016, 00:00:00	America/Mexico_City	good	-101.2591	Guanajuato
53.63333	2018/02/08	Europe/Berlin	good	9.85	Halstenbek
23.07492	08/21/2021, 00:00:00	Asia/Kolkata	excellent	88.28637	Pandua
46.23899	04/11/2013, 00:00:00	America/Halifax	average	-63.13414	Charlottetown
-6.91806	12/03/2013, 00:00:00	Asia/Jakarta	good	106.92667	Sukabumi
37.13548	2020-07-06	Europe/Madrid	excellent	-3.67029	Las Gabias
37.05944	2016/03/20	Europe/Istanbul	excellent	37.3825	Gaziantep
34.8825	01/14/2013, 00:00:00	Asia/Seoul	accep	128.62667	Sinhyeon
50.64336	23 Jul 2014	Europe/Berlin	excellent	7.2278	Bad Honnef
50.5107	03/28/2020, 00:00:00	Europe/Warsaw	average	18.30056	Strzelce Opolskie
40.5576	17 Oct 2019	America/New_York	accep	-74.28459	Woodbridge
49.03685	14 Sep 2015	Europe/Berlin	excellent	8.70745	Bretten
41.84364	2014/12/13	America/Chicago	maintenance	-87.71255	South Lawndale
-6.8	21 Feb 2019	Africa/Dar_es_Salaam	maintenance	39.25	Magomeni
51.19139	09 Nov 2012	Europe/Berlin	average	6.51352	Korschenbroich
43.83125	2022/08/25	Europe/Paris	excellent	5.03586	Cavaillon
55.75556	12/25/2013, 00:00:00	Asia/Yekaterinburg	accep	60.70278	Ozersk
28.15112	12/26/2012, 00:00:00	America/New_York	excellent	-82.46148	Lutz
18.42745	2017/01/29	America/Puerto_Rico	excellent	-67.15407	Aguadilla
42.30865	2018/06/20	America/Detroit	good	-83.48216	Canton
41.91738	10/02/2017, 00:00:00	Europe/Madrid	maintenance	3.1631	Palafrugell
-12.91667	2013/02/03	America/Bahia	good	-39.25	Muritiba
54.60528	02 Nov 2017	Europe/Warsaw	average	18.34717	Reda
35.82756	13 Nov 2012	Asia/Tokyo	excellent	137.95378	Ina
-54.8	2014-11-30	America/Argentina/Ushuaia	excellent	-68.3	Ushuaia
50.88506	11 Jun 2018	Europe/Brussels	accep	4.07601	Denderleeuw
43.91452	2013-07-19	America/New_York	average	-69.96533	Brunswick
-34.64966	03 Dec 2018	America/Argentina/Buenos_Aires	building	-58.38341	Barracas
48.98333	2013/05/13	Europe/Paris	accep	2.61667	Mitry-Mory
42	2016/03/01	Europe/Skopje	accep	21.32778	Saraj
40.63316	06 Mar 2018	America/New_York	good	-74.13653	Port Richmond
9.57046	2018/07/19	Asia/Kolkata	excellent	76.32756	Kalavoor
40.58654	2015-05-30	America/Los_Angeles	good	-122.39168	Redding
-7.81667	2016-01-28	Asia/Jakarta	maintenance	112.01667	Kediri
37.35813	24 Dec 2021	Europe/Madrid	accep	-6.03731	San Juan de Aznalfarache
36.76775	06/10/2014, 00:00:00	Africa/Algiers	maintenance	2.95924	Cheraga
10.63504	06 Oct 2017	America/Costa_Rica	average	-85.43772	Liberia
26.91756	04 Mar 2016	America/New_York	excellent	-82.07842	Punta Gorda Isles
39.09112	02 Feb 2013	America/Chicago	maintenance	-94.41551	Independence
33.14447	08/09/2016, 00:00:00	Asia/Tehran	average	47.3799	Darreh Shahr
45.53929	2017/12/07	America/Los_Angeles	excellent	-122.38731	Troutdale
48.35693	04/11/2015, 00:00:00	Europe/Berlin	average	10.98461	Friedberg
53.0233	07 Jul 2018	Europe/London	maintenance	-1.48119	Belper
51.03427	2013-05-04	Europe/Brussels	average	5.37429	Houthalen
38.72706	2018/02/07	Europe/Lisbon	building	-9.24671	Carnaxide
24.05979	2013-05-07	Asia/Kolkata	excellent	77.40858	Leteri
17.54907	2015-07-24	Asia/Kolkata	excellent	82.85749	Elamanchili
36.27462	2015-08-30	Africa/Algiers	good	4.85668	Bordj Zemoura
14.95472	2019-04-26	Asia/Manila	accep	120.89694	Baliuag
34.8825	03/10/2016, 00:00:00	Asia/Seoul	average	128.62667	Sinhyeon
31.84568	11 Sep 2014	America/Chicago	good	-102.36764	Odessa
18.00747	2020/10/17	America/Jamaica	good	-76.78319	New Kingston
53.30972	2014/10/20	Asia/Barnaul	good	83.62389	Novosilikatnyy
31.64615	2021/08/25	Asia/Shanghai	excellent	120.74221	Changshu City
-10.95817	2020-06-26	America/Bahia	building	-38.79084	Tucano
43.35071	04 Aug 2022	Europe/Moscow	excellent	46.10925	Gudermes
11.8659	2019/07/03	Africa/Khartoum	good	34.3869	Ar Ruseris
41.1053	2018/05/17	Europe/Lisbon	excellent	-7.32097	Custoias
40.81	2016-02-21	America/New_York	accep	-73.9625	Morningside Heights
21.46527	08 Nov 2021	Asia/Kolkata	average	83.97573	Sambalpur
51.42708	2015-12-28	Europe/London	average	-0.91979	Lower Earley
39.71734	30 Aug 2017	America/New_York	good	-74.96933	Sicklerville
3.7278	08 May 2019	Asia/Jakarta	excellent	98.6738	Labuhan Deli
45.0408	2020-05-21	America/Chicago	excellent	-93.263	Columbia Heights
53.93361	2020-12-09	Europe/Moscow	accep	37.92792	Kireyevsk
-14.66463	12 Apr 2018	America/Cuiaba	average	-52.35558	Nova Xavantina
33.78333	2021/08/21	Asia/Shanghai	accep	114.51667	Wacheng
32.50611	2017/10/12	Asia/Shanghai	good	120.14278	Jiangyan
43.96222	08/02/2014, 00:00:00	Europe/Moscow	good	43.63417	Novopavlovsk
49.68369	2014-12-20	Europe/Berlin	good	8.61839	Bensheim
21.46527	2014/08/01	Asia/Kolkata	accep	83.97573	Sambalpur
51.21187	2015-09-07	Europe/Brussels	excellent	4.25633	Beveren
41.24264	2015/01/09	Europe/Rome	maintenance	16.50104	Bisceglie
10.22677	11/12/2021, 00:00:00	America/Caracas	average	-67.33122	La Victoria
-32.45242	09 Nov 2020	America/Santiago	average	-71.23106	La Ligua
28.15112	2017-10-05	America/New_York	accep	-82.46148	Lutz
2.2139	06/23/2020, 00:00:00	Asia/Kuala_Lumpur	good	102.3278	Kampung Ayer Molek
40.5576	02/16/2017, 00:00:00	America/New_York	average	-74.28459	Woodbridge
51.95838	01/02/2021, 00:00:00	Europe/Amsterdam	accep	4.47124	Schiebroek
22.49396	30 Nov 2018	America/Mazatlan	excellent	-105.36369	Acaponeta
51.78771	12/08/2016, 00:00:00	Asia/Yekaterinburg	building	56.36091	Saraktash
20.88098	2016/10/27	Asia/Kolkata	maintenance	75.11937	Parola
25.80565	2017/10/27	Asia/Karachi	good	68.49143	Bhit Shah
53.59782	2013/06/02	Europe/Moscow	excellent	34.33825	Dyat‚Äôkovo
48.79325	04/24/2021, 00:00:00	Europe/Paris	accep	2.29275	Fontenay-aux-Roses
53.53333	2014/11/16	Europe/Dublin	maintenance	-7.35	An Muileann gCearr
22.19303	26 Oct 2015	Asia/Kolkata	good	88.18466	Diamond Harbour
46.1351	03/19/2013, 00:00:00	America/Glace_Bay	average	-60.1831	Sydney
35.89972	2017/01/13	Europe/Malta	accep	14.51472	Valletta
30.75545	2018/11/30	Africa/Tripoli	maintenance	20.22625	Ajdabiya
-0.71667	2020-09-18	America/Belem	good	-48.52333	Soure
40.64621	2019/06/10	America/New_York	accep	-73.97069	Kensington
18.51957	04/17/2013, 00:00:00	Asia/Kolkata	excellent	73.85535	Pune
47.4943	12 Jan 2018	America/Los_Angeles	accep	-122.24092	Bryn Mawr-Skyway
6.15038	2016/12/20	Africa/Lagos	accep	6.83042	Nkpor
39.12074	2017/05/11	Europe/Istanbul	building	27.18052	Bergama
-21.44345	2012-12-20	America/La_Paz	excellent	-65.71875	Tupiza
44.89784	03 Apr 2022	Europe/Rome	average	8.86374	Tortona
14.62578	2015-11-14	Asia/Manila	building	121.12251	Antipolo
51.08468	2019-10-26	Europe/Berlin	average	7.11393	Burscheid
40.53123	2018-05-02	Europe/Rome	accep	17.58522	Francavilla Fontana
39.43534	20 Nov 2016	America/New_York	excellent	-84.20299	Lebanon
11.00599	03/18/2017, 00:00:00	Asia/Kolkata	excellent	77.5609	Kangayam
43.32393	2013-05-04	Europe/Paris	average	5.4584	Les Olives
36.92574	12 Dec 2019	Europe/Rome	excellent	14.72443	Ragusa
34.77453	03 Jul 2016	America/Chicago	average	-96.67834	Ada
45.47885	29 Jun 2019	Asia/Vladivostok	good	133.42825	Lesozavodsk
-31.95224	2013/01/21	Australia/Perth	excellent	115.8614	Perth
-10.91111	02/16/2016, 00:00:00	America/Maceio	building	-37.07167	Aracaju
4.73245	2021/05/24	America/Bogota	excellent	-74.26419	Madrid
9.57046	12/06/2018, 00:00:00	Asia/Kolkata	good	76.32756	Kalavoor
-2.13404	01/16/2018, 00:00:00	America/Guayaquil	excellent	-79.59415	Milagro
49.41029	2022-07-28	Europe/Zaporozhye	accep	38.15035	Svatove
43.78956	08/02/2017, 00:00:00	Europe/Rome	good	7.60872	Ventimiglia
50.8	2019/01/19	Europe/Brussels	average	3.16667	Wevelgem
60.18427	06/15/2016, 00:00:00	Europe/Helsinki	good	24.95034	Kallio
44.73941	13 Mar 2022	America/Chicago	average	-93.12577	Rosemount
22.10194	2021-07-22	Asia/Kolkata	excellent	85.37752	Barbil
34.86472	2016/04/19	Asia/Shanghai	good	117.55417	Zaozhuang
45.69558	2017/12/08	Europe/Paris	accep	4.7934	Saint-Genis-Laval
36.20829	2022/03/03	America/Los_Angeles	accep	-115.98391	Pahrump
-22.53722	01/23/2019, 00:00:00	America/Sao_Paulo	good	-42.98194	Guapimirim
50.79205	2013/11/23	Europe/London	maitennce	-1.08593	Southsea
24.05979	02 Jul 2016	Asia/Kolkata	accep	77.40858	Leteri
-19.72806	06/12/2014, 00:00:00	America/Sao_Paulo	accep	-50.19556	Iturama
-19.65	24 Nov 2017	Indian/Antananarivo	accep	47.31667	Antanifotsy
31.28092	01/15/2015, 00:00:00	Asia/Kolkata	good	74.85849	Patti
47.4943	09 Feb 2021	America/Los_Angeles	maintenance	-122.24092	Bryn Mawr-Skyway
48.49144	20 May 2020	Europe/Berlin	average	9.20427	Reutlingen
40.87329	2013-11-11	Europe/Rome	average	14.43865	Somma Vesuviana
36	26 Jun 2014	Asia/Tokyo	good	139.55722	Okegawa
41.63976	2022-03-15	Europe/Madrid	good	2.35739	Cardedeu
13.56667	18 Oct 2012	Africa/Banjul	accep	-15.6	Farafenni
6.8485	21 Oct 2020	Africa/Lagos	accep	3.64633	Shagamu
38.58894	2014-08-19	America/Chicago	good	-89.99038	Fairview Heights
42.67164	2015/12/31	Europe/Rome	average	14.01481	Roseto degli Abruzzi
46.32374	09/25/2014, 00:00:00	America/Los_Angeles	maintenance	-120.00865	Sunnyside
-3.74912	08/15/2018, 00:00:00	America/Lima	excellent	-73.25383	Iquitos
41.77583	04 Dec 2019	Asia/Tokyo	average	140.73667	Hakodate
39.22493	25 Jan 2017	Europe/Istanbul	excellent	42.85693	Patnos
12.25282	11/23/2018, 00:00:00	Asia/Kolkata	excellent	79.41727	Gingee
32.55531	2018/05/04	Asia/Kolkata	accep	76.12647	Chamba
12.04161	12/21/2015, 00:00:00	Asia/Kolkata	excellent	75.35927	Talipparamba
10.58806	2014-11-18	Asia/Kolkata	maintenance	77.24779	Udumalaippettai
37.08819	04/03/2014, 00:00:00	Europe/Lisbon	accep	-8.2503	Albufeira
37.51803	19 Jul 2017	Europe/Rome	average	15.00913	Misterbianco
38.07789	2013-12-04	Europe/Rome	good	13.44275	Villabate
43.71032	03 Jan 2013	Europe/Paris	excellent	-1.05366	Dax
-20.87306	2021-11-18	America/Sao_Paulo	excellent	-48.29694	Viradouro
34.31	06/29/2022, 00:00:00	Africa/Casablanca	acceptable	-2.16	Jerada
28.15112	2018-04-02	America/New_York	excellent	-82.46148	Lutz
24.41288	29 Apr 2015	Asia/Kolkata	excellent	76.56719	Aklera
14.62578	2013/07/10	Asia/Manila	excellent	121.12251	Antipolo
48.46458	2020-02-01	Europe/Berlin	accep	9.22796	Pfullingen
-15.21194	2021/02/26	America/Lima	maintenance	-75.11028	Minas de Marcona
-26.22861	19 Oct 2015	America/Sao_Paulo	excellent	-52.67056	Pato Branco
45.40008	12/03/2021, 00:00:00	America/Toronto	good	-73.58248	Sainte-Catherine
-25.54073	12 Jan 2016	Australia/Brisbane	good	152.70493	Maryborough
46.67535	2021-08-05	Europe/Paris	accep	5.55575	Lons-le-Saunier
52.31333	16 Aug 2022	Europe/Amsterdam	building	6.92917	Oldenzaal
37.95143	17 May 2020	America/Chicago	accep	-91.77127	Rolla
0.03813	05/15/2022, 00:00:00	Africa/Nairobi	good	36.36339	Nyahururu
46.75451	13 Aug 2018	Europe/Kiev	accep	33.34864	Nova Kakhovka
-15.675	29 Aug 2018	America/Bahia	average	-38.94722	Canavieiras
53.7446	2018/05/11	Europe/London	accep	-0.33525	Kingston upon Hull
41.91886	2019/09/04	Europe/Paris	average	8.73812	Ajaccio
40.67705	2013/05/31	America/New_York	building	-73.89125	Cypress Hills
6.46346	11/11/2012, 00:00:00	Africa/Accra	accep	-2.31938	Bibiani
55.8736	12/30/2019, 00:00:00	Asia/Novokuznetsk	average	85.4265	Yashkino
10.58806	17 Oct 2013	Asia/Kolkata	excellent	77.24779	Udumalaippettai
34.8825	2022/07/10	Asia/Seoul	maintenance	128.62667	Sinhyeon
54.52156	2015-09-29	Europe/Berlin	accep	9.5586	Schleswig
53.30972	2019-08-20	Asia/Barnaul	accep	83.62389	Novosilikatnyy
-32.45242	2018/05/02	America/Santiago	acceptable	-71.23106	La Ligua
52.14	06/27/2022, 00:00:00	Europe/Amsterdam	good	5.58472	Barneveld
36.91023	07/01/2013, 00:00:00	America/Los_Angeles	maintenance	-121.75689	Watsonville
51.35084	29 Jul 2020	Europe/London	excellent	-1.99421	Devizes
14.66	2018/04/11	Asia/Manila	excellent	120.56528	Pilar
36.06386	2016-01-10	Africa/Algiers	average	4.62744	El Achir
-4.26613	06/16/2021, 00:00:00	Africa/Brazzaville	average	15.28318	Brazzaville
40.5576	2020/02/23	America/New_York	maintenance	-74.28459	Woodbridge
47.80527	03/29/2021, 00:00:00	America/Los_Angeles	average	-122.24064	Bothell West
9.3337	09/08/2016, 00:00:00	Asia/Manila	building	122.8637	Santa Catalina
52.21099	2013-08-31	Europe/Berlin	excellent	7.02238	Gronau
-26.22861	2020-07-13	America/Sao_Paulo	accep	-52.67056	Pato Branco
19.64745	2020-02-18	America/Mexico_City	excellent	-102.04897	Paracho de Verduzco
55.85	12/16/2018, 00:00:00	Europe/Moscow	maintenance	37.56667	Likhobory
39.72943	12 Oct 2020	America/Denver	good	-104.83192	Aurora
-33.59217	2020/09/28	America/Santiago	good	-70.6996	San Bernardo
36.65	12/02/2019, 00:00:00	Asia/Tokyo	good	138.31667	Suzaka
-34.74785	27 Dec 2016	America/Argentina/Buenos_Aires	good	-58.70072	Pontevedra
23.15678	29 Jun 2020	America/Havana	average	-81.24441	Varadero
36.20389	2021-08-07	Asia/Seoul	excellent	127.08472	Nonsan
51.12794	25 Oct 2014	Europe/Brussels	accep	4.21372	Temse
54.39304	2020-09-02	Europe/Moscow	maintenance	53.26023	Bavly
38.72706	2018/12/27	Europe/Lisbon	excellent	-9.24671	Carnaxide
9.58126	07/15/2021, 00:00:00	Africa/Lagos	average	8.2926	Kafanchan
49.28669	16 Feb 2020	Europe/Paris	average	1.00288	Elbeuf
38.91817	06/03/2019, 00:00:00	America/New_York	good	-78.19444	Front Royal
35.64889	2019-02-24	Asia/Shanghai	good	117.27583	Sishui
49.5099	2018/04/05	Europe/Berlin	acceptable	6.74549	Losheim
11.86064	2015/12/12	Africa/Lagos	maintenance	9.0027	Gaya
26.67319	2018-07-10	Africa/Cairo	excellent	31.4976	Juhaynah
24.28859	2015-07-17	Asia/Shanghai	maintenance	116.11768	Meizhou
40.2737	2022/03/12	America/New_York	accep	-76.88442	Harrisburg
59.33333	28 Jun 2019	Europe/Stockholm	maintenance	18.28333	Boo
34.14251	2020-05-27	America/Los_Angeles	average	-118.25508	Glendale
22.4711	12 Oct 2013	Asia/Kolkata	good	88.1453	Pujali
42.64031	05/30/2022, 00:00:00	Asia/Shanghai	building	125.51176	Dongfeng
-22.57306	2016/12/29	America/Sao_Paulo	excellent	-47.1725	Artur Nogueira
26.2649	07/21/2021, 00:00:00	Asia/Kolkata	average	81.54855	Jais
-20.88231	12/23/2021, 00:00:00	Indian/Reunion	building	55.4504	Saint-Denis
39.09112	06 Nov 2018	America/Chicago	excellent	-94.41551	Independence
-14.66463	2018/06/03	America/Cuiaba	average	-52.35558	Nova Xavantina
29.38242	2019-08-04	Asia/Karachi	maintenance	70.91106	Alipur
-19.32556	07 May 2022	America/Sao_Paulo	building	-41.25528	Resplendor
44.92801	2020-02-15	Europe/Paris	accep	4.8951	Valence
43.67681	2014/10/25	Europe/Paris	accep	4.63031	Arles
24.41288	30 Jul 2020	Asia/Kolkata	good	76.56719	Aklera
51.35084	02 Jul 2015	Europe/London	good	-1.99421	Devizes
50.82709	01/31/2017, 00:00:00	Europe/Berlin	building	6.9747	Wesseling
43.71032	2014/08/22	Europe/Paris	maintenance	-1.05366	Dax
30.75545	27 Oct 2020	Africa/Tripoli	building	20.22625	Ajdabiya
3.11988	2022/06/19	Africa/Nairobi	good	35.59642	Lodwar
30.21121	13 Feb 2020	Asia/Kolkata	excellent	74.4818	Malaut
48.28259	21 Jun 2018	Europe/Berlin	excellent	9.72749	Ehingen
40.65995	02/27/2021, 00:00:00	America/Denver	maintenance	-111.99633	Kearns
52.71083	2019/05/14	Europe/Amsterdam	building	5.74861	Emmeloord
-38.16604	12/04/2020, 00:00:00	Australia/Melbourne	building	145.13643	Frankston South
26.91756	01/18/2017, 00:00:00	America/New_York	average	-82.07842	Punta Gorda Isles
20.88953	2013/05/27	Pacific/Honolulu	maintenance	-156.47432	Kahului
15.46063	2017/05/08	Asia/Bangkok	good	99.89166	Thap Than
16.06213	12/09/2012, 00:00:00	Asia/Kolkata	maintenance	76.0586	Hungund
-8.43333	13 Nov 2017	Asia/Jakarta	good	114.33333	Muncar
32.57756	2015-06-21	Asia/Karachi	average	71.52847	Mianwali
33.54428	2017/09/12	America/New_York	accep	-84.23381	Stockbridge
1.6561	05/12/2016, 00:00:00	Asia/Kuala_Lumpur	good	103.6032	Kulai
41.24255	2019/03/31	America/New_York	accep	-82.61573	Norwalk
53.6052	29 Jan 2019	Europe/Berlin	accep	10.03988	Barmbek-Nord
51.88333	24 Apr 2019	Europe/Berlin	building	8.51667	Verl
9.82564	06 Aug 2017	Asia/Kolkata	excellent	78.25795	Tiruppuvanam
48.07667	2013/04/01	Europe/Berlin	excellent	8.64409	Trossingen
52.4089	11/24/2013, 00:00:00	Europe/Minsk	accep	31.3237	Dobrush
23.73333	08/02/2017, 00:00:00	Asia/Shanghai	average	114.68333	Heyuan
48	2016-10-26	Europe/Paris	excellent	-4.1	Quimper
37.19723	05 Nov 2020	Asia/Shanghai	good	122.05228	Tianfu
51.42708	2016-01-01	Europe/London	excellent	-0.91979	Lower Earley
34.63915	2012/11/13	America/Los_Angeles	maintenance	-120.45794	Lompoc
50.82882	01/18/2018, 00:00:00	Europe/London	average	-0.32247	Lancing
18.03496	2020-10-22	America/Puerto_Rico	average	-66.8499	Yauco
5.6561	10/04/2012, 00:00:00	America/Bogota	good	-75.87877	Andes
53.53041	07 Jul 2014	Europe/Moscow	accep	43.67663	Nizhniy Lomov
6.15038	2018-03-19	Africa/Lagos	accep	6.83042	Nkpor
18.03496	2012-11-20	America/Puerto_Rico	average	-66.8499	Yauco
-44.39672	11/07/2019, 00:00:00	Pacific/Auckland	excellent	171.25364	Timaru
36.21544	2020-11-23	Asia/Kabul	excellent	65.93249	Sar-e Pul
37.05944	08/23/2020, 00:00:00	Europe/Istanbul	accep	37.3825	Gaziantep
40.2737	12/17/2021, 00:00:00	America/New_York	excellent	-76.88442	Harrisburg
-3.20333	03/24/2013, 00:00:00	America/Santarem	accep	-52.20639	Altamira
50.64336	2017/03/13	Europe/Berlin	average	7.2278	Bad Honnef
41.20485	13 Jan 2018	Europe/Lisbon	excellent	-8.33147	Paredes
19.8173	10 Jul 2016	America/Mexico_City	building	-97.35992	Teziutlan
40.67705	05 Sep 2021	America/New_York	good	-73.89125	Cypress Hills
13.48082	2013-02-15	America/Managua	maintenance	-86.58208	Somoto
15.45144	2014-04-27	Asia/Kolkata	accep	78.14797	Betamcherla
44.73941	2013-11-27	America/Chicago	good	-93.12577	Rosemount
46.08333	2017/02/12	Asia/Shanghai	maintenance	122.08333	Ulanhot
57.97472	12/22/2013, 00:00:00	Europe/Moscow	good	33.2525	Valday
38.10558	2017-07-06	Europe/Madrid	accep	-1.86343	Caravaca
11.93381	2016/10/08	Asia/Kolkata	good	79.82979	Puducherry
34.25628	2018/01/07	America/New_York	excellent	-78.04471	Leland
48.79325	2016-08-18	Europe/Paris	accep	2.29275	Fontenay-aux-Roses
54.48147	2014-01-06	Asia/Yekaterinburg	accep	53.47103	Oktyabr‚Äôskiy
34.09668	02 Mar 2021	America/Los_Angeles	good	-117.71978	Claremont
10.15031	2020-07-24	America/Bogota	average	-73.9614	El Copey
34.65918	2021-07-25	Asia/Shanghai	accep	109.22921	Yanliang
20.88953	2014-04-28	Pacific/Honolulu	excellent	-156.47432	Kahului
53.14657	2014-01-09	Asia/Vladivostok	maintenance	140.72287	Nikolayevsk-on-Amure
52.59319	2016/09/03	Europe/Berlin	excellent	13.32127	Wittenau
47.56494	05 Mar 2020	Europe/Kiev	accep	31.33078	Voznesensk
41.8542	2015-04-02	America/Chicago	average	-87.66561	Lower West Side
17.06542	12 Aug 2020	America/Mexico_City	average	-96.72365	Oaxaca
50.5107	2017-09-02	Europe/Warsaw	accep	18.30056	Strzelce Opolskie
36.27462	2021-03-05	Africa/Algiers	good	4.85668	Bordj Zemoura
41.91886	2018/06/04	Europe/Paris	excellent	8.73812	Ajaccio
55.62047	2015/08/26	Europe/Moscow	maintenance	37.49338	Tyoply Stan
-34.28853	26 Feb 2020	Australia/Sydney	good	146.05093	Griffith
-25.42944	2015/08/24	America/Sao_Paulo	excellent	-50.00639	Palmeira
6.03333	19 May 2021	Africa/Addis_Ababa	accep	37.55	Arba Minch
41.24255	2021/04/20	America/New_York	excellent	-82.61573	Norwalk
50.76306	06/09/2022, 00:00:00	Europe/London	good	-1.29772	Cowes
51.168	16 Sep 2017	Europe/Berlin	excellent	7.973	Finnentrop
6.9909	08/12/2021, 00:00:00	Asia/Colombo	excellent	79.883	Hendala
28.54944	2015/02/22	America/New_York	excellent	-81.77285	Clermont
44.35056	2020-06-03	Asia/Tokyo	excellent	142.45778	Nayoro
7.83389	25 Feb 2015	America/Bogota	excellent	-72.47417	Villa del Rosario
45.43341	2019/11/03	America/Toronto	excellent	-73.86586	Beaconsfield
-17.73648	08 Nov 2021	Pacific/Efate	good	168.31366	Port-Vila
40.93333	08/22/2022, 00:00:00	Asia/Bishkek	maintenance	73	Jalal-Abad
20.74122	2013/02/08	America/Mexico_City	average	-100.44843	Santa Rosa Jauregui
11.86064	2017/07/26	Africa/Lagos	excellent	9.0027	Gaya
18.42745	2020/05/03	America/Puerto_Rico	good	-67.15407	Aguadilla
48.8222	2016-12-11	Europe/Paris	maintenance	2.12213	Le Chesnay
45.9836	21 Oct 2016	Europe/Rome	average	12.70038	Cordenons
53.00974	04/03/2016, 00:00:00	Europe/London	average	-3.05814	Rhosllanerchrugog
43.1122	2017/11/01	Europe/Rome	excellent	12.38878	Perugia
61.72744	2022-07-11	Europe/Stockholm	building	17.10558	Hudiksvall
55.38752	21 Feb 2014	Europe/Moscow	average	36.73307	Naro-Fominsk
32.61603	05/06/2014, 00:00:00	Asia/Baghdad	building	44.02488	Karbala
41.27194	2017-06-16	Asia/Shanghai	good	123.17306	Liaoyang
31.96258	03 Aug 2013	Asia/Karachi	accep	73.97117	Naushahra Virkan
41.77583	2015/03/02	Asia/Tokyo	building	140.73667	Hakodate
45.53929	18 Jun 2022	America/Los_Angeles	average	-122.38731	Troutdale
30.35028	2016/02/07	Asia/Shanghai	excellent	112.19028	Jingzhou
40.65538	01/24/2014, 00:00:00	America/New_York	accep	-74.38987	Scotch Plains
35.82756	07/03/2018, 00:00:00	Asia/Tokyo	accep	137.95378	Ina
49.28669	04/15/2018, 00:00:00	Europe/Paris	good	1.00288	Elbeuf
50.20528	09 May 2013	Europe/Warsaw	excellent	19.27498	Jaworzno
51.84819	11/11/2021, 00:00:00	Europe/London	accep	1.26738	Walton-on-the-Naze
44.31771	2020-08-05	Europe/Rome	accep	9.32241	Chiavari
48.52961	2014-05-03	Europe/Berlin	good	12.16179	Landshut
-2.68333	29 Jul 2013	Africa/Dar_es_Salaam	good	33	Usagara
33.41012	2015-10-28	America/Chicago	average	-91.06177	Greenville
14.95472	2016/06/04	Asia/Manila	average	120.89694	Baliuag
43.31667	2017/02/01	Europe/Madrid	building	-2.68333	Gernika-Lumo
48.73218	2017-12-27	Europe/Berlin	good	11.18709	Neuburg an der Donau
37.30553	21 Jul 2020	Asia/Shanghai	average	120.82747	Zhuangyuan
58.1908	03/10/2016, 00:00:00	Europe/Moscow	excellent	40.17171	Danilov
9.6531	2015/10/23	Asia/Manila	good	124.3697	Jagna
34.95303	2013/07/27	America/Los_Angeles	average	-120.43572	Santa Maria
41.94175	2021/05/30	Asia/Shanghai	accep	123.50266	Hushitai
55.64776	12/22/2019, 00:00:00	Europe/Moscow	accep	38.02486	Malakhovka
55.39485	2013-11-13	Europe/Moscow	average	43.83992	Arzamas
33.95015	2013/12/10	America/Los_Angeles	accep	-118.03917	South Whittier
48.86667	10/19/2018, 00:00:00	Europe/Paris	maintenance	2.08333	Marly-le-Roi
56.85836	22 Apr 2022	Europe/Moscow	maintenance	35.90057	Tver
45.9836	03/16/2021, 00:00:00	Europe/Rome	average	12.70038	Cordenons
48.35149	01 Aug 2013	Europe/Berlin	maintenance	8.96317	Hechingen
41.54566	2020-10-22	America/New_York	good	-71.29144	Middletown
21.28306	20 May 2019	America/Merida	excellent	-89.66123	Progreso
26.91756	2014-06-01	America/New_York	average	-82.07842	Punta Gorda Isles
53.49389	2013/10/06	Europe/London	excellent	-1.29243	Mexborough
39.08367	2019-12-08	America/New_York	accep	-84.50855	Covington
36.24624	09/05/2017, 00:00:00	Asia/Tokyo	average	139.07204	Fujioka
-22.53722	02/11/2016, 00:00:00	America/Sao_Paulo	good	-42.98194	Guapimirim
18.18158	30 Jul 2021	Asia/Kolkata	maintenance	76.03889	Osmanabad
18.42745	26 Sep 2019	America/Puerto_Rico	average	-67.15407	Aguadilla
25.92127	2014/04/24	Asia/Kolkata	average	86.79271	Madhipura
28.92694	2020/10/09	Asia/Kolkata	good	78.23456	Bachhraon
51.08468	09/13/2017, 00:00:00	Europe/Berlin	excellent	7.11393	Burscheid
30.76468	2013/12/04	Asia/Karachi	average	74.12286	Kanganpur
11.86064	19 May 2021	Africa/Lagos	building	9.0027	Gaya
54.48147	08/19/2022, 00:00:00	Asia/Yekaterinburg	excellent	53.47103	Oktyabr‚Äôskiy
37.31065	21 Sep 2015	Europe/Rome	accep	13.57661	Agrigento
35.50056	2018-06-15	Asia/Shanghai	good	117.63083	Pingyi
32.54278	09 Jan 2019	Asia/Shanghai	average	111.50861	Danjiangkou
44.73941	2014-01-08	America/Chicago	excellent	-93.12577	Rosemount
38.68712	03/17/2020, 00:00:00	Europe/Madrid	accep	-4.10734	Puertollano
54.48147	2017/08/20	Asia/Yekaterinburg	accep	53.47103	Oktyabr‚Äôskiy
10.7375	16 Nov 2019	Asia/Manila	good	122.9666	Talisay
37.05944	12/23/2013, 00:00:00	Europe/Istanbul	average	37.3825	Gaziantep
31.92923	2014/02/13	Asia/Jerusalem	accep	34.86563	Ramla
26.2649	2018/03/26	Asia/Kolkata	good	81.54855	Jais
35.6803	16 Jan 2013	Asia/Tehran	average	51.0193	Shahre Jadide Andisheh
32.05971	10/12/2015, 00:00:00	Asia/Jerusalem	maintenance	34.8732	Ganei Tikva
47.38093	03/27/2022, 00:00:00	America/Los_Angeles	good	-122.23484	Kent
23.18	05/01/2020, 00:00:00	Asia/Kolkata	average	88.58	Aistala
43.31667	10 Apr 2020	Europe/Madrid	building	-2.68333	Gernika-Lumo
-6.8	2013-07-23	Africa/Dar_es_Salaam	maintenance	39.25	Magomeni
59.33333	2019-10-23	Europe/Stockholm	building	18.28333	Boo
34.63915	2020-07-10	America/Los_Angeles	good	-120.45794	Lompoc
40.72371	2014-06-27	America/New_York	excellent	-73.95097	Greenpoint
33.37526	2019/02/24	Asia/Kolkata	accep	74.3092	Rajaori
60.97944	08 Jul 2016	Asia/Yekaterinburg	accep	76.92421	Izluchinsk
52.47774	2019-10-23	Europe/Berlin	excellent	10.5511	Gifhorn
40.65538	2019-12-15	America/New_York	excellent	-74.38987	Scotch Plains
52.86147	19 Nov 2014	Europe/Berlin	building	9.5926	Walsrode
12.95629	16 Aug 2015	Asia/Kolkata	accep	78.27539	Robertsonpet
36.02506	01 Mar 2019	America/Chicago	excellent	-86.77917	Brentwood Estates
32.57756	01/21/2020, 00:00:00	Asia/Karachi	excellent	71.52847	Mianwali
48.90982	2014/01/14	Europe/Paris	accep	2.45012	Bobigny
6.45407	16 Oct 2014	Africa/Lagos	average	3.39467	Lagos
50.88506	2013-04-25	Europe/Brussels	average	4.07601	Denderleeuw
50.64336	11/10/2019, 00:00:00	Europe/Berlin	excellent	7.2278	Bad Honnef
50.82882	2021/02/09	Europe/London	accep	-0.32247	Lancing
14.62578	2018/12/14	Asia/Manila	average	121.12251	Antipolo
35.21222	2022/07/01	Africa/Algiers	maintenance	2.31889	Ksar Chellala
5.4709	04/04/2014, 00:00:00	Asia/Kuala_Lumpur	accep	100.24529	Batu Feringgi
-31.95224	2022/04/30	Australia/Perth	average	115.8614	Perth
35.85	22 Dec 2019	Asia/Shanghai	average	117.7	Dongdu
33.35283	2018-09-19	America/Phoenix	accep	-111.78903	Gilbert
15.48131	2014/09/12	America/Tegucigalpa	average	-86.57415	Olanchito
51.78771	24 Nov 2017	Asia/Yekaterinburg	maintenance	56.36091	Saraktash
60.2052	11 Aug 2017	Europe/Helsinki	good	24.6522	Espoo
44.43579	01/06/2014, 00:00:00	Europe/Bucharest	average	26.01649	Sector 6
47.83333	16 Feb 2016	Asia/Aqtobe	accep	59.6	Shalqar
36.76639	19 Apr 2018	Africa/Algiers	excellent	3.47717	Boumerdas
-3.14306	06 Mar 2015	America/Manaus	excellent	-58.44417	Itacoatiara
48.07667	2015/09/13	Europe/Berlin	maintenance	8.64409	Trossingen
42.97086	2021-09-24	America/Detroit	excellent	-82.42491	Port Huron
40.92298	24 Apr 2017	Europe/Rome	excellent	14.30935	Afragola
40.65995	17 Jun 2021	America/Denver	good	-111.99633	Kearns
16.06213	2013-07-02	Asia/Kolkata	average	76.0586	Hungund
7.62789	2020/02/21	Africa/Lagos	maintenance	4.74161	Ilesa
45.79377	2018/12/13	Europe/Rome	excellent	8.88104	Malnate
35.06544	12/11/2019, 00:00:00	Africa/Algiers	acceptable	1.04945	Frenda
3.51667	12 Jan 2019	Africa/Douala	good	11.5	Mbalmayo
4.92675	2019-10-04	Africa/Lagos	good	6.26764	Yenagoa
48.49144	11/24/2015, 00:00:00	Europe/Berlin	good	9.20427	Reutlingen
-0.71667	29 Apr 2015	America/Belem	excellent	-48.52333	Soure
50.09019	12/21/2021, 00:00:00	Europe/Berlin	good	8.4493	Hofheim am Taunus
51.21667	12/11/2018, 00:00:00	Europe/Berlin	excellent	6.26667	Schwalmtal
51.30001	2020-02-06	Europe/Berlin	good	13.10984	Oschatz
50.75	2022-04-23	Europe/Paris	accep	2.25	Saint-Omer
38.54491	21 Apr 2022	America/Los_Angeles	excellent	-121.74052	Davis
42	02 Sep 2015	Europe/Skopje	good	21.32778	Saraj
35.82756	2016/09/22	Asia/Tokyo	excellent	137.95378	Ina
5.30383	29 Dec 2012	Africa/Accra	excellent	-1.98956	Tarkwa
33.95015	05/11/2020, 00:00:00	America/Los_Angeles	excellent	-118.03917	South Whittier
13.56667	2016-07-03	Africa/Banjul	excellent	-15.6	Farafenni
48.78232	26 Feb 2013	Europe/Berlin	good	9.17702	Stuttgart
51.47805	02/26/2020, 00:00:00	Europe/Berlin	excellent	6.8625	Oberhausen
27.92333	20 Apr 2021	Asia/Shanghai	excellent	118.53333	Pucheng
34.25807	2020/03/23	America/Chicago	building	-88.70464	Tupelo
52.09	2018/10/04	Europe/Amsterdam	accep	5.23333	Zeist
-8.28333	2018/06/10	America/Recife	average	-35.03333	Cabo
33.50921	20 Nov 2012	America/Phoenix	good	-111.89903	Scottsdale
-8.28333	2015-08-07	America/Recife	building	-35.03333	Cabo
51.39148	2017/09/27	Europe/London	good	-0.29825	Surbiton
15.46063	2019/02/02	Asia/Bangkok	average	99.89166	Thap Than
38.54491	2015/08/24	America/Los_Angeles	accep	-121.74052	Davis
14.37395	19 Jul 2018	Asia/Bangkok	maintenance	100.48528	Bang Ban
31.39547	2019/02/10	Asia/Jerusalem	excellent	34.75699	Rahat
24.41288	11 Jul 2013	Asia/Kolkata	average	76.56719	Aklera
45.53069	2015/07/06	Europe/Rome	excellent	9.40531	Gorgonzola
51.78967	06/22/2019, 00:00:00	Europe/London	excellent	1.15597	Clacton-on-Sea
-1.26424	2020/05/10	Asia/Jakarta	building	104.09701	Simpang
42.8139	05/06/2018, 00:00:00	Europe/Madrid	good	-1.64295	Segundo Ensanche
46.51872	01 Mar 2017	Asia/Urumqi	excellent	86.00214	Hoxtolgay
37.56667	29 Jun 2020	Asia/Tokyo	good	140.11667	Inawashiro
26.2173	2015/12/10	America/New_York	accep	-80.22588	North Lauderdale
38.45598	11/03/2018, 00:00:00	Asia/Baku	building	48.87498	Astara
45.44868	2022/07/09	America/Toronto	average	-73.81669	Pointe-Claire
7.50251	2019-12-09	Africa/Lagos	average	5.06258	Igbara-Odo
36.53333	23 May 2017	Asia/Tokyo	excellent	136.61667	Nonoichi
7.57944	02/14/2017, 00:00:00	Africa/Monrovia	good	-8.53778	New Yekepa
45.0408	08/24/2017, 00:00:00	America/Chicago	excellent	-93.263	Columbia Heights
42.62833	2013-10-18	Europe/Belgrade	average	20.89389	Glogovac
41.91738	24 May 2015	Europe/Madrid	excellent	3.1631	Palafrugell
-7.60361	05/06/2017, 00:00:00	Africa/Dar_es_Salaam	good	37.00438	Kidodi
35.88264	2020-02-09	America/New_York	excellent	-80.08199	Thomasville
51.95838	2014/06/19	Europe/Amsterdam	accep	4.47124	Schiebroek
45.78071	06/18/2013, 00:00:00	Europe/Rome	excellent	12.84052	Portogruaro
24.81757	08/16/2016, 00:00:00	Asia/Kolkata	average	84.63445	Rafiganj
45.43341	2016/01/18	America/Toronto	accep	-73.86586	Beaconsfield
42.30865	24 Sep 2019	America/Detroit	building	-83.48216	Canton
-20.87306	08/25/2015, 00:00:00	America/Sao_Paulo	good	-48.29694	Viradouro
48.28259	2017-04-05	Europe/Berlin	maintenance	9.72749	Ehingen
43.1122	09 Jun 2019	Europe/Rome	average	12.38878	Perugia
2.2139	2019-08-24	Asia/Kuala_Lumpur	good	102.3278	Kampung Ayer Molek
33.95015	2016-01-21	America/Los_Angeles	building	-118.03917	South Whittier
14.14989	2019-07-13	Asia/Manila	excellent	121.3152	Calauan
54.84444	2021/01/06	Europe/Moscow	maintenance	38.16694	Kashira
54.84444	2013/01/15	Europe/Moscow	accep	38.16694	Kashira
42.55308	29 Sep 2017	America/Chicago	excellent	-87.93341	Pleasant Prairie
48	09/11/2021, 00:00:00	Europe/Paris	accep	-4.1	Quimper
19.30157	2017-09-14	Asia/Kolkata	average	72.85107	Bhayandar
54.8421	2019-05-24	Europe/Moscow	building	46.5813	Alatyr‚Äô
39.12074	2020/09/20	Europe/Istanbul	average	27.18052	Bergama
51.39323	2014-07-01	Europe/London	good	0.47713	Strood
24.05979	2013/12/22	Asia/Kolkata	accep	77.40858	Leteri
39.78504	2016/07/24	America/Indiana/Indianapolis	maintenance	-85.76942	Greenfield
34.63915	2022/09/04	America/Los_Angeles	maintenance	-120.45794	Lompoc
41.14676	13 May 2020	America/New_York	average	-73.49484	New Canaan
42.97086	2022-05-27	America/Detroit	good	-82.42491	Port Huron
9.92787	2021-07-11	America/Costa_Rica	average	-84.13722	San Rafael
56.03361	2018-10-21	Europe/Moscow	average	35.96944	Volokolamsk
38.91817	08 Aug 2017	America/New_York	good	-78.19444	Front Royal
43.91452	27 Oct 2020	America/New_York	good	-69.96533	Brunswick
44.85278	2019-11-29	Asia/Qyzylorda	good	65.50917	Kyzylorda
0.03813	23 Aug 2020	Africa/Nairobi	average	36.36339	Nyahururu
33.35283	03/17/2020, 00:00:00	America/Phoenix	accep	-111.78903	Gilbert
15.48131	23 Oct 2019	America/Tegucigalpa	accep	-86.57415	Olanchito
42.24113	01/10/2022, 00:00:00	America/Chicago	accep	-88.3162	Crystal Lake
35.815	06/29/2021, 00:00:00	Asia/Tokyo	good	139.6853	Shimotoda
41.91886	07/26/2013, 00:00:00	Europe/Paris	excellent	8.73812	Ajaccio
61.78491	23 Oct 2017	Europe/Moscow	average	34.34691	Petrozavodsk
-11.78333	07 Aug 2013	Africa/Luanda	accep	19.91667	Luena
34.95303	22 Mar 2019	America/Los_Angeles	excellent	-120.43572	Santa Maria
54.60528	2019-09-09	Europe/Warsaw	accep	18.34717	Reda
6.9909	2013/04/20	Asia/Colombo	excellent	79.883	Hendala
60.2052	2021-05-06	Europe/Helsinki	accep	24.6522	Espoo
12.1277	15 Sep 2021	Asia/Kolkata	average	78.15794	Dharmapuri
38.54491	10/02/2019, 00:00:00	America/Los_Angeles	average	-121.74052	Davis
-22.57306	2015-09-14	America/Sao_Paulo	good	-47.1725	Artur Nogueira
30.46907	06/22/2018, 00:00:00	Asia/Karachi	excellent	70.96699	Kot Addu
65.84811	2017-04-16	Europe/Helsinki	building	24.14662	Tornio
52.14	03/25/2021, 00:00:00	Europe/Amsterdam	accep	5.58472	Barneveld
13.70167	12/12/2015, 00:00:00	America/El_Salvador	good	-89.10944	Ilopango
52.09	2018/12/17	Europe/Amsterdam	excellent	5.23333	Zeist
3.31332	2021/02/25	Asia/Makassar	accep	117.59152	Tarakan
38.47917	04/29/2020, 00:00:00	Europe/Madrid	accep	-1.325	Jumilla
34.81667	2018/10/04	Asia/Tokyo	accep	137.4	Toyokawa
48.25	2015/12/13	Europe/Vienna	accep	16.4	Floridsdorf
45.99194	2020-03-10	Europe/Kiev	excellent	29.41824	Artsyz
58.04254	2017-02-20	Asia/Yekaterinburg	average	65.27258	Tavda
45.73333	09 Sep 2017	Europe/Paris	accep	4.91667	Bron
53.7446	2019-06-21	Europe/London	good	-0.33525	Kingston upon Hull
53.6052	04/05/2020, 00:00:00	Europe/Berlin	accep	10.03988	Barmbek-Nord
8.88649	09/07/2013, 00:00:00	Africa/Porto-Novo	excellent	2.59753	Tchaourou
53.5942	2020/12/21	Europe/Minsk	excellent	25.8191	Novogrudok
10.20898	03/08/2016, 00:00:00	Asia/Manila	good	123.758	Naga
45.16024	2021-04-25	America/Chicago	good	-93.08883	Lino Lakes
43.54072	2017/01/07	America/Boise	excellent	-116.56346	Nampa
38.91817	27 Jun 2014	America/New_York	good	-78.19444	Front Royal
-27.76952	29 Aug 2022	Africa/Johannesburg	maintenance	30.79165	Vryheid
35	2021/07/27	Asia/Tokyo	average	136.51667	Komono
25.6439	10 Apr 2021	Asia/Kolkata	accep	77.9129	Narwar
41.24264	2016/03/17	Europe/Rome	maintenance	16.50104	Bisceglie
51.65333	2022/04/16	Europe/Amsterdam	average	5.2875	Vught
51.67822	12/11/2014, 00:00:00	Europe/Kiev	good	33.9162	Hlukhiv
46.65581	2013/05/19	Europe/Kiev	average	32.6178	Kherson
40.42386	03/11/2019, 00:00:00	Europe/Madrid	average	-3.53261	San Fernando de Henares
33.43443	06/15/2015, 00:00:00	Africa/Casablanca	maintenance	-5.22126	Azrou
43.83125	2014-04-02	Europe/Paris	excellent	5.03586	Cavaillon
-8.43333	2018/06/22	Asia/Jakarta	building	114.33333	Muncar
-2.90055	2017/08/02	America/Guayaquil	accep	-79.00453	Cuenca
29.84576	2014-07-24	America/Chicago	maintenance	-90.10674	Estelle
-21.42917	2018-12-06	America/Sao_Paulo	building	-45.94722	Alfenas
10.12268	2022/05/03	Asia/Kolkata	average	77.54372	Periyakulam
-19.72806	2016/09/04	America/Sao_Paulo	excellent	-50.19556	Iturama
35.6803	12 Dec 2021	Asia/Tehran	accep	51.0193	Shahre Jadide Andisheh
14.14989	2013-05-30	Asia/Manila	excellent	121.3152	Calauan
-33.88096	2022-04-21	Australia/Sydney	building	151.07986	Strathfield
38.40917	14 Jul 2019	Asia/Shanghai	accep	112.73333	Xinzhou
19.04222	05/21/2014, 00:00:00	America/Mexico_City	accep	-98.11889	Casa Blanca
41.09822	2020/02/16	Asia/Shanghai	good	120.74792	Nanpiao
47.30997	08/22/2022, 00:00:00	Europe/Zurich	good	8.52462	Adliswil
21.34222	2018/10/25	Asia/Kolkata	accep	71.30633	Kundla
49.88307	06/05/2022, 00:00:00	America/Vancouver	average	-119.48568	Kelowna
35.82756	2013-05-06	Asia/Tokyo	maintenance	137.95378	Ina
52.61131	2013-07-06	Europe/Berlin	maintenance	13.31783	Hermsdorf
-4.26613	2016/10/08	Africa/Brazzaville	excellent	15.28318	Brazzaville
38.96372	2020/03/18	America/New_York	good	-76.99081	Chillum
10.61285	04 Feb 2013	Africa/Lagos	good	12.19458	Biu
33.86419	2016-05-10	Asia/Tehran	maintenance	48.26258	Aleshtar
32.55531	2019-01-26	Asia/Kolkata	average	76.12647	Chamba
42.97086	03/04/2022, 00:00:00	America/Detroit	building	-82.42491	Port Huron
48.06919	30 Apr 2014	Europe/Berlin	maintenance	11.37703	Gauting
-3.20333	13 Mar 2015	America/Santarem	excellent	-52.20639	Altamira
-1.26753	2015-06-13	Asia/Makassar	average	116.82887	Balikpapan
41.55815	05/04/2014, 00:00:00	America/New_York	good	-73.0515	Waterbury
44.85278	2017/11/26	Asia/Qyzylorda	accep	65.50917	Kyzylorda
31.28092	05/16/2018, 00:00:00	Asia/Kolkata	accep	74.85849	Patti
46.1351	03/19/2014, 00:00:00	America/Glace_Bay	excellent	-60.1831	Sydney
28.54944	2018-03-20	America/New_York	building	-81.77285	Clermont
-3.14306	2021/08/07	America/Manaus	accep	-58.44417	Itacoatiara
-3.5403	2015/02/16	Asia/Makassar	average	118.9707	Majene
0.51667	2015/07/20	Asia/Jakarta	maintenance	101.44167	Pekanbaru
13.65805	2021/08/02	Asia/Phnom_Penh	average	102.56365	Paoy Paet
45.9836	12/14/2021, 00:00:00	Europe/Rome	accep	12.70038	Cordenons
27.52948	2017-04-13	Asia/Karachi	excellent	68.75915	Khairpur Mir‚Äôs
43.35071	2015/09/14	Europe/Moscow	good	46.10925	Gudermes
13.73417	2017/04/25	America/El_Salvador	accep	-89.71472	Sonzacate
51.14942	2016/12/17	Europe/Warsaw	good	15.00835	Zgorzelec
43.78956	2019-12-23	Europe/Rome	excellent	7.60872	Ventimiglia
51.4781	29 Dec 2017	Asia/Yekaterinburg	accep	57.3552	Kuvandyk
51.82721	2017/10/05	Asia/Irkutsk	maintenance	107.60627	Ulan-Ude
48.35149	10/13/2019, 00:00:00	Europe/Berlin	excellent	8.96317	Hechingen
41.9001	2015-01-06	America/New_York	good	-71.08977	Taunton
-6.8048	2014/08/09	Asia/Jakarta	accep	110.8405	Kudus
34.14251	2022/03/08	America/Los_Angeles	accep	-118.25508	Glendale
32.50611	03 Jan 2015	Asia/Shanghai	excellent	120.14278	Jiangyan
45.4473	2014/03/29	America/Toronto	good	-73.75335	Dorval
25.92493	27 Oct 2019	Asia/Kolkata	maintenance	73.66633	Sojat
39.08367	2016-02-24	America/New_York	accep	-84.50855	Covington
45.49428	2018-05-30	America/Los_Angeles	good	-122.86705	Aloha
-20.25333	2015/03/17	America/Sao_Paulo	accep	-43.80139	Itabirito
28.15112	2015/07/28	America/New_York	good	-82.46148	Lutz
14.95472	20 Oct 2021	Asia/Manila	accep	120.89694	Baliuag
33.44872	2013/03/29	America/Chicago	average	-86.78777	Vestavia Hills
-5.85746	2015-03-01	Pacific/Port_Moresby	good	144.23058	Mount Hagen
51.47805	2016-11-27	Europe/Berlin	excellent	6.8625	Oberhausen
42.55308	03/31/2019, 00:00:00	America/Chicago	building	-87.93341	Pleasant Prairie
-1.63333	09/26/2014, 00:00:00	Africa/Libreville	excellent	13.58357	Franceville
40.2737	2017-07-25	America/New_York	average	-76.88442	Harrisburg
15.45144	2013-09-18	Asia/Kolkata	maintenance	78.14797	Betamcherla
53.59337	2012/09/28	Europe/Berlin	average	9.47629	Stade
14.93333	2012/12/05	America/Guatemala	excellent	-91.11667	Chichicastenango
47.90771	07/31/2013, 00:00:00	Asia/Ulaanbaatar	good	106.88324	Ulan Bator
48.35693	04/11/2017, 00:00:00	Europe/Berlin	average	10.98461	Friedberg
-0.71667	09/03/2020, 00:00:00	America/Belem	good	-48.52333	Soure
9.6531	05 Oct 2020	Asia/Manila	good	124.3697	Jagna
36.19278	01/17/2018, 00:00:00	Asia/Shanghai	maintenance	117.65694	Laiwu
42.64685	03 Feb 2018	Europe/Madrid	accep	-5.55835	Villaquilambre
34.15429	2015-03-09	Africa/Algiers	excellent	3.50309	Messaad
48.86667	2022/02/09	Europe/Paris	average	2.08333	Marly-le-Roi
51.26	16 Dec 2019	Europe/London	accep	-2.1875	Westbury
36.76775	01 Feb 2014	Africa/Algiers	accep	2.95924	Cheraga
-2.68333	2020/10/17	Africa/Dar_es_Salaam	average	33	Usagara
60.2052	10/17/2017, 00:00:00	Europe/Helsinki	average	24.6522	Espoo
38.13708	06/16/2022, 00:00:00	Europe/Istanbul	accep	41.00817	Silvan
37.60876	20 Aug 2022	America/New_York	accep	-77.37331	Mechanicsville
41.1053	10/09/2018, 00:00:00	Europe/Lisbon	good	-7.32097	Custoias
26.76628	01 Nov 2017	Asia/Kolkata	accep	83.36889	Gorakhpur
45.47885	2019-03-12	Asia/Vladivostok	accep	133.42825	Lesozavodsk
40.55851	2017-03-05	Europe/Rome	accep	17.80774	Mesagne
52.21099	2014-10-13	Europe/Berlin	accep	7.02238	Gronau
49.41029	2013/11/29	Europe/Zaporozhye	good	38.15035	Svatove
-34.64966	2022/04/14	America/Argentina/Buenos_Aires	average	-58.38341	Barracas
21.53889	04/09/2016, 00:00:00	Asia/Kolkata	excellent	71.57737	Gariadhar
41.24264	03/14/2020, 00:00:00	Europe/Rome	average	16.50104	Bisceglie
53.69786	08 Jun 2019	Europe/London	accep	-2.68758	Leyland
45.39402	05/01/2015, 00:00:00	Europe/Rome	average	9.29109	San Giuliano Milanese
56.9083	27 Aug 2018	Asia/Yekaterinburg	good	60.8019	Beryozovsky
41.14676	2014/08/03	America/New_York	accep	-73.49484	New Canaan
40.65538	09/28/2017, 00:00:00	America/New_York	building	-74.38987	Scotch Plains
35.82756	2013-07-19	Asia/Tokyo	excellent	137.95378	Ina
-4.24444	08/01/2018, 00:00:00	America/Fortaleza	good	-42.29444	Barras
-27.50578	25 Aug 2022	Australia/Brisbane	accep	153.10236	Carindale
41.6764	29 Jul 2021	America/Chicago	average	-91.58045	Coralville
-2.90055	14 Sep 2020	America/Guayaquil	building	-79.00453	Cuenca
20.74122	2015/03/04	America/Mexico_City	accep	-100.44843	Santa Rosa Jauregui
12.1277	23 Apr 2022	Asia/Kolkata	average	78.15794	Dharmapuri
26.32293	08/22/2018, 00:00:00	Asia/Kolkata	accep	91.00632	Barpeta
36.61954	07 Jun 2013	Africa/Algiers	excellent	4.08282	Beni Douala
9.58126	20 Aug 2014	Africa/Lagos	maintenance	8.2926	Kafanchan
34.65918	2012-11-02	Asia/Shanghai	good	109.22921	Yanliang
20.88197	18 Mar 2016	Asia/Kolkata	accep	85.83334	Bhuban
47.56494	03 Nov 2014	Europe/Kiev	accep	31.33078	Voznesensk
12.18441	26 Jan 2020	Africa/Ndjamena	maintenance	18.69303	Mongo
41.6764	09/25/2018, 00:00:00	America/Chicago	average	-91.58045	Coralville
41.57439	2020-04-19	Europe/Sofia	maintenance	24.71204	Smolyan
42.8334	08/20/2013, 00:00:00	America/Toronto	excellent	-80.38297	Norfolk County
8.48714	2021-09-12	Africa/Freetown	good	-13.2356	Freetown
36.24624	2017-10-22	Asia/Tokyo	excellent	139.07204	Fujioka
8.43333	26 Jun 2019	Asia/Bangkok	good	99.96667	Nakhon Si Thammarat
41.54566	2020-02-18	America/New_York	good	-71.29144	Middletown
36.81667	01/31/2018, 00:00:00	Asia/Shanghai	building	117.81667	Zhoucun
61.78491	08/10/2021, 00:00:00	Europe/Moscow	building	34.34691	Petrozavodsk
41.57721	2013-09-07	America/Chicago	good	-93.71133	West Des Moines
37.52487	2014-11-14	America/New_York	building	-77.55777	Bon Air
41.8542	2019-10-14	America/Chicago	average	-87.66561	Lower West Side
8.88988	2022/07/07	America/Panama	maintenance	-79.62603	Veracruz
35.89972	05 Jul 2020	Europe/Malta	accep	14.51472	Valletta
52.4581	10/02/2014, 00:00:00	Europe/Berlin	accep	13.28702	Dahlem
43.48961	2017-02-09	Europe/Madrid	accep	-8.2194	Ferrol
-33.59217	01/31/2019, 00:00:00	America/Santiago	accep	-70.6996	San Bernardo
40.58654	06 Dec 2012	America/Los_Angeles	excellent	-122.39168	Redding
3.02013	2015/03/07	Africa/Kampala	accep	30.91105	Arua
45.39402	2018-05-06	Europe/Rome	maitennce	9.29109	San Giuliano Milanese
-28.81833	2014-03-17	America/Sao_Paulo	average	-52.51028	Soledade
-6.8	10/04/2017, 00:00:00	Africa/Dar_es_Salaam	average	39.25	Magomeni
13.70167	03/03/2013, 00:00:00	America/El_Salvador	average	-89.10944	Ilopango
54.84444	15 Mar 2017	Europe/Moscow	accep	38.16694	Kashira
36.21544	2015/07/13	Asia/Kabul	accep	65.93249	Sar-e Pul
46.67535	2019-02-27	Europe/Paris	maintenance	5.55575	Lons-le-Saunier
41.48199	2017/12/28	America/New_York	average	-81.79819	Lakewood
43.96222	2017-04-03	Europe/Moscow	accep	43.63417	Novopavlovsk
13.44581	2022/09/24	Asia/Bangkok	good	101.18445	Phanat Nikhom
58.1908	2015/08/01	Europe/Moscow	maintenance	40.17171	Danilov
44.89784	2016/12/28	Europe/Rome	maintenance	8.86374	Tortona
40.72586	03/09/2015, 00:00:00	Europe/Rome	maintenance	8.55552	Sassari
34.25807	2016/06/27	America/Chicago	maintenance	-88.70464	Tupelo
10.63504	03/12/2013, 00:00:00	America/Costa_Rica	accep	-85.43772	Liberia
14.37395	2017/02/13	Asia/Bangkok	average	100.48528	Bang Ban
40.72586	26 Sep 2016	Europe/Rome	good	8.55552	Sassari
43.61062	03/11/2018, 00:00:00	America/New_York	good	-72.97261	Rutland
33.86419	12/10/2020, 00:00:00	Asia/Tehran	excellent	48.26258	Aleshtar
39.33427	17 Aug 2018	America/New_York	building	-76.43941	Middle River
7.83389	2013-06-04	America/Bogota	average	-72.47417	Villa del Rosario
31.39547	05/03/2015, 00:00:00	Asia/Jerusalem	good	34.75699	Rahat
10.66668	2013-10-19	America/Port_of_Spain	excellent	-61.51889	Port of Spain
22.75218	07 Feb 2015	Asia/Kolkata	maintenance	72.68533	Kheda
4.73245	2020-06-06	America/Bogota	good	-74.26419	Madrid
50.9803	03 Jan 2019	Europe/Berlin	average	11.32903	Weimar
45.75279	05 Dec 2014	Asia/Shanghai	excellent	130.57211	Boli
45.16024	17 Dec 2021	America/Chicago	building	-93.08883	Lino Lakes
44.22639	2016-05-17	Europe/Belgrade	average	22.53083	Negotin
31.78336	2013-09-10	Asia/Hebron	excellent	35.23388	East Jerusalem
37.65181	2020-08-27	Asia/Shanghai	building	120.33063	Longgang
1.6561	2022-02-24	Asia/Kuala_Lumpur	good	103.6032	Kulai
26.18924	2021-03-01	America/Chicago	good	-98.15529	San Juan
27.34089	03/03/2019, 00:00:00	Asia/Shanghai	accep	117.4831	Shaowu
23.73333	10 Feb 2020	Asia/Shanghai	building	114.68333	Heyuan
50.11861	03 Jul 2020	Europe/London	maintenance	-5.53715	Penzance
16.06213	06/09/2022, 00:00:00	Asia/Kolkata	accep	76.0586	Hungund
37.08819	2016/11/07	Europe/Lisbon	accep	-8.2503	Albufeira
24.81757	2021-01-10	Asia/Kolkata	accep	84.63445	Rafiganj
34.06635	01/05/2020, 00:00:00	America/New_York	excellent	-84.67837	Acworth
34.56861	2015/04/09	Asia/Shanghai	average	105.89333	Beidao
53.59782	2014/12/13	Europe/Moscow	excellent	34.33825	Dyat‚Äôkovo
37.52487	2022/07/19	America/New_York	excellent	-77.55777	Bon Air
55.54028	02 Dec 2020	Asia/Krasnoyarsk	building	89.20083	Sharypovo
45.47885	01/24/2020, 00:00:00	Asia/Vladivostok	good	133.42825	Lesozavodsk
-12.91667	18 May 2020	America/Bahia	accep	-39.25	Muritiba
-0.35817	06/25/2022, 00:00:00	Africa/Mogadishu	good	42.54536	Kismayo
40.53123	14 Apr 2022	Europe/Rome	excellent	17.58522	Francavilla Fontana
12.74409	09/22/2019, 00:00:00	Africa/Bamako	average	-8.07257	Kati
14.62072	12/14/2013, 00:00:00	Asia/Kolkata	maintenance	74.83554	Sirsi
33.4425	19 Sep 2021	Asia/Tokyo	accep	129.96972	Karatsu
53.81667	2021-01-03	Europe/London	good	-3.05	Blackpool
-37.88333	01 Jul 2018	Australia/Melbourne	excellent	145.06667	Carnegie
30.21121	2022-04-05	Asia/Kolkata	maintenance	74.4818	Malaut
28.92694	2014/04/02	Asia/Kolkata	building	78.23456	Bachhraon
33.03699	2015-06-21	America/Los_Angeles	maintenance	-117.29198	Encinitas
3.31332	22 Nov 2014	Asia/Makassar	excellent	117.59152	Tarakan
51.14942	23 Jul 2017	Europe/Warsaw	average	15.00835	Zgorzelec
51.26	2013/10/13	Europe/London	maintenance	-2.1875	Westbury
36.46917	21 Apr 2015	Africa/Tunis	accep	10.78222	Beni Khiar
42.67164	25 Feb 2019	Europe/Rome	average	14.01481	Roseto degli Abruzzi
51.47805	2012/12/02	Europe/Berlin	building	6.8625	Oberhausen
47.56494	09/14/2017, 00:00:00	Europe/Kiev	building	31.33078	Voznesensk
33.08014	2016-06-17	America/New_York	accep	-83.2321	Milledgeville
41.50343	2014/01/04	America/New_York	excellent	-74.01042	Newburgh
34.61667	2015-07-16	Asia/Tokyo	building	135.6	Yao
50.8	03 Nov 2019	Europe/Brussels	accep	3.16667	Wevelgem
36.81667	2015-01-03	Asia/Shanghai	excellent	117.81667	Zhoucun
37.95143	2014/11/19	America/Chicago	accep	-91.77127	Rolla
41.77583	31 Aug 2013	Asia/Tokyo	good	140.73667	Hakodate
34.8825	2017/02/15	Asia/Seoul	good	128.62667	Sinhyeon
23.9028	2021/01/17	Asia/Dhaka	good	89.11943	Kushtia
-19.7625	11 Jan 2021	America/Sao_Paulo	average	-44.31389	Esmeraldas
28.54944	2015/05/16	America/New_York	maintenance	-81.77285	Clermont
