station	latitude	code	revision	QoS	longitude
Vahdat	38.55632	TJ	2020-05-10	building	69.01354
Clermont	28.54944	US	2022/02/16	excellent	-81.77285
Teziutlan	19.8173	MX	07/16/2018, 00:00:00	average	-97.35992
Sinhyeon	34.8825	KR	2015/03/23	good	128.62667
Corralillo	22.98212	CU	13 Feb 2017	excellent	-80.58556
Ukmerge	55.25	LT	02/22/2014, 00:00:00	building	24.75
Kolomyagi	60.02427	RU	2014/06/24	accep	30.28491
Weimar	50.9803	DE	2021/02/11	accep	11.32903
Ngemplak	-7.54972	ID	2017-12-31	accep	110.71639
Barmbek-Nord	53.6052	DE	2020-11-12	good	10.03988
Malden	42.4251	US	2019/03/20	good	-71.06616
Andes	5.6561	CO	2019/12/27	excellent	-75.87877
Veracruz	8.88988	PA	2016-09-01	accep	-79.62603
Sarandi	-23.44361	BR	11 Apr 2013	building	-51.87389
High Wycombe	51.62907	GB	11/18/2017, 00:00:00	accep	-0.74934
Devizes	51.35084	GB	2021-12-03	excellent	-1.99421
Catania	37.49223	IT	19 Aug 2017	building	15.07041
Hueytown	33.45122	US	2022-02-07	average	-86.99666
Paoy Paet	13.65805	KH	19 Sep 2021	accep	102.56365
Culemborg	51.955	NL	2017-12-23	accep	5.22778
Bibiani	6.46346	GH	12/02/2015, 00:00:00	excellent	-2.31938
Diwek	-7.57897	ID	01/11/2019, 00:00:00	accep	112.23109
Lebanon	39.43534	US	2019-04-05	excellent	-84.20299
Roseto degli Abruzzi	42.67164	IT	2013/01/25	excellent	14.01481
Hartley	51.38673	GB	02 Jun 2014	accep	0.30367
Columbia Heights	45.0408	US	2018/05/22	building	-93.263
Iwade	34.25	JP	2017-07-11	accep	135.31667
Kyzylorda	44.85278	KZ	2013-04-23	average	65.50917
Taozhuang	34.85	CN	2013-08-11	average	117.33333
Gainesville	29.65163	US	01/04/2021, 00:00:00	good	-82.32483
Encinitas	33.03699	US	2017/10/08	good	-117.29198
Sukabumi	-6.91806	ID	2016/01/26	excellent	106.92667
Cowes	50.76306	GB	2020-02-21	excellent	-1.29772
Leioa	43.32686	ES	2015-02-05	maintenance	-2.98884
Magomeni	-6.8	TZ	04/19/2019, 00:00:00	average	39.25
Ushuaia	-54.8	AR	2013-10-25	average	-68.3
Krymsk	44.92934	RU	09/23/2022, 00:00:00	average	37.99117
Suzaka	36.65	JP	06/30/2018, 00:00:00	good	138.31667
Glogovac	42.62833	XK	2019/01/29	good	20.89389
Iringa	-7.76667	TZ	12/27/2012, 00:00:00	accep	35.7
Sainte-Catherine	45.40008	CA	2015-07-18	maintenance	-73.58248
Gauting	48.06919	DE	08 Nov 2012	building	11.37703
Visitacion Valley	37.71715	US	2020-09-08	maintenance	-122.40433
Gingee	12.25282	IN	06/30/2019, 00:00:00	excellent	79.41727
Collinwood	41.55838	US	28 Nov 2021	good	-81.56929
Valletta	35.89972	MT	10 Jan 2018	average	14.51472
Stade	53.59337	DE	11/03/2013, 00:00:00	excellent	9.47629
Muskogee	35.74788	US	17 Mar 2016	good	-95.36969
Norwalk	41.24255	US	04 Jan 2015	accep	-82.61573
Francavilla Fontana	40.53123	IT	09/18/2018, 00:00:00	excellent	17.58522
Fontenay-aux-Roses	48.79325	FR	2019-12-07	accep	2.29275
Reus	41.15612	ES	2020/06/28	average	1.10687
Zaozhuang	34.86472	CN	01/04/2016, 00:00:00	excellent	117.55417
Ariccia	41.72063	IT	28 May 2016	average	12.6723
Sicklerville	39.71734	US	2015-12-02	excellent	-74.96933
Hengshui	37.73222	CN	2016-02-18	average	115.70111
Rutland	43.61062	US	08/20/2022, 00:00:00	excellent	-72.97261
Budva	42.28639	ME	2013/04/01	average	18.84
Markham	43.86682	CA	2012-11-22	average	-79.2663
Blackpool	53.81667	GB	2019-03-09	maintenance	-3.05
Zhoushan	29.98869	CN	09/11/2017, 00:00:00	accep	122.20488
Carlos Barbosa	-29.2975	BR	2021/06/14	excellent	-51.50361
Denderleeuw	50.88506	BE	2017-04-20	good	4.07601
Sar-e Pul	36.21544	AF	2018/06/02	average	65.93249
Gainesville	29.65163	US	2016/05/03	good	-82.32483
Nonsan	36.20389	KR	07/13/2015, 00:00:00	good	127.08472
Alipur	29.38242	PK	2021/10/31	excellent	70.91106
Viewpark	55.82737	GB	12/09/2014, 00:00:00	maintenance	-4.0573
Meerut	28.98002	IN	2017/07/02	excellent	77.70636
Camayenne	9.535	GN	2015/05/12	building	-13.68778
Kobuleti	41.82143	GE	2014/04/25	accep	41.77921
Gariadhar	21.53889	IN	09/03/2017, 00:00:00	maintenance	71.57737
Maasin	10.13361	PH	2013-05-19	excellent	124.84472
Parola	20.88098	IN	2020-02-05	excellent	75.11937
Aberdeen	57.14369	GB	21 Feb 2019	average	-2.09814
Ciudad Guayana	8.35122	VE	2021-02-10	accep	-62.64102
Casa Blanca	19.04222	MX	2015-11-20	excellent	-98.11889
Frankston South	-38.16604	AU	2020-03-11	accep	145.13643
Martinsburg	39.45621	US	2017-04-19	maintenance	-77.96389
Brzeg	50.86079	PL	18 Mar 2015	excellent	17.4674
Rolla	37.95143	US	2012-10-04	average	-91.77127
Tonga	4.96667	CM	26 Mar 2016	excellent	10.7
North Lauderdale	26.2173	US	2019-08-20	average	-80.22588
Gilbert	33.35283	US	06 Nov 2013	excellent	-111.78903
Grand Forks	47.92526	US	10/30/2021, 00:00:00	average	-97.03285
Bridgeport	41.16704	US	06/03/2013, 00:00:00	accep	-73.20483
Dongdu	35.85	CN	26 Apr 2014	accep	117.7
Ilopango	13.70167	SV	02/24/2017, 00:00:00	average	-89.10944
Daud Khel	32.87533	PK	05 May 2020	excellent	71.57118
Kireyevsk	53.93361	RU	21 Aug 2022	excellent	37.92792
Lagos	6.45407	NG	2015-04-30	building	3.39467
Davis	38.54491	US	10/29/2016, 00:00:00	maintenance	-121.74052
Dyat‚Äôkovo	53.59782	RU	06/29/2018, 00:00:00	building	34.33825
Barbil	22.10194	IN	2012/11/03	maintenance	85.37752
Covington	39.08367	US	24 Jun 2018	excellent	-84.50855
Talipparamba	12.04161	IN	15 Aug 2019	good	75.35927
Gauting	48.06919	DE	07/07/2022, 00:00:00	good	11.37703
Nyangao	-10.33333	TZ	25 Mar 2013	accep	39.28333
Honda	5.20856	CO	05/08/2014, 00:00:00	good	-74.73584
San Bernardo	-33.59217	CL	2021-01-13	excellent	-70.6996
Troutdale	45.53929	US	12/04/2017, 00:00:00	good	-122.38731
Argungu	12.74482	NG	15 Jun 2016	excellent	4.52514
Longgang	37.65181	CN	17 Aug 2018	maintenance	120.33063
Frankston South	-38.16604	AU	31 Jul 2015	average	145.13643
Gilbert	33.35283	US	05/17/2021, 00:00:00	excellent	-111.78903
Middle River	39.33427	US	05 Oct 2015	accep	-76.43941
Fayetteville	35.05266	US	2021-01-07	building	-78.87836
Nkpor	6.15038	NG	03 Aug 2015	maintenance	6.83042
Hoxtolgay	46.51872	CN	19 Aug 2022	average	86.00214
Kamakura	35.30889	JP	13 Jun 2019	average	139.55028
Kyzylorda	44.85278	KZ	09/29/2020, 00:00:00	average	65.50917
Calangute	15.5439	IN	06/02/2019, 00:00:00	accep	73.7553
Mokopane	-24.19436	ZA	2018/01/02	maintenance	29.00974
Cardedeu	41.63976	ES	10/21/2019, 00:00:00	accep	2.35739
Custoias	41.1053	PT	07/21/2018, 00:00:00	accep	-7.32097
Troutdale	45.53929	US	18 Dec 2012	good	-122.38731
Chacabuco	-34.64167	AR	06/27/2021, 00:00:00	accep	-60.47389
Andijon	40.78206	UZ	30 Jun 2020	excellent	72.34424
Malden	42.4251	US	2021/05/11	building	-71.06616
Salvatierra	20.21322	MX	2020/04/29	accep	-100.88023
Vryheid	-27.76952	ZA	11/02/2018, 00:00:00	average	30.79165
Damnoen Saduak	13.51825	TH	09/05/2021, 00:00:00	excellent	99.95469
Canavieiras	-15.675	BR	12/13/2013, 00:00:00	good	-38.94722
San Carlos	8.79577	CO	2020-05-30	building	-75.69947
Cavaillon	43.83125	FR	2016/07/09	accep	5.03586
An Muileann gCearr	53.53333	IE	2019/06/29	building	-7.35
Taunton	41.9001	US	2021/08/11	good	-71.08977
Pontevedra	-34.74785	AR	24 Sep 2017	average	-58.70072
Parola	20.88098	IN	2014/10/09	average	75.11937
Mount Hagen	-5.85746	PG	26 Sep 2019	average	144.23058
Rajaori	33.37526	IN	2016-07-31	excellent	74.3092
Pekanbaru	0.51667	ID	07 Jan 2018	accep	101.44167
Sassari	40.72586	IT	07/28/2016, 00:00:00	excellent	8.55552
Jersey City	40.72816	US	09/08/2016, 00:00:00	excellent	-74.07764
East Haven	41.27621	US	10/30/2020, 00:00:00	average	-72.86843
Same	-4.06667	TZ	2018-05-11	maintenance	37.73333
Sinhyeon	34.8825	KR	04/14/2014, 00:00:00	building	128.62667
Antipolo	14.62578	PH	21 Jun 2017	average	121.12251
San Fernando de Henares	40.42386	ES	25 Mar 2022	excellent	-3.53261
Harstad	68.79833	NO	29 Jan 2016	maintenance	16.54165
Okegawa	36	JP	14 Oct 2013	excellent	139.55722
Jais	26.2649	IN	2013-12-01	average	81.54855
Pameungpeuk	-7.01833	ID	11 Dec 2018	average	107.60389
Ajdabiya	30.75545	LY	07/15/2015, 00:00:00	excellent	20.22625
Chillum	38.96372	US	22 Sep 2021	building	-76.99081
Igbara-Odo	7.50251	NG	04/05/2015, 00:00:00	excellent	5.06258
Kamakura	35.30889	JP	01 Aug 2016	good	139.55028
La Trinidad	16.455	PH	2015-12-21	good	120.5875
Camayenne	9.535	GN	2022-04-15	building	-13.68778
Guaraciaba do Norte	-4.16694	BR	07 May 2016	average	-40.7475
Norco	33.93113	US	2017-09-14	average	-117.54866
Sungurlu	40.1675	TR	04 Jul 2015	accep	34.37389
Vryheid	-27.76952	ZA	12/11/2012, 00:00:00	average	30.79165
Tonota	-21.44236	BW	08/27/2021, 00:00:00	good	27.46153
Custoias	41.1053	PT	12/14/2017, 00:00:00	excellent	-7.32097
San Carlos	8.79577	CO	2017/12/01	accep	-75.69947
Oulmes	33.42585	MA	2022/06/20	good	-6.00137
Montana	43.4125	BG	2017-12-20	average	23.225
Petrozavodsk	61.78491	RU	06/12/2016, 00:00:00	average	34.34691
Francavilla Fontana	40.53123	IT	2018-11-08	building	17.58522
Beni Khiar	36.46917	TN	04 Apr 2022	accep	10.78222
Tsuen Wan	22.37066	HK	2017/09/14	accep	114.10479
Exeter	50.7236	GB	12/03/2013, 00:00:00	maintenance	-3.52751
Roseto degli Abruzzi	42.67164	IT	2020/12/15	accep	14.01481
Kherson	46.65581	UA	17 Jul 2017	average	32.6178
Nidderau	50.23805	DE	2018-10-19	excellent	8.86704
Qadirpur Ran	30.29184	PK	2020-02-04	accep	71.67164
El Alia	37.16911	TN	2016-04-06	good	10.03478
Pucheng	27.92333	CN	30 Mar 2022	excellent	118.53333
Kherson	46.65581	UA	26 Jul 2017	accep	32.6178
Qadirpur Ran	30.29184	PK	29 Oct 2016	average	71.67164
Chanika	-5.41667	TZ	03/28/2013, 00:00:00	building	38.01667
Wittenau	52.59319	DE	2013-09-25	good	13.32127
Oktyabr‚Äôskiy	54.48147	RU	06 Aug 2022	accep	53.47103
Camarillo	34.21639	US	11/27/2017, 00:00:00	maintenance	-119.0376
Kudus	-6.8048	ID	2016-01-20	maintenance	110.8405
Mirriah	13.70727	NE	2015/03/02	average	9.15013
Covington	39.08367	US	15 Jan 2017	excellent	-84.50855
Custoias	41.1053	PT	2014/06/20	average	-7.32097
Oaxaca	17.06542	MX	2015/08/29	accep	-96.72365
Saraktash	51.78771	RU	05/31/2020, 00:00:00	accep	56.36091
Cheraga	36.76775	DZ	2019/03/04	good	2.95924
Novara	45.44694	IT	21 Nov 2012	excellent	8.62118
Wangon	-7.51611	ID	22 Aug 2013	good	109.05389
Montpellier	43.61092	FR	2018/08/05	average	3.87723
Alwaye	10.10649	IN	30 May 2021	average	76.35484
Bang Ban	14.37395	TH	22 May 2013	accep	100.48528
Canavieiras	-15.675	BR	2017/05/25	good	-38.94722
Jalal-Abad	40.93333	KG	2022/04/26	accep	73
Brighton Beach	40.57788	US	2020/10/10	building	-73.95958
Tonota	-21.44236	BW	2018/02/05	accep	27.46153
Claremont	34.09668	US	02 Apr 2014	maintenance	-117.71978
Cheraga	36.76775	DZ	04/21/2017, 00:00:00	excellent	2.95924
Greenfield	39.78504	US	12/15/2020, 00:00:00	good	-85.76942
Budva	42.28639	ME	2014/10/19	accep	18.84
Karbala	32.61603	IQ	01/08/2018, 00:00:00	excellent	44.02488
Hueytown	33.45122	US	2017-09-23	excellent	-86.99666
Majene	-3.5403	ID	2016-10-24	maintenance	118.9707
Kanganpur	30.76468	PK	31 Dec 2015	excellent	74.12286
Palafrugell	41.91738	ES	2022/05/06	excellent	3.1631
Aloha	45.49428	US	2013/07/06	accep	-122.86705
Tyoply Stan	55.62047	RU	2018-11-19	building	37.49338
Surbiton	51.39148	GB	07/02/2018, 00:00:00	accep	-0.29825
Muskogee	35.74788	US	2014/09/02	maintenance	-95.36969
Karben	50.23019	DE	23 Oct 2013	accep	8.77155
Lal Bahadur Nagar	17.34769	IN	02 Dec 2017	good	78.55757
El Achir	36.06386	DZ	19 Feb 2019	excellent	4.62744
Palmeira	-25.42944	BR	2015/07/20	excellent	-50.00639
Afragola	40.92298	IT	2014/05/13	good	14.30935
Cuenca	-2.90055	EC	26 Apr 2021	average	-79.00453
Kearns	40.65995	US	06/07/2015, 00:00:00	average	-111.99633
Oaxaca	17.06542	MX	12 Nov 2019	accep	-96.72365
La Victoria	10.22677	VE	2017-06-09	maintenance	-67.33122
Schererville	41.47892	US	2020/05/06	good	-87.45476
Carnaxide	38.72706	PT	21 Mar 2020	good	-9.24671
Gaya	11.86064	NG	2016-05-17	maintenance	9.0027
Winsford	53.19146	GB	16 Sep 2017	average	-2.52398
Tadmur	34.5624	SY	03 Aug 2019	excellent	38.28402
Annaka	36.33011	JP	2022-01-09	average	138.89585
Itabirito	-20.25333	BR	2020/07/30	excellent	-43.80139
Kearns	40.65995	US	2015-02-11	average	-111.99633
Uran	18.87813	IN	2015-12-08	good	72.93924
New Canaan	41.14676	US	04/12/2015, 00:00:00	average	-73.49484
Haicheng	40.85158	CN	2019-06-19	average	122.74754
Valence	44.92801	FR	05/27/2016, 00:00:00	excellent	4.8951
Vernon	50.26729	CA	2021/08/25	accep	-119.27337
Gernika-Lumo	43.31667	ES	26 Jan 2016	maintenance	-2.68333
Rafiganj	24.81757	IN	2021-10-15	accep	84.63445
Emmeloord	52.71083	NL	10/25/2017, 00:00:00	accep	5.74861
Denderleeuw	50.88506	BE	2013/02/16	acceptable	4.07601
San Gabriel	34.09611	US	2013-07-21	average	-118.10583
Rudolstadt	50.72043	DE	13 Oct 2013	good	11.34046
South Lawndale	41.84364	US	07 Dec 2019	maintenance	-87.71255
Nyahururu	0.03813	KE	2019/12/10	good	36.36339
Aschaffenburg	49.97704	DE	13 Mar 2022	average	9.15214
Puertollano	38.68712	ES	2018/01/27	accep	-4.10734
Lino Lakes	45.16024	US	2022/08/15	accep	-93.08883
Siegburg	50.80019	DE	2018/06/03	good	7.20769
Kanganpur	30.76468	PK	06/23/2016, 00:00:00	accep	74.12286
Hakodate	41.77583	JP	2020-09-06	excellent	140.73667
Alatyr‚Äô	54.8421	RU	03 Oct 2013	excellent	46.5813
Devizes	51.35084	GB	2017-01-21	average	-1.99421
Troutdale	45.53929	US	2021/11/28	excellent	-122.38731
Palafrugell	41.91738	ES	15 Mar 2017	average	3.1631
Jaruco	23.04419	CU	20 Jul 2020	good	-82.00919
Ksar Chellala	35.21222	DZ	2013/08/26	average	2.31889
Dehiwala-Mount Lavinia	6.84019	LK	2019-07-02	accep	79.87116
Corralillo	22.98212	CU	2022-08-18	excellent	-80.58556
Zaozhuang	34.86472	CN	2013/07/10	average	117.55417
Chanika	-5.41667	TZ	2018/12/06	accep	38.01667
Bordj Zemoura	36.27462	DZ	27 Jul 2016	good	4.85668
Ariccia	41.72063	IT	2016/09/14	average	12.6723
Meizhou	24.28859	CN	01/10/2015, 00:00:00	excellent	116.11768
Beaconsfield	45.43341	CA	2021/09/28	excellent	-73.86586
Tupelo	34.25807	US	2020-01-27	accep	-88.70464
Aytos	42.7	BG	09 Oct 2019	building	27.25
Palm Desert	33.72255	US	2020/09/14	excellent	-116.37697
Blackpool	53.81667	GB	2022-03-25	accep	-3.05
Gingee	12.25282	IN	2019/04/07	average	79.41727
Magong	23.5654	TW	09 Aug 2020	excellent	119.58627
Strathfield	-33.88096	AU	2016/10/03	excellent	151.07986
Azrou	33.43443	MA	2017-09-18	good	-5.22126
Farafenni	13.56667	GM	13 Feb 2020	average	-15.6
Bisceglie	41.24264	IT	10 Jun 2019	accep	16.50104
Martinsburg	39.45621	US	08/04/2017, 00:00:00	average	-77.96389
Kensington	40.64621	US	23 Feb 2020	building	-73.97069
Leland	34.25628	US	02/14/2013, 00:00:00	average	-78.04471
Dobrush	52.4089	BY	03 Aug 2017	good	31.3237
Kashipur	29.21399	IN	02/20/2014, 00:00:00	accep	78.95693
Fort Washington	38.70734	US	11/23/2018, 00:00:00	average	-77.02303
Ataq	14.53767	YE	2016-09-06	accep	46.83187
Portogruaro	45.78071	IT	11/25/2016, 00:00:00	excellent	12.84052
Rudolstadt	50.72043	DE	05/13/2013, 00:00:00	accep	11.34046
Watsonville	36.91023	US	03/10/2021, 00:00:00	excellent	-121.75689
Palm Valley	30.17746	US	2012/11/09	accep	-81.38758
High Wycombe	51.62907	GB	25 Mar 2018	building	-0.74934
High Wycombe	51.62907	GB	2015/03/28	accep	-0.74934
Kahului	20.88953	US	2022/04/12	maintenance	-156.47432
Dharmapuri	12.1277	IN	25 May 2019	average	78.15794
Tandil	-37.32167	AR	2018-04-08	maintenance	-59.13316
Cowes	50.76306	GB	11/08/2020, 00:00:00	good	-1.29772
Carlsbad	32.42067	US	11/09/2013, 00:00:00	building	-104.22884
Venice	27.09978	US	05/18/2015, 00:00:00	excellent	-82.45426
Camayenne	9.535	GN	2013/12/16	average	-13.68778
Brazzaville	-4.26613	CG	11/26/2020, 00:00:00	accep	15.28318
Larkana	27.55898	PK	03/21/2020, 00:00:00	accep	68.21204
Artur Nogueira	-22.57306	BR	13 May 2015	excellent	-47.1725
Gariadhar	21.53889	IN	2017-06-02	average	71.57737
Betamcherla	15.45144	IN	04/15/2013, 00:00:00	excellent	78.14797
Yeysk	46.7055	RU	13 Apr 2015	accep	38.2739
Dobrush	52.4089	BY	2012/12/03	maintenance	31.3237
Andes	5.6561	CO	2013-04-14	excellent	-75.87877
Cypress Hills	40.67705	US	25 Jun 2015	good	-73.89125
Manjeri	11.12018	IN	2020-10-23	accep	76.11996
Catania	37.49223	IT	2014-05-07	accep	15.07041
Caravaca	38.10558	ES	07/28/2020, 00:00:00	maintenance	-1.86343
Weimar	50.9803	DE	25 Jun 2018	accep	11.32903
Dorval	45.4473	CA	05/16/2020, 00:00:00	accep	-73.75335
Aguadilla	18.42745	PR	03/28/2017, 00:00:00	maintenance	-67.15407
Greenfield	39.78504	US	12/07/2016, 00:00:00	maintenance	-85.76942
Dombivli	19.21667	IN	2022-01-05	maintenance	73.08333
Fujioka	36.24624	JP	23 Oct 2012	average	139.07204
Pamiers	43.11667	FR	2017-07-08	excellent	1.6
Farafenni	13.56667	GM	2016-12-25	good	-15.6
Suzaka	36.65	JP	09/06/2015, 00:00:00	average	138.31667
Temara	33.92866	MA	2019/07/09	excellent	-6.90656
Oulmes	33.42585	MA	2020-10-19	excellent	-6.00137
Schererville	41.47892	US	2015/06/29	maintenance	-87.45476
Fazilpur	32.17629	PK	28 Nov 2014	excellent	75.06583
Palmeira	-25.42944	BR	2019/03/10	average	-50.00639
Bhit Shah	25.80565	PK	02/11/2022, 00:00:00	maintenance	68.49143
Hengshui	37.73222	CN	20 Nov 2019	accep	115.70111
Bogoroditsk	53.77166	RU	2020-02-29	good	38.12408
Ulan Bator	47.90771	MN	2016-08-14	accep	106.88324
Messaad	34.15429	DZ	2021/07/31	excellent	3.50309
Canton	42.30865	US	07/03/2022, 00:00:00	excellent	-83.48216
San Jose	12.35275	PH	07 Sep 2017	excellent	121.06761
Memmingen	47.98372	DE	2018/12/19	good	10.18527
Chichicastenango	14.93333	GT	2019/01/25	accep	-91.11667
Tuxtla	16.75973	MX	17 Mar 2016	excellent	-93.11308
Agrigento	37.31065	IT	2013-08-24	accep	13.57661
Itabirito	-20.25333	BR	2019-10-12	excellent	-43.80139
Zeist	52.09	NL	29 Oct 2013	building	5.23333
Sceaux	48.77644	FR	03 Apr 2021	excellent	2.29026
Ehingen	48.28259	DE	02 Sep 2021	accep	9.72749
Barnet	51.65	GB	28 May 2015	maintenance	-0.2
Frankston South	-38.16604	AU	2020/06/14	excellent	145.13643
Griffith	-34.28853	AU	2012-11-01	building	146.05093
Sirsi	14.62072	IN	2021/05/10	accep	74.83554
New Kingston	18.00747	JM	2020-01-02	excellent	-76.78319
Halstenbek	53.63333	DE	2014-02-16	accep	9.85
Landshut	48.52961	DE	2014/05/02	good	12.16179
Beni Khiar	36.46917	TN	2015/05/27	accep	10.78222
Guli	28.88162	CN	2015/11/23	excellent	120.03308
Riverbank	37.73604	US	2015/06/16	building	-120.93549
Aguilares	-27.4338	AR	2014-10-01	average	-65.61427
Newburgh	41.50343	US	2017/07/27	average	-74.01042
Kyaikto	17.30858	MM	19 Aug 2013	average	97.01124
Betamcherla	15.45144	IN	2018-07-25	building	78.14797
Granger	41.75338	US	09/02/2014, 00:00:00	accep	-86.11084
Phanat Nikhom	13.44581	TH	2015-07-20	accep	101.18445
Resplendor	-19.32556	BR	2021/02/03	average	-41.25528
Santa Maria	34.95303	US	2013/08/28	average	-120.43572
Mardin	37.31309	TR	06/03/2018, 00:00:00	excellent	40.74357
Jiangyan	32.50611	CN	18 Jun 2016	excellent	120.14278
Dahlem	52.4581	DE	05/04/2013, 00:00:00	maintenance	13.28702
Aberdeen	57.14369	GB	21 Dec 2020	excellent	-2.09814
Encinitas	33.03699	US	2018/07/01	building	-117.29198
Gaziantep	37.05944	TR	10/05/2014, 00:00:00	average	37.3825
El Copey	10.15031	CO	02/10/2013, 00:00:00	maintenance	-73.9614
Pedro II	-4.42472	BR	08/06/2021, 00:00:00	good	-41.45861
Gariadhar	21.53889	IN	25 Nov 2015	average	71.57737
Espoo	60.2052	FI	2014-12-01	average	24.6522
Losheim	49.5099	DE	2014-01-03	accep	6.74549
Teghra	25.49043	IN	2018/11/21	excellent	85.94001
Porto Velho	-8.76194	BR	2015-05-06	maintenance	-63.90389
Ilopango	13.70167	SV	2017/05/03	building	-89.10944
Hutchinson	38.06084	US	2014-04-15	acceptable	-97.92977
Fitchburg	42.58342	US	2018/06/23	accep	-71.8023
Mitry-Mory	48.98333	FR	2019-06-16	accep	2.61667
Barnet	51.65	GB	08/31/2015, 00:00:00	good	-0.2
Moga	30.81383	IN	03/28/2017, 00:00:00	average	75.16878
El Achir	36.06386	DZ	2012/11/26	good	4.62744
Ghat	24.96334	LY	11/01/2019, 00:00:00	excellent	10.18003
Bonoua	5.27247	CI	2014/05/05	excellent	-3.59625
Kantharalak	14.64056	TH	2016/09/01	excellent	104.64992
Hoxtolgay	46.51872	CN	2013/02/28	excellent	86.00214
Itaperuna	-21.205	BR	2017-03-17	accep	-41.88778
Varadero	23.15678	CU	2019-09-09	excellent	-81.24441
Newbury	51.40148	GB	2020-04-05	accep	-1.32471
Westchester	41.85059	US	2017-10-08	building	-87.882
Hardenberg	52.57583	NL	12 Aug 2020	building	6.61944
Porterville	36.06523	US	11/07/2021, 00:00:00	building	-119.01677
Oktyabr‚Äôskiy	54.48147	RU	2021/07/08	good	53.47103
Lymington	50.75767	GB	2012-11-26	maintenance	-1.5443
Ragusa	36.92574	IT	07/09/2018, 00:00:00	excellent	14.72443
Lebanon	39.43534	US	2013/02/12	maintenance	-84.20299
Inverness	57.47908	GB	2016/06/16	accep	-4.22398
Fontenay-aux-Roses	48.79325	FR	2016-03-31	average	2.29275
Zvenihorodka	49.07866	UA	2013-09-26	accep	30.96755
Nowra	-34.88422	AU	2016-04-30	average	150.60036
Itabirito	-20.25333	BR	30 Oct 2014	good	-43.80139
Guanajuato	21.01858	MX	04 Mar 2020	average	-101.2591
Sceaux	48.77644	FR	19 Aug 2015	accep	2.29026
San Rafael	9.92787	CR	03/16/2021, 00:00:00	building	-84.13722
Tongelre	51.44889	NL	2013/06/22	building	5.51978
Jagna	9.6531	PH	17 Nov 2019	good	124.3697
Sonzacate	13.73417	SV	03/27/2014, 00:00:00	building	-89.71472
Laguna Niguel	33.52253	US	07 Jun 2016	average	-117.70755
Oschatz	51.30001	DE	29 Aug 2018	building	13.10984
Freetown	8.48714	SL	18 Jun 2016	average	-13.2356
Dobrush	52.4089	BY	12 May 2014	good	31.3237
Amposta	40.70995	ES	09/04/2021, 00:00:00	good	0.57856
Surbiton	51.39148	GB	2020/09/18	excellent	-0.29825
Xinzhou	38.40917	CN	2017-12-13	average	112.73333
Pato Branco	-26.22861	BR	2020-07-07	good	-52.67056
Lower Earley	51.42708	GB	2016-03-31	good	-0.91979
Igbara-Odo	7.50251	NG	01/24/2016, 00:00:00	excellent	5.06258
Mitry-Mory	48.98333	FR	10/31/2019, 00:00:00	maintenance	2.61667
New Yekepa	7.57944	LR	12/08/2016, 00:00:00	accep	-8.53778
Ken Caryl	39.57582	US	2019-02-18	good	-105.11221
Jumilla	38.47917	ES	2017/04/30	good	-1.325
Rhosllanerchrugog	53.00974	GB	04/22/2016, 00:00:00	good	-3.05814
Kot Addu	30.46907	PK	22 Jan 2016	good	70.96699
Parola	20.88098	IN	2022/01/17	average	75.11937
Boo	59.33333	SE	2018-12-08	good	18.28333
Cowes	50.76306	GB	06/29/2015, 00:00:00	average	-1.29772
Arles	43.67681	FR	20 Sep 2019	accep	4.63031
Beidao	34.56861	CN	2021/09/09	accep	105.89333
Montana	43.4125	BG	13 Feb 2016	good	23.225
Busia	0.46005	KE	2013-12-10	accep	34.11169
Hendala	6.9909	LK	15 May 2014	average	79.883
Naga	10.20898	PH	2013/02/07	accep	123.758
Motomachi	43.82634	JP	18 Sep 2020	building	144.09638
Lakota	5.84752	CI	08/11/2020, 00:00:00	accep	-5.682
Bogovinje	41.92361	MK	2021/09/21	maintenance	20.91361
Brenham	30.16688	US	22 Nov 2019	accep	-96.39774
Timaru	-44.39672	NZ	11/18/2015, 00:00:00	good	171.25364
Petrozavodsk	61.78491	RU	27 Jul 2013	accep	34.34691
Aloha	45.49428	US	10/30/2016, 00:00:00	accep	-122.86705
Oberhausen	51.47805	DE	2015-06-24	average	6.8625
Sremska Mitrovica	44.97639	RS	08 Apr 2013	good	19.61222
Hrazdan	40.49748	AM	09 Sep 2018	average	44.7662
Igbara-Odo	7.50251	NG	2013-03-20	building	5.06258
Perth	-31.95224	AU	08/13/2018, 00:00:00	accep	115.8614
Maryborough	-25.54073	AU	02/13/2016, 00:00:00	good	152.70493
Sherwood Park	53.51684	CA	2017/05/17	maintenance	-113.3187
Guapimirim	-22.53722	BR	10/13/2019, 00:00:00	excellent	-42.98194
Pune	18.51957	IN	09 Aug 2014	maintenance	73.85535
Rahat	31.39547	IL	2013/04/18	maintenance	34.75699
Zhukovka	53.53395	RU	2013-05-06	building	33.72798
Poulton-le-Fylde	53.83333	GB	2012/10/12	accep	-2.98333
Kangayam	11.00599	IN	21 Apr 2016	excellent	77.5609
Devizes	51.35084	GB	2016/12/14	accep	-1.99421
Jingzhou	30.35028	CN	2016-01-03	excellent	112.19028
Fujioka	36.24624	JP	2016-03-24	accep	139.07204
Jaruco	23.04419	CU	12/15/2021, 00:00:00	accep	-82.00919
North Lauderdale	26.2173	US	09/06/2018, 00:00:00	excellent	-80.22588
Socorro	6.46838	CO	27 Nov 2017	accep	-73.26022
Bogovinje	41.92361	MK	09/20/2016, 00:00:00	good	20.91361
Aloha	45.49428	US	02/27/2019, 00:00:00	average	-122.86705
Changshu City	31.64615	CN	10 Jul 2014	average	120.74221
Vahdat	38.55632	TJ	2019/07/09	average	69.01354
Yamada	39.46667	JP	2018-07-13	building	141.95
Minokamo	35.48199	JP	05/28/2015, 00:00:00	maintenance	137.02166
Carindale	-27.50578	AU	03 Sep 2014	average	153.10236
Tak Bai	6.25947	TH	2016/09/15	excellent	102.05461
Alfenas	-21.42917	BR	24 Oct 2021	good	-45.94722
Charlottetown	46.23899	CA	2016/01/12	excellent	-63.13414
Ilesa	7.62789	NG	12/28/2018, 00:00:00	average	4.74161
Hechingen	48.35149	DE	18 Feb 2021	building	8.96317
Inverness	57.47908	GB	12/04/2015, 00:00:00	maintenance	-4.22398
Rutherglen	55.82885	GB	2019/12/26	building	-4.21376
Vahdat	38.55632	TJ	2015/03/15	good	69.01354
Villaquilambre	42.64685	ES	2014-12-29	maintenance	-5.55835
Buynaksk	42.819	RU	2017/05/15	accep	47.1192
Rio Real	-11.48472	BR	2013/10/31	maintenance	-37.93278
Yao	34.61667	JP	05 Dec 2014	maintenance	135.6
Larkana	27.55898	PK	2014-11-21	excellent	68.21204
Kamakura	35.30889	JP	2015/12/23	good	139.55028
Xiangtan	27.85	CN	19 Jun 2016	maintenance	112.9
Santa Cruz de Barahona	18.20854	DO	09/07/2021, 00:00:00	average	-71.10077
Skalica	48.8449	SK	03 Dec 2017	excellent	17.22635
Saraj	42	MK	2020/11/07	accep	21.32778
Gorakhpur	26.76628	IN	28 Apr 2022	excellent	83.36889
East Haven	41.27621	US	2017/07/27	building	-72.86843
San Carlos	8.79577	CO	2016/07/08	excellent	-75.69947
Likhobory	55.85	RU	2015/04/28	maintenance	37.56667
Searcy	35.25064	US	2020-05-13	accep	-91.73625
Tadmur	34.5624	SY	2013-03-28	accep	38.28402
Patti	31.28092	IN	04/21/2018, 00:00:00	accep	74.85849
Clermont	28.54944	US	26 Jun 2013	maintenance	-81.77285
Aracaju	-10.91111	BR	10 Jul 2019	maintenance	-37.07167
East Jerusalem	31.78336	PS	12 Jun 2016	maintenance	35.23388
Hushitai	41.94175	CN	2015/08/25	average	123.50266
Efon-Alaaye	7.65649	NG	2017/02/03	building	4.92235
Mvomero	-6.25	TZ	2013-03-25	average	38.66667
Willetton	-32.05251	AU	2020/05/25	maintenance	115.88782
Newburgh	41.50343	US	03 Apr 2015	accep	-74.01042
Fazilpur	32.17629	PK	06 Oct 2012	average	75.06583
La Ligua	-32.45242	CL	2020/10/26	maintenance	-71.23106
Saratoga Springs	40.34912	US	12 Jul 2021	accep	-111.90466
Tyoply Stan	55.62047	RU	2016/09/05	excellent	37.49338
Puertollano	38.68712	ES	12/04/2019, 00:00:00	average	-4.10734
Yangambi	0.76755	CD	07/06/2013, 00:00:00	accep	24.43973
Binnish	35.95664	SY	2019/12/07	excellent	36.7138
Farafenni	13.56667	GM	11/27/2015, 00:00:00	accep	-15.6
Nakhon Si Thammarat	8.43333	TH	2019/09/22	excellent	99.96667
Iringa	-7.76667	TZ	2020-12-27	average	35.7
Mwandiga	-4.83	TZ	2013-11-23	maintenance	29.65806
Usagara	-2.68333	TZ	2017-05-19	maintenance	33
Aracaju	-10.91111	BR	04 Jan 2020	good	-37.07167
Roseto degli Abruzzi	42.67164	IT	04 Dec 2021	building	14.01481
Dawei	14.0823	MM	2015-11-14	accep	98.19151
Esperanza	-31.4488	AR	06/30/2013, 00:00:00	average	-60.93173
Lexington	33.98154	US	08 Feb 2019	average	-81.23621
Inverness	57.47908	GB	2019/08/29	building	-4.22398
Port Huron	42.97086	US	06/21/2017, 00:00:00	good	-82.42491
Kachkanar	58.7002	RU	2015-04-09	accep	59.4839
Boyeros	23.0072	CU	2014/11/27	excellent	-82.4017
Freetown	8.48714	SL	07/01/2018, 00:00:00	excellent	-13.2356
East Haven	41.27621	US	02/16/2021, 00:00:00	excellent	-72.86843
San Carlos	8.79577	CO	10/25/2012, 00:00:00	accep	-75.69947
Zhukovka	53.53395	RU	2016-11-25	maintenance	33.72798
Diamond Harbour	22.19303	IN	2020-07-22	excellent	88.18466
Dongdu	35.85	CN	2018/01/21	average	117.7
Mvomero	-6.25	TZ	05 Nov 2020	average	38.66667
Naushahra Virkan	31.96258	PK	03 Feb 2015	average	73.97117
Yasothon	15.79408	TH	01/12/2016, 00:00:00	good	104.1451
Gero	35.8	JP	06/13/2020, 00:00:00	good	137.23333
Krasyliv	49.65186	UA	2021/09/13	accep	26.97253
Rueil-Malmaison	48.8765	FR	01/04/2016, 00:00:00	accep	2.18967
Amreli	21.59983	IN	08/23/2017, 00:00:00	accep	71.21169
Patnos	39.22493	TR	02 Sep 2015	good	42.85693
Veracruz	8.88988	PA	2016/03/30	accep	-79.62603
Cavaillon	43.83125	FR	2015/07/05	average	5.03586
Edremit	39.59611	TR	2014-03-06	good	27.02444
Nayoro	44.35056	JP	2015-07-07	good	142.45778
Shinshiro	34.9	JP	12/31/2018, 00:00:00	excellent	137.5
West Des Moines	41.57721	US	2018/09/26	good	-93.71133
Kismayo	-0.35817	SO	2014/02/09	excellent	42.54536
Pottstown	40.24537	US	01 Jan 2018	excellent	-75.64963
Boo	59.33333	SE	01 Oct 2014	good	18.28333
Longview	32.5007	US	2016/05/22	accep	-94.74049
Volokolamsk	56.03361	RU	28 Sep 2020	maintenance	35.96944
Hlukhiv	51.67822	UA	10/22/2014, 00:00:00	average	33.9162
Wesseling	50.82709	DE	06 Jun 2013	accep	6.9747
Licheng	23.29549	CN	2020-12-02	building	113.82465
Carnegie	-37.88333	AU	2016-06-11	average	145.06667
Carnaxide	38.72706	PT	2018/06/20	excellent	-9.24671
Bonoua	5.27247	CI	2017-03-06	good	-3.59625
Serinhisar	37.58105	TR	2014-07-06	average	29.26639
Beveren	51.21187	BE	08/24/2016, 00:00:00	excellent	4.25633
Heyuan	23.73333	CN	2016/05/06	maintenance	114.68333
Franceville	-1.63333	GA	08/29/2013, 00:00:00	accep	13.58357
Inawashiro	37.56667	JP	2017/07/07	maintenance	140.11667
Tandil	-37.32167	AR	2014-05-17	good	-59.13316
Tebingtinggi	3.3285	ID	06/27/2020, 00:00:00	good	99.1625
Boyeros	23.0072	CU	12/26/2013, 00:00:00	accep	-82.4017
Kalavoor	9.57046	IN	05/15/2022, 00:00:00	building	76.32756
Weimar	50.9803	DE	10/25/2014, 00:00:00	accep	11.32903
El Copey	10.15031	CO	2013/10/21	accep	-73.9614
Balikpapan	-1.26753	ID	05/22/2017, 00:00:00	good	116.82887
Karbala	32.61603	IQ	2013-02-28	average	44.02488
Ina	35.82756	JP	12/07/2015, 00:00:00	excellent	137.95378
Novogrudok	53.5942	BY	09/19/2022, 00:00:00	average	25.8191
Talavera de la Reina	39.96348	ES	09 Mar 2017	average	-4.83076
Alwaye	10.10649	IN	12/27/2013, 00:00:00	good	76.35484
Schleswig	54.52156	DE	11/28/2020, 00:00:00	average	9.5586
Arbroath	56.56317	GB	01/07/2014, 00:00:00	average	-2.58736
Shuangcheng	45.35	CN	2022-01-07	average	126.28333
Yunguyo	-16.25	PE	2014/01/21	good	-69.08333
Copperas Cove	31.12406	US	30 Aug 2018	building	-97.90308
Sterling	39.00622	US	2013-07-19	excellent	-77.4286
Glendale	34.14251	US	2015-12-26	excellent	-118.25508
Ngemplak	-7.54972	ID	11/07/2021, 00:00:00	building	110.71639
Baza	37.49073	ES	11/12/2016, 00:00:00	good	-2.77259
Villaquilambre	42.64685	ES	02/22/2015, 00:00:00	average	-5.55835
Farafenni	13.56667	GM	2013/06/09	excellent	-15.6
Columbia Heights	45.0408	US	12 Aug 2018	building	-93.263
Chilibre	9.15093	PA	02/07/2015, 00:00:00	accep	-79.62098
Middle River	39.33427	US	2019/07/25	excellent	-76.43941
Fairview Heights	38.58894	US	2018/05/22	maitennce	-89.99038
Same	-4.06667	TZ	2022/06/01	good	37.73333
Southsea	50.79205	GB	13 Nov 2012	good	-1.08593
Gisborne	-38.65333	NZ	10/28/2014, 00:00:00	good	178.00417
Xiangtan	27.85	CN	2018-12-03	good	112.9
Pamiers	43.11667	FR	02/09/2021, 00:00:00	good	1.6
Dawei	14.0823	MM	2018/02/22	accep	98.19151
Inverness	57.47908	GB	25 Dec 2014	accep	-4.22398
Hasilpur	29.69221	PK	09/26/2015, 00:00:00	good	72.54566
Inverness	57.47908	GB	2017-04-06	average	-4.22398
Astara	38.45598	AZ	29 Apr 2014	excellent	48.87498
La Trinidad	16.455	PH	2016/02/28	good	120.5875
Beaconsfield	45.43341	CA	06 May 2015	average	-73.86586
Narwar	25.6439	IN	09/21/2021, 00:00:00	good	77.9129
Licheng	23.29549	CN	2013-12-16	excellent	113.82465
Lal Bahadur Nagar	17.34769	IN	25 Dec 2018	accep	78.55757
Aguadilla	18.42745	PR	2013-01-09	good	-67.15407
Port Huron	42.97086	US	05/22/2014, 00:00:00	accep	-82.42491
Zhoucun	36.81667	CN	2018/09/20	good	117.81667
Hechingen	48.35149	DE	2014/08/05	maintenance	8.96317
Varadero	23.15678	CU	08 Jun 2018	average	-81.24441
Nampa	43.54072	US	10/02/2018, 00:00:00	accep	-116.56346
Reda	54.60528	PL	08/01/2022, 00:00:00	good	18.34717
Beveren	51.21187	BE	05/31/2017, 00:00:00	accep	4.25633
Tandil	-37.32167	AR	05 Oct 2021	accep	-59.13316
El Copey	10.15031	CO	02/02/2019, 00:00:00	average	-73.9614
Ozersk	55.75556	RU	11 Oct 2021	accep	60.70278
Hlukhiv	51.67822	UA	28 Apr 2021	good	33.9162
Korschenbroich	51.19139	DE	2021-04-02	average	6.51352
Jagna	9.6531	PH	2012-12-06	average	124.3697
Sakaraha	-22.9	MG	2018-10-04	average	44.53333
Ushuaia	-54.8	AR	2013-11-03	excellent	-68.3
Beaumont	33.92946	US	2016-03-12	maintenance	-116.97725
Larkana	27.55898	PK	03/06/2022, 00:00:00	good	68.21204
Portogruaro	45.78071	IT	2020/08/03	excellent	12.84052
Durazno	-33.38056	UY	2021/12/14	average	-56.52361
Inverness	57.47908	GB	2020/01/12	excellent	-4.22398
Naro-Fominsk	55.38752	RU	23 Dec 2017	building	36.73307
Yonkers	40.93121	US	2013-02-15	building	-73.89875
Dehiwala-Mount Lavinia	6.84019	LK	2017-01-10	good	79.87116
Timaru	-44.39672	NZ	2017-01-10	good	171.25364
Columbia Heights	45.0408	US	2020/09/04	good	-93.263
Gronau	52.21099	DE	2015-03-31	average	7.02238
Guaraciaba do Norte	-4.16694	BR	2017/06/18	good	-40.7475
Gudermes	43.35071	RU	2021/10/27	accep	46.10925
Zvenihorodka	49.07866	UA	2022/05/22	excellent	30.96755
Bad Honnef	50.64336	DE	2015/12/20	accep	7.2278
Tupi	6.33444	PH	04/04/2019, 00:00:00	accep	124.95278
Santa Maria	34.95303	US	05 Apr 2022	maintenance	-120.43572
Okahandja	-21.98333	NA	2019-01-03	average	16.91667
Villaquilambre	42.64685	ES	2015-09-16	good	-5.55835
Olanchito	15.48131	HN	10 Dec 2019	good	-86.57415
Hudiksvall	61.72744	SE	22 Sep 2015	average	17.10558
Veracruz	8.88988	PA	2020/07/23	maintenance	-79.62603
Xiangtan	27.85	CN	2015/02/18	excellent	112.9
Montecchio Maggiore-Alte Ceccato	45.50369	IT	19 Jun 2018	good	11.412
Wacheng	33.78333	CN	2016/05/24	excellent	114.51667
Catende	-8.66667	BR	2014/04/22	excellent	-35.71667
Kireyevsk	53.93361	RU	10 May 2016	excellent	37.92792
Morningside Heights	40.81	US	03 Jun 2020	good	-73.9625
Ulan Bator	47.90771	MN	2017-06-22	good	106.88324
Crystal Lake	42.24113	US	2018-01-22	maintenance	-88.3162
Nonoichi	36.53333	JP	2019/10/02	average	136.61667
Rosemount	44.73941	US	21 Mar 2022	accep	-93.12577
Pottstown	40.24537	US	2022-06-22	average	-75.64963
Pleasant Prairie	42.55308	US	12/19/2019, 00:00:00	accep	-87.93341
Korschenbroich	51.19139	DE	2015-02-11	maintenance	6.51352
Mount Hagen	-5.85746	PG	17 Dec 2021	average	144.23058
Supaul	26.11527	IN	05/30/2019, 00:00:00	good	86.59509
Viewpark	55.82737	GB	05/23/2018, 00:00:00	average	-4.0573
An Muileann gCearr	53.53333	IE	11/17/2014, 00:00:00	average	-7.35
Iquitos	-3.74912	PE	2017-05-06	average	-73.25383
Pujali	22.4711	IN	03/11/2014, 00:00:00	good	88.1453
Beaumont	33.92946	US	2017/01/16	average	-116.97725
Ulu Tiram	1.6	MY	29 Sep 2017	accep	103.81667
Igbara-Odo	7.50251	NG	01/22/2021, 00:00:00	maintenance	5.06258
Jaruco	23.04419	CU	03 Jan 2021	good	-82.00919
Lexington	33.98154	US	04/28/2014, 00:00:00	excellent	-81.23621
Daud Khel	32.87533	PK	2014-08-16	excellent	71.57118
Sar-e Pul	36.21544	AF	2017-09-15	excellent	65.93249
Fitchburg	42.58342	US	2013-10-16	good	-71.8023
Pleasant Prairie	42.55308	US	04/03/2015, 00:00:00	average	-87.93341
Hongseong	36.6009	KR	02/05/2017, 00:00:00	excellent	126.665
Odessa	31.84568	US	05/24/2014, 00:00:00	building	-102.36764
Hartley	51.38673	GB	2013-12-17	accep	0.30367
Grand Forks	47.92526	US	12/03/2018, 00:00:00	average	-97.03285
Oschatz	51.30001	DE	10 Dec 2018	excellent	13.10984
Jhol	25.95533	PK	2014-02-22	excellent	68.88871
Itacoatiara	-3.14306	BR	2022-08-09	accep	-58.44417
Marseille 11	43.2907	FR	07/15/2016, 00:00:00	maintenance	5.4384
Kensington	40.64621	US	2016/11/06	average	-73.97069
Lutz	28.15112	US	2015/04/05	average	-82.46148
Wangon	-7.51611	ID	07/30/2020, 00:00:00	building	109.05389
Oaxaca	17.06542	MX	08/22/2014, 00:00:00	accep	-96.72365
Novara	45.44694	IT	2016/02/22	average	8.62118
Corralillo	22.98212	CU	2016-12-26	maintenance	-80.58556
Francavilla Fontana	40.53123	IT	21 May 2022	average	17.58522
Tonota	-21.44236	BW	2016/03/26	maintenance	27.46153
Peabody	42.52787	US	2013-03-27	maintenance	-70.92866
Castelfranco Emilia	44.59445	IT	2017/04/20	good	11.04979
Buri	-23.7975	BR	2017/02/11	good	-48.59278
Kyzylorda	44.85278	KZ	07/07/2018, 00:00:00	maintenance	65.50917
Devizes	51.35084	GB	2019/06/19	building	-1.99421
Korschenbroich	51.19139	DE	05/06/2013, 00:00:00	average	6.51352
Freetown	8.48714	SL	05/05/2013, 00:00:00	good	-13.2356
Glogovac	42.62833	XK	06/22/2015, 00:00:00	accep	20.89389
Montpellier	43.61092	FR	2022-05-07	excellent	3.87723
Silvan	38.13708	TR	06 Sep 2016	average	41.00817
Miracema	-21.41222	BR	2012/09/28	accep	-42.19667
Houthalen	51.03427	BE	2014/02/12	good	5.37429
Ganei Tikva	32.05971	IL	01/13/2022, 00:00:00	building	34.8732
Fazilpur	32.17629	PK	2016/08/09	excellent	75.06583
Radevormwald	51.20219	DE	08 Oct 2018	accep	7.36027
Tchaourou	8.88649	BJ	12 Mar 2015	good	2.59753
Alfenas	-21.42917	BR	2013/03/10	building	-45.94722
Hofheim am Taunus	50.09019	DE	19 Mar 2013	accep	8.4493
Barras	-4.24444	BR	2019/01/04	average	-42.29444
Kovylkino	54.03876	RU	11/28/2020, 00:00:00	average	43.91385
Changzhi	35.20889	CN	2020/10/02	maintenance	111.73861
Westchester	41.85059	US	2020/05/05	maintenance	-87.882
Kearns	40.65995	US	2021-12-09	good	-111.99633
Korschenbroich	51.19139	DE	29 Jul 2013	average	6.51352
Talence	44.80477	FR	07/16/2021, 00:00:00	average	-0.59543
Manjeri	11.12018	IN	2022/08/10	accep	76.11996
San Rafael	9.92787	CR	06/29/2015, 00:00:00	good	-84.13722
Talipparamba	12.04161	IN	2020/02/28	good	75.35927
West Des Moines	41.57721	US	03/17/2016, 00:00:00	excellent	-93.71133
Smolyan	41.57439	BG	2018/10/19	average	24.71204
Phanat Nikhom	13.44581	TH	2013/06/13	maintenance	101.18445
Zeitz	51.04962	DE	2021/11/08	good	12.1369
Antipolo	14.62578	PH	2022/03/15	good	121.12251
Lille	51.24197	BE	05/10/2017, 00:00:00	excellent	4.82313
Wheelers Hill	-37.9	AU	05/29/2022, 00:00:00	accep	145.18333
Rio Real	-11.48472	BR	2016/10/03	excellent	-37.93278
Kangayam	11.00599	IN	04/13/2018, 00:00:00	building	77.5609
Bobigny	48.90982	FR	2020/08/31	good	2.45012
Southsea	50.79205	GB	2021-08-14	average	-1.08593
Muncar	-8.43333	ID	2014-04-10	accep	114.33333
Wangon	-7.51611	ID	2014/01/05	accep	109.05389
Reutlingen	48.49144	DE	12/02/2015, 00:00:00	excellent	9.20427
Nidderau	50.23805	DE	2021-09-21	excellent	8.86704
Changshu City	31.64615	CN	05/21/2015, 00:00:00	excellent	120.74221
La Trinidad	16.455	PH	05/05/2021, 00:00:00	accep	120.5875
Vitebsk	55.1904	BY	21 Feb 2013	good	30.2049
Mwandiga	-4.83	TZ	08/03/2018, 00:00:00	accep	29.65806
Custoias	41.1053	PT	14 Aug 2014	excellent	-7.32097
Aberdeen	57.14369	GB	2017/06/27	average	-2.09814
Fazilpur	32.17629	PK	06 Sep 2015	building	75.06583
Norfolk County	42.8334	CA	2016-11-14	average	-80.38297
Santa Catalina	9.3337	PH	2021-03-09	good	122.8637
Ar Ruseris	11.8659	SD	2016-11-30	good	34.3869
Frenda	35.06544	DZ	15 Jun 2021	maintenance	1.04945
Gembloux	50.56149	BE	15 Feb 2017	good	4.69889
West Chester	39.96097	US	12/10/2015, 00:00:00	good	-75.60804
Isfahan	32.65246	IR	30 Dec 2017	good	51.67462
Zacoalco de Torres	20.22816	MX	30 Aug 2020	accep	-103.5687
Thomazeau	18.65297	HT	2017/09/01	excellent	-72.09391
Pune	18.51957	IN	07 Jul 2014	building	73.85535
Waterbury	41.55815	US	2016-10-17	excellent	-73.0515
Diwek	-7.57897	ID	2018-09-22	average	112.23109
Brunswick	43.91452	US	2014-02-21	good	-69.96533
Las Gabias	37.13548	ES	2014-01-16	average	-3.67029
Misterbianco	37.51803	IT	08 Mar 2019	good	15.00913
Meizhou	24.28859	CN	2021/11/17	average	116.11768
Scotch Plains	40.65538	US	2017-08-20	accep	-74.38987
Gavrilov-Yam	57.30185	RU	04/03/2015, 00:00:00	accep	39.85331
Rafaela	-31.25033	AR	23 Aug 2016	building	-61.4867
Okegawa	36	JP	2018-11-14	excellent	139.55722
Brazzaville	-4.26613	CG	2018-07-27	good	15.28318
Patti	31.28092	IN	2020/07/23	average	74.85849
Liberia	10.63504	CR	2017/10/05	good	-85.43772
Evergreen Park	41.72059	US	2019-10-17	average	-87.70172
Valence	44.92801	FR	19 Mar 2014	excellent	4.8951
Oschatz	51.30001	DE	17 Jul 2014	average	13.10984
Suzaka	36.65	JP	24 Feb 2014	maintenance	138.31667
Zhukovka	53.53395	RU	2018-01-22	good	33.72798
Buenaventura	3.8801	CO	04 Apr 2014	average	-77.03116
Greenville	33.41012	US	2013/08/30	good	-91.06177
Pamiers	43.11667	FR	14 Feb 2014	building	1.6
Vught	51.65333	NL	2019/10/19	accep	5.2875
Zhoushan	29.98869	CN	09 May 2014	maintenance	122.20488
Bensheim	49.68369	DE	2013/01/02	good	8.61839
Aberdeen	57.14369	GB	11/10/2020, 00:00:00	excellent	-2.09814
Hechingen	48.35149	DE	09/23/2019, 00:00:00	building	8.96317
Iwade	34.25	JP	2013-01-21	average	135.31667
Rutherglen	55.82885	GB	2015-04-03	excellent	-4.21376
Naushahra Virkan	31.96258	PK	12/19/2020, 00:00:00	good	73.97117
Gorgonzola	45.53069	IT	2018-05-18	accep	9.40531
Bisceglie	41.24264	IT	2014/01/17	accep	16.50104
Elbeuf	49.28669	FR	2016-07-07	good	1.00288
Altamira	-3.20333	BR	19 Jun 2013	good	-52.20639
Wesseling	50.82709	DE	2022/08/25	good	6.9747
Gonesse	48.98693	FR	18 Jul 2013	good	2.44892
Santa Cruz de Barahona	18.20854	DO	2014/06/03	accep	-71.10077
Wittenau	52.59319	DE	2020/06/26	maintenance	13.32127
Boston	42.35843	US	2017/03/11	excellent	-71.05977
Novosilikatnyy	53.30972	RU	2020-04-24	excellent	83.62389
Kensington	40.64621	US	2021-02-02	accep	-73.97069
Gauting	48.06919	DE	2018-04-25	excellent	11.37703
Memmingen	47.98372	DE	22 Feb 2021	average	10.18527
Fairview Heights	38.58894	US	10/21/2014, 00:00:00	excellent	-89.99038
Nayoro	44.35056	JP	2022-03-12	average	142.45778
Sremska Mitrovica	44.97639	RS	30 Apr 2014	average	19.61222
Keene	42.93369	US	07/15/2019, 00:00:00	building	-72.27814
Ada	34.77453	US	20 Jun 2020	accep	-96.67834
Tadmur	34.5624	SY	2015/01/18	building	38.28402
Sonzacate	13.73417	SV	2016-06-03	excellent	-89.71472
Boumerdas	36.76639	DZ	2020/05/06	good	3.47717
Villaquilambre	42.64685	ES	2014-08-31	average	-5.55835
Meerut	28.98002	IN	2018/03/09	acceptable	77.70636
Recife	-8.05389	BR	2020/11/17	maintenance	-34.88111
Sydney	46.1351	CA	12 Nov 2019	maintenance	-60.1831
Beaumont	33.92946	US	14 Mar 2017	excellent	-116.97725
Wesseling	50.82709	DE	24 Jan 2015	accep	6.9747
Dombivli	19.21667	IN	12 Sep 2015	excellent	73.08333
Xiangtan	27.85	CN	10/25/2020, 00:00:00	maintenance	112.9
Greenfield	39.78504	US	25 Sep 2021	good	-85.76942
Yablonovskiy	44.98901	RU	2020-07-04	average	38.94324
Zhuangyuan	37.30553	CN	09 Sep 2014	good	120.82747
Lal Bahadur Nagar	17.34769	IN	25 Sep 2017	average	78.55757
San Carlos	8.79577	CO	17 May 2020	good	-75.69947
Dahlem	52.4581	DE	11 Jun 2018	accep	13.28702
Soroca	48.15659	MD	2019-03-10	good	28.28489
Zhukovka	53.53395	RU	2018-01-09	excellent	33.72798
Saint-Genis-Laval	45.69558	FR	2018/08/06	accep	4.7934
Thap Than	15.46063	TH	2022-09-11	maintenance	99.89166
Portogruaro	45.78071	IT	26 Aug 2016	accep	12.84052
Sojat	25.92493	IN	02/27/2022, 00:00:00	excellent	73.66633
Memmingen	47.98372	DE	2020/10/18	building	10.18527
La Ligua	-32.45242	CL	05 Feb 2019	average	-71.23106
Talipparamba	12.04161	IN	30 Dec 2015	average	75.35927
Mvomero	-6.25	TZ	01/01/2022, 00:00:00	accep	38.66667
Bobigny	48.90982	FR	2018/12/26	average	2.45012
Ciudad Guayana	8.35122	VE	07/07/2017, 00:00:00	excellent	-62.64102
Far Rockaway	40.60538	US	2022-07-27	maintenance	-73.75513
Hermsdorf	52.61131	DE	2013/08/04	excellent	13.31783
Lanciano	42.22718	IT	09/29/2015, 00:00:00	average	14.39024
Tornio	65.84811	FI	2020-01-12	good	24.14662
Baliuag	14.95472	PH	2019-03-04	good	120.89694
Varadero	23.15678	CU	2013/12/31	good	-81.24441
Barracas	-34.64966	AR	2020-01-04	good	-58.38341
Olupona	7.6	NG	2019/04/04	good	4.18333
Shagamu	6.8485	NG	10 Sep 2021	maitennce	3.64633
Oschatz	51.30001	DE	2018/03/08	excellent	13.10984
Santa Catalina	9.3337	PH	11/07/2020, 00:00:00	accep	122.8637
La Garenne-Colombes	48.90472	FR	2017/07/12	average	2.2469
Viradouro	-20.87306	BR	04 Sep 2016	good	-48.29694
Griffith	-34.28853	AU	2022/06/25	accep	146.05093
Strood	51.39323	GB	2013/09/23	building	0.47713
Yonkers	40.93121	US	2017-08-11	building	-73.89875
Canton	42.30865	US	02/04/2021, 00:00:00	building	-83.48216
Jinotepe	11.84962	NI	2015-05-30	average	-86.19903
Blackpool	53.81667	GB	02/15/2017, 00:00:00	accep	-3.05
Milagro	-2.13404	EC	2017-08-24	maintenance	-79.59415
Brierley Hill	52.48173	GB	04/21/2018, 00:00:00	good	-2.12139
Clacton-on-Sea	51.78967	GB	2012/09/28	accep	1.15597
Laiwu	36.19278	CN	2016-03-11	excellent	117.65694
Olanchito	15.48131	HN	08/14/2013, 00:00:00	accep	-86.57415
Betamcherla	15.45144	IN	09 Sep 2014	average	78.14797
Danilov	58.1908	RU	2021/04/12	accep	40.17171
Sankt Peter	47.05	AT	31 Aug 2014	accep	15.46667
Izluchinsk	60.97944	RU	2015/09/04	average	76.92421
Ghat	24.96334	LY	27 Jun 2013	average	10.18003
Petrozavodsk	61.78491	RU	08/25/2021, 00:00:00	accep	34.34691
Likhobory	55.85	RU	2022-04-21	maintenance	37.56667
Jais	26.2649	IN	08/10/2018, 00:00:00	maintenance	81.54855
Saint-Omer	50.75	FR	01 Jan 2013	accep	2.25
Aleshtar	33.86419	IR	2021/08/01	accep	48.26258
Rosedale	39.32011	US	2019-07-17	average	-76.51552
Naushahra Virkan	31.96258	PK	2012-10-31	average	73.97117
Mirriah	13.70727	NE	2014-08-01	excellent	9.15013
An Muileann gCearr	53.53333	IE	02/04/2019, 00:00:00	accep	-7.35
Encinitas	33.03699	US	2018/06/14	average	-117.29198
Hartley	51.38673	GB	2014-04-25	good	0.30367
Lanciano	42.22718	IT	08 Dec 2013	average	14.39024
Kelowna	49.88307	CA	2013/09/01	good	-119.48568
Pahrump	36.20829	US	14 Feb 2015	maintenance	-115.98391
Yamada	39.46667	JP	2018-07-21	maintenance	141.95
Naro-Fominsk	55.38752	RU	28 May 2022	average	36.73307
Tarakan	3.31332	ID	2021/09/18	excellent	117.59152
Acayucan	17.94979	MX	2020-05-05	maintenance	-94.91386
Bibiani	6.46346	GH	01 Jul 2017	good	-2.31938
Camayenne	9.535	GN	2013/09/07	maintenance	-13.68778
Mampong	7.06273	GH	08 Jan 2015	good	-1.4001
Hermsdorf	52.61131	DE	11/25/2016, 00:00:00	average	13.31783
Mvomero	-6.25	TZ	2017-01-27	maintenance	38.66667
Negotin	44.22639	RS	03 Apr 2018	building	22.53083
Pekanbaru	0.51667	ID	2015-12-18	average	101.44167
Puerto Colombia	10.98778	CO	02 May 2020	average	-74.95472
Oberhausen	51.47805	DE	02/19/2016, 00:00:00	excellent	6.8625
Busia	0.46005	KE	21 Feb 2014	accep	34.11169
Pointe-Claire	45.44868	CA	2020/03/07	maintenance	-73.81669
Tharu Shah	26.9423	PK	02/25/2019, 00:00:00	excellent	68.11759
Winsford	53.19146	GB	08/08/2021, 00:00:00	maintenance	-2.52398
Rolla	37.95143	US	30 Nov 2017	accep	-91.77127
Ajaccio	41.91886	FR	2013/05/27	excellent	8.73812
Gua Musang	4.88441	MY	25 Apr 2019	good	101.96857
Longgang	37.65181	CN	2022-02-06	average	120.33063
Guaraciaba do Norte	-4.16694	BR	10/11/2018, 00:00:00	average	-40.7475
Ukmerge	55.25	LT	03/21/2016, 00:00:00	accep	24.75
Pameungpeuk	-7.01833	ID	2022/07/01	average	107.60389
Schererville	41.47892	US	2014-10-24	excellent	-87.45476
Lutsk	50.75932	UA	2022/01/18	excellent	25.34244
Jingzhou	30.35028	CN	02/09/2018, 00:00:00	good	112.19028
Milagro	-2.13404	EC	01 Jan 2018	average	-79.59415
Pilar	14.66	PH	31 Jul 2016	good	120.56528
Carnot	4.94273	CF	2020-05-02	building	15.87735
Shagamu	6.8485	NG	2019-06-05	good	3.64633
Custoias	41.1053	PT	2012/10/15	average	-7.32097
Rixensart	50.71229	BE	2018-10-10	maintenance	4.52529
Zhoucun	36.81667	CN	02/20/2013, 00:00:00	excellent	117.81667
Kolomyagi	60.02427	RU	2016-08-25	accep	30.28491
Dipolog	8.56697	PH	03/01/2016, 00:00:00	excellent	123.33471
Boston	42.35843	US	2020/06/06	good	-71.05977
Kuvandyk	51.4781	RU	2019/08/02	good	57.3552
Changshu City	31.64615	CN	17 Nov 2021	average	120.74221
Colomiers	43.61058	FR	11/03/2017, 00:00:00	average	1.33467
Boli	45.75279	CN	04/30/2014, 00:00:00	building	130.57211
Gua Musang	4.88441	MY	2013-08-24	maintenance	101.96857
Mirriah	13.70727	NE	03/26/2017, 00:00:00	average	9.15013
Tandil	-37.32167	AR	2012/12/06	excellent	-59.13316
Soledade	-28.81833	BR	06/08/2013, 00:00:00	maintenance	-52.51028
Gero	35.8	JP	26 Dec 2020	good	137.23333
Budva	42.28639	ME	2020/01/24	excellent	18.84
Pilkhua	28.71271	IN	2017-12-09	building	77.656
Polohy	47.48444	UA	2015-02-16	accep	36.25361
Muritiba	-12.91667	BR	2018/04/15	good	-39.25
Elbeuf	49.28669	FR	10 Feb 2019	excellent	1.00288
Kendall	25.67927	US	10/25/2017, 00:00:00	average	-80.31727
Jackson	35.61452	US	07/19/2018, 00:00:00	accep	-88.81395
Markham	43.86682	CA	09 Sep 2019	maitennce	-79.2663
Shagamu	6.8485	NG	2018-02-09	maintenance	3.64633
Nanpiao	41.09822	CN	10/13/2017, 00:00:00	accep	120.74792
Nakhon Pathom	13.8196	TH	01 Sep 2019	accep	100.04427
Jersey City	40.72816	US	2020/02/25	accep	-74.07764
Kachkanar	58.7002	RU	26 Jul 2018	excellent	59.4839
Same	-4.06667	TZ	2020/01/02	accep	37.73333
Frankston South	-38.16604	AU	2013-08-10	average	145.13643
Villabate	38.07789	IT	09/27/2022, 00:00:00	excellent	13.44275
Neuburg an der Donau	48.73218	DE	11/12/2012, 00:00:00	average	11.18709
Zhoushan	29.98869	CN	2014/11/03	good	122.20488
Chiguayante	-36.9256	CL	09/06/2017, 00:00:00	average	-73.02841
Simpang	-1.26424	ID	20 Jan 2018	good	104.09701
Inawashiro	37.56667	JP	01/17/2019, 00:00:00	maintenance	140.11667
Mitry-Mory	48.98333	FR	10 Jul 2021	accep	2.61667
Argungu	12.74482	NG	25 May 2016	building	4.52514
Saint-Genis-Laval	45.69558	FR	2021/07/05	good	4.7934
Hutchinson	38.06084	US	08 Feb 2017	good	-97.92977
Hlohovec	48.43174	SK	12/11/2020, 00:00:00	good	17.8031
Strood	51.39323	GB	2015-05-30	average	0.47713
Ilesa	7.62789	NG	2014/05/13	average	4.74161
Gifhorn	52.47774	DE	01 Oct 2012	average	10.5511
Varadero	23.15678	CU	2019-10-16	excellent	-81.24441
Mardin	37.31309	TR	30 Nov 2017	building	40.74357
Media Luna	20.14298	CU	04 Jun 2022	excellent	-77.43532
Marly-le-Roi	48.86667	FR	2019/06/28	average	2.08333
Nyahururu	0.03813	KE	01/06/2017, 00:00:00	excellent	36.36339
Moga	30.81383	IN	20 Nov 2019	accep	75.16878
Hasilpur	29.69221	PK	06/23/2014, 00:00:00	maintenance	72.54566
Barbil	22.10194	IN	07/14/2022, 00:00:00	accep	85.37752
Privolzhskiy	51.40944	RU	20 Aug 2018	good	46.04833
Zgorzelec	51.14942	PL	2012/09/27	building	15.00835
Barmbek-Nord	53.6052	DE	06/24/2014, 00:00:00	accep	10.03988
Iringa	-7.76667	TZ	12 Jan 2022	accep	35.7
Murray	36.61033	US	07 Mar 2021	accep	-88.31476
Port Richmond	40.63316	US	2015/05/30	maintenance	-74.13653
Yamada	39.46667	JP	08/09/2014, 00:00:00	average	141.95
Hueytown	33.45122	US	2017/03/20	accep	-86.99666
Oldenzaal	52.31333	NL	08/09/2013, 00:00:00	excellent	6.92917
Iturama	-19.72806	BR	10 Sep 2021	good	-50.19556
Jagna	9.6531	PH	01/30/2021, 00:00:00	good	124.3697
Newburgh	41.50343	US	2021-10-01	building	-74.01042
Naga	10.20898	PH	2014/06/21	good	123.758
Balikpapan	-1.26753	ID	06/02/2017, 00:00:00	good	116.82887
Jackson	35.61452	US	31 May 2017	maintenance	-88.81395
Alwaye	10.10649	IN	02 Nov 2018	excellent	76.35484
Carindale	-27.50578	AU	2013/07/29	accep	153.10236
Ghat	24.96334	LY	2012-12-06	good	10.18003
Ustka	54.58048	PL	02/03/2016, 00:00:00	average	16.86194
Taunton	41.9001	US	2015/05/30	good	-71.08977
Karbala	32.61603	IQ	2012-11-17	average	44.02488
Masbate	12.37169	PH	21 Nov 2012	accep	123.62494
Yunguyo	-16.25	PE	07 Nov 2020	excellent	-69.08333
Massapequa	40.68066	US	2021/05/25	excellent	-73.47429
Fayetteville	35.05266	US	15 Aug 2014	excellent	-78.87836
Tiruppuvanam	9.82564	IN	2022-05-05	accep	78.25795
Hongseong	36.6009	KR	2017-10-27	maintenance	126.665
Sicklerville	39.71734	US	08/12/2016, 00:00:00	good	-74.96933
Ozersk	55.75556	RU	2013/02/09	good	60.70278
Barmbek-Nord	53.6052	DE	2022-06-01	accep	10.03988
Nowshahr	36.64852	IR	2013-05-25	building	51.49621
Davangere	14.46693	IN	04 May 2014	average	75.92694
Estelle	29.84576	US	2016/02/12	accep	-90.10674
Kobuleti	41.82143	GE	2018/10/14	good	41.77921
el Camp de l'Arpa del Clot	41.41204	ES	2022-04-23	average	2.18247
Jersey City	40.72816	US	03/17/2017, 00:00:00	average	-74.07764
Mount Hagen	-5.85746	PG	17 Mar 2016	good	144.23058
Boumerdas	36.76639	DZ	2013-07-22	excellent	3.47717
Gates-North Gates	43.16547	US	2018-07-20	excellent	-77.70066
Argungu	12.74482	NG	12 Feb 2016	building	4.52514
Chillum	38.96372	US	2022/08/01	maintenance	-76.99081
Arbroath	56.56317	GB	01 Sep 2022	maintenance	-2.58736
Novosilikatnyy	53.30972	RU	2015-07-31	accep	83.62389
Aistala	23.18	IN	19 Apr 2018	maintenance	88.58
Jinotepe	11.84962	NI	01/29/2021, 00:00:00	good	-86.19903
Kingston upon Hull	53.7446	GB	2018-11-09	accep	-0.33525
Gaya	11.86064	NG	2021/11/27	accep	9.0027
Boyeros	23.0072	CU	2015/08/31	average	-82.4017
Aurora	39.72943	US	24 May 2019	excellent	-104.83192
Hita	33.3213	JP	2019/03/19	accep	130.94098
Besuki	-7.73379	ID	2013/05/12	excellent	113.69785
Sun City Center	27.71809	US	2013-10-19	maintenance	-82.35176
Ponta Delgada	37.74615	PT	16 Mar 2018	accep	-25.66689
El Copey	10.15031	CO	01/03/2014, 00:00:00	building	-73.9614
Bibiani	6.46346	GH	06/13/2021, 00:00:00	accep	-2.31938
Longview	32.5007	US	2018-12-08	good	-94.74049
Zaozhuang	34.86472	CN	2015-01-28	good	117.55417
Tyoply Stan	55.62047	RU	2020-03-05	average	37.49338
Villaquilambre	42.64685	ES	2015/02/08	excellent	-5.55835
Jackson	35.61452	US	2013-06-07	maintenance	-88.81395
Thap Than	15.46063	TH	2018-10-16	excellent	99.89166
Rajaori	33.37526	IN	20 Dec 2015	accep	74.3092
Gua Musang	4.88441	MY	09/07/2022, 00:00:00	maintenance	101.96857
Walsrode	52.86147	DE	2014-05-11	maintenance	9.5926
Contla	19.32932	MX	08/07/2013, 00:00:00	building	-98.1664
Alytus	54.39635	LT	2018/05/06	building	24.04142
Guaraciaba do Norte	-4.16694	BR	2017/07/24	accep	-40.7475
Ragusa	36.92574	IT	07/01/2017, 00:00:00	average	14.72443
Zvenihorodka	49.07866	UA	2017/09/09	accep	30.96755
Pekanbaru	0.51667	ID	04/08/2019, 00:00:00	average	101.44167
Pleasant Prairie	42.55308	US	2021/09/14	average	-87.93341
Trossingen	48.07667	DE	2015/12/24	excellent	8.64409
Nowra	-34.88422	AU	18 Apr 2017	accep	150.60036
Yenagoa	4.92675	NG	07/07/2021, 00:00:00	accep	6.26764
Sa Dec	10.29085	VN	10 Jul 2015	building	105.75635
Athlone	53.43333	IE	08/14/2018, 00:00:00	average	-7.95
Pontevedra	-34.74785	AR	2018/04/18	accep	-58.70072
Agrigento	37.31065	IT	2012/11/17	average	13.57661
El Achir	36.06386	DZ	07/08/2021, 00:00:00	excellent	4.62744
Dehiwala-Mount Lavinia	6.84019	LK	2021/12/07	average	79.87116
Visitacion Valley	37.71715	US	2019-04-24	good	-122.40433
Farafenni	13.56667	GM	23 Apr 2018	accep	-15.6
Saint-Genis-Laval	45.69558	FR	2019/05/19	accep	4.7934
Roslavl‚Äô	53.95278	RU	18 Aug 2016	average	32.86389
Itaperuna	-21.205	BR	2020-01-09	average	-41.88778
Tiruppuvanam	9.82564	IN	2018/12/13	excellent	78.25795
Kovylkino	54.03876	RU	29 Dec 2012	accep	43.91385
Yingkou	40.66482	CN	2017-01-09	excellent	122.22833
Malnate	45.79377	IT	16 Oct 2021	good	8.88104
Nizhniy Lomov	53.53041	RU	01 May 2021	building	43.67663
Khairpur Mir‚Äôs	27.52948	PK	2020-08-26	accep	68.75915
Rwamagana	-1.9487	RW	09/26/2022, 00:00:00	excellent	30.4347
El Achir	36.06386	DZ	04/06/2018, 00:00:00	excellent	4.62744
Harrisburg	40.2737	US	24 Feb 2015	excellent	-76.88442
Gandia	38.96667	ES	2019-11-22	building	-0.18333
Diamond Harbour	22.19303	IN	03/25/2017, 00:00:00	excellent	88.18466
Alfenas	-21.42917	BR	2016-01-01	accep	-45.94722
Palmeira	-25.42944	BR	18 Jul 2015	good	-50.00639
Viradouro	-20.87306	BR	03/26/2013, 00:00:00	excellent	-48.29694
Pingyi	35.50056	CN	2015/11/29	average	117.63083
Ragusa	36.92574	IT	10/15/2017, 00:00:00	average	14.72443
Chamba	32.55531	IN	10/09/2018, 00:00:00	average	76.12647
Perth	-31.95224	AU	05/27/2013, 00:00:00	excellent	115.8614
Kelowna	49.88307	CA	12/14/2017, 00:00:00	maintenance	-119.48568
'Ali Sabieh	11.15583	DJ	12/23/2013, 00:00:00	maintenance	42.7125
Bryn Mawr-Skyway	47.4943	US	12/20/2016, 00:00:00	average	-122.24092
Debre Tabor	11.85	ET	2016/05/14	building	38.01667
Liberia	10.63504	CR	2014/02/17	average	-85.43772
Kensington	40.64621	US	07 Sep 2014	accep	-73.97069
Elamanchili	17.54907	IN	2020-04-17	good	82.85749
Gudermes	43.35071	RU	15 Mar 2022	excellent	46.10925
North Tustin	33.76446	US	2015/07/05	average	-117.79394
Yonkers	40.93121	US	2019/05/10	average	-73.89875
Denderleeuw	50.88506	BE	2020-11-27	accep	4.07601
Lebanon	39.43534	US	03/16/2018, 00:00:00	good	-84.20299
San Juan de Aznalfarache	37.35813	ES	03/18/2017, 00:00:00	excellent	-6.03731
Yunguyo	-16.25	PE	2018-12-04	excellent	-69.08333
Jaworzno	50.20528	PL	2020-07-06	good	19.27498
Fort Washington	38.70734	US	28 Jul 2021	maintenance	-77.02303
Lino Lakes	45.16024	US	06/03/2022, 00:00:00	accep	-93.08883
Leioa	43.32686	ES	16 Dec 2014	excellent	-2.98884
Madhipura	25.92127	IN	18 Feb 2017	accep	86.79271
Puertollano	38.68712	ES	15 Nov 2018	good	-4.10734
Hudiksvall	61.72744	SE	2018/06/24	good	17.10558
Keene	42.93369	US	2021-07-08	maintenance	-72.27814
Yakuplu	40.98894	TR	18 Jun 2016	excellent	28.67582
Korschenbroich	51.19139	DE	2015/02/05	good	6.51352
Newbury	51.40148	GB	2018-06-25	good	-1.32471
Qazax	41.09246	AZ	18 Oct 2013	building	45.36561
