station	code	QoS	longitude	latitude	revision
Rutland	US	excellent	-72.97261	43.61062	2016/11/07
Arua	UG	maintenance	30.91105	3.02013	19 Jun 2020
Majene	ID	good	118.9707	-3.5403	2019/09/23
Novelda	ES	average	-0.76773	38.38479	10/05/2016, 00:00:00
Vienne	FR	good	4.86667	45.51667	2019-05-25
Beni	CD	good	29.47306	0.49113	31 Oct 2014
Mudanya	TR	excellent	28.88222	40.37528	19 Aug 2013
Khairpur Mir‚Äôs	PK	maintenance	68.75915	27.52948	25 Jan 2022
Dorval	CA	excellent	-73.75335	45.4473	17 Mar 2014
Cheraga	DZ	average	2.95924	36.76775	02/08/2022, 00:00:00
Nizhniy Lomov	RU	accep	43.67663	53.53041	04/07/2019, 00:00:00
Gronau	DE	maintenance	7.02238	52.21099	2019/05/27
Tandil	AR	average	-59.13316	-37.32167	25 Oct 2017
Kendall	US	excellent	-80.31727	25.67927	27 Apr 2016
Rosedale	US	good	-76.51552	39.32011	2018/12/22
Yashkino	RU	maintenance	85.4265	55.8736	11/09/2014, 00:00:00
Sathyamangalam	IN	accep	77.23826	11.50526	2013/08/19
Kalavoor	IN	building	76.32756	9.57046	12 Jan 2020
Poulton-le-Fylde	GB	building	-2.98333	53.83333	2015-10-15
West Chester	US	excellent	-75.60804	39.96097	2018-12-09
Puertollano	ES	accep	-4.10734	38.68712	12 Jul 2015
Udumalaippettai	IN	accep	77.24779	10.58806	2017-07-02
Mirriah	NE	excellent	9.15013	13.70727	2021/12/02
San Fernando de Henares	ES	good	-3.53261	40.42386	12/15/2013, 00:00:00
Artur Nogueira	BR	accep	-47.1725	-22.57306	12/04/2013, 00:00:00
Glendale	US	building	-118.25508	34.14251	21 Feb 2020
Guaraciaba do Norte	BR	good	-40.7475	-4.16694	2013-03-29
Albstadt	DE	average	9.02596	48.21644	2015-03-29
Talence	FR	good	-0.59543	44.80477	2020/02/17
Deltona	US	excellent	-81.26367	28.90054	07/11/2019, 00:00:00
Shinshiro	JP	maintenance	137.5	34.9	21 Sep 2016
Covington	US	accep	-84.50855	39.08367	06/06/2016, 00:00:00
Kyaikto	MM	average	97.01124	17.30858	2014/12/03
Burscheid	DE	average	7.11393	51.08468	2016-06-07
Bhit Shah	PK	excellent	68.49143	25.80565	11/07/2012, 00:00:00
Rosemount	US	accep	-93.12577	44.73941	04/13/2022, 00:00:00
Kenda	IN	accep	86.51499	23.1959	2022/01/26
South Lawndale	US	accep	-87.71255	41.84364	2016/06/12
Sojat	IN	excellent	73.66633	25.92493	2013/04/02
Port Richmond	US	average	-74.13653	40.63316	2014/08/19
Stockbridge	US	accep	-84.23381	33.54428	2015-02-02
Danilov	RU	excellent	40.17171	58.1908	27 Dec 2020
Gisborne	NZ	accep	178.00417	-38.65333	2021/02/19
Kheda	IN	good	72.68533	22.75218	2016-07-17
Puertollano	ES	maintenance	-4.10734	38.68712	02 Jun 2015
Pekin	US	good	-89.64066	40.56754	10/06/2017, 00:00:00
Crystal Lake	US	accep	-88.3162	42.24113	2017-09-30
Nova Xavantina	BR	good	-52.35558	-14.66463	13 Dec 2015
Pato Branco	BR	good	-52.67056	-26.22861	30 Sep 2013
Woodlawn	US	excellent	-76.72803	39.32288	04 Apr 2015
Haicheng	CN	average	122.74754	40.85158	17 Nov 2019
Narwar	IN	average	77.9129	25.6439	17 Oct 2015
Fitchburg	US	building	-71.8023	42.58342	2020-01-13
Jiangyan	CN	excellent	120.14278	32.50611	25 Apr 2021
Karatsu	JP	accep	129.96972	33.4425	2015/04/29
Puducherry	IN	good	79.82979	11.93381	2013/12/07
Barmbek-Nord	DE	good	10.03988	53.6052	2014/06/22
Carnot	CF	accep	15.87735	4.94273	06/24/2015, 00:00:00
Tchaourou	BJ	excellent	2.59753	8.88649	2022/02/23
Harstad	NO	good	16.54165	68.79833	2013/07/25
Malaut	IN	good	74.4818	30.21121	2021-08-12
Dahlem	DE	good	13.28702	52.4581	2013-08-24
Puerto Colombia	CO	maintenance	-74.95472	10.98778	11/06/2021, 00:00:00
Gainsborough	GB	excellent	-0.76667	53.38333	2015-04-19
Vahdat	TJ	building	69.01354	38.55632	05/07/2022, 00:00:00
Cowes	GB	good	-1.29772	50.76306	05 Jan 2015
Chilibre	PA	building	-79.62098	9.15093	27 Aug 2020
Kamina	CD	excellent	24.99798	-8.73508	05 Mar 2022
Mira Mesa	US	average	-117.14392	32.9156	12/27/2018, 00:00:00
Bergama	TR	maintenance	27.18052	39.12074	2018/05/02
Inverness	GB	excellent	-4.22398	57.47908	2021/01/06
Carnot	CF	average	15.87735	4.94273	2018/08/03
Valday	RU	accep	33.2525	57.97472	2020/05/19
Morningside Heights	US	excellent	-73.9625	40.81	01/07/2017, 00:00:00
Acaponeta	MX	average	-105.36369	22.49396	2020/09/17
Rahat	IL	average	34.75699	31.39547	2013-11-17
Ramla	IL	average	34.86563	31.92923	06/07/2021, 00:00:00
Fairview Heights	US	good	-89.99038	38.58894	2021/10/14
Siliana	TN	excellent	9.37082	36.08497	06/08/2019, 00:00:00
Strood	GB	accep	0.47713	51.39323	27 Feb 2022
Lompoc	US	excellent	-120.45794	34.63915	2012-12-26
Caldas Novas	BR	excellent	-48.62789	-17.74431	12 May 2013
Gorakhpur	IN	excellent	83.36889	26.76628	2019-08-29
Boston	US	average	-71.05977	42.35843	11/14/2021, 00:00:00
Newburgh	US	accep	-74.01042	41.50343	12/09/2012, 00:00:00
Rutherglen	GB	accep	-4.21376	55.82885	30 May 2014
Volla	IT	good	14.34085	40.87363	2014/06/19
Arles	FR	average	4.63031	43.67681	2016/12/11
Split	HR	excellent	16.43915	43.50891	2013-08-24
Villabate	IT	average	13.44275	38.07789	04/17/2015, 00:00:00
Mokopane	ZA	excellent	29.00974	-24.19436	03 Dec 2015
Acaponeta	MX	accep	-105.36369	22.49396	06/26/2016, 00:00:00
Annaka	JP	excellent	138.89585	36.33011	2017-02-13
Brunswick	US	good	-69.96533	43.91452	03/01/2015, 00:00:00
Radevormwald	DE	average	7.36027	51.20219	2015/05/18
Mikhaylovka	RU	good	43.2379	50.06	2016-11-12
Porterville	US	maintenance	-119.01677	36.06523	2018/04/05
San Gabriel	US	acceptable	-118.10583	34.09611	03 Apr 2016
Perugia	IT	good	12.38878	43.1122	2018/05/19
Majene	ID	accep	118.9707	-3.5403	2021-11-25
Malden	US	good	-71.06616	42.4251	2020/01/11
Hongseong	KR	average	126.665	36.6009	10/06/2019, 00:00:00
Ustka	PL	good	16.86194	54.58048	2016-03-08
Qadirpur Ran	PK	excellent	71.67164	30.29184	2013/07/19
Gorgonzola	IT	average	9.40531	45.53069	2015-04-14
Pune	IN	excellent	73.85535	18.51957	2016-09-18
Lille	BE	excellent	4.82313	51.24197	06/20/2021, 00:00:00
Reda	PL	building	18.34717	54.60528	05 Mar 2015
Grand Forks	US	good	-97.03285	47.92526	02/05/2022, 00:00:00
Tver	RU	excellent	35.90057	56.85836	03/27/2019, 00:00:00
Sorsogon	PH	maintenance	123.99333	12.97389	01/07/2021, 00:00:00
Darreh Shahr	IR	good	47.3799	33.14447	2019/10/02
Dawei	MM	average	98.19151	14.0823	02/20/2013, 00:00:00
Khairpur Mir‚Äôs	PK	accep	68.75915	27.52948	11/05/2020, 00:00:00
Yenagoa	NG	excellent	6.26764	4.92675	03/21/2020, 00:00:00
Catania	IT	accep	15.07041	37.49223	2019/02/02
Bobigny	FR	average	2.45012	48.90982	03/02/2019, 00:00:00
Puducherry	IN	accep	79.82979	11.93381	2014/12/14
Le Chesnay	FR	average	2.12213	48.8222	25 Oct 2012
Artur Nogueira	BR	accep	-47.1725	-22.57306	12/15/2021, 00:00:00
Quimper	FR	accep	-4.1	48	10/27/2015, 00:00:00
Hakodate	JP	average	140.73667	41.77583	2014/01/28
Leteri	IN	excellent	77.40858	24.05979	08 Apr 2022
Custoias	PT	accep	-7.32097	41.1053	2020/03/09
Rueil-Malmaison	FR	accep	2.18967	48.8765	28 Apr 2017
Stupino	RU	accep	38.07083	54.90083	2013-11-22
Hushitai	CN	good	123.50266	41.94175	2020-07-03
Lesosibirsk	RU	building	92.48278	58.23583	01/08/2016, 00:00:00
Barnet	GB	average	-0.2	51.65	2016-06-08
Fitchburg	US	maintenance	-71.8023	42.58342	01/09/2017, 00:00:00
Puducherry	IN	average	79.82979	11.93381	2019/02/28
Betamcherla	IN	good	78.14797	15.45144	2015/12/04
Radevormwald	DE	excellent	7.36027	51.20219	17 Oct 2014
Arbroath	GB	good	-2.58736	56.56317	2022-06-03
San Gabriel	US	average	-118.10583	34.09611	11/26/2021, 00:00:00
Goyang-si	KR	accep	126.835	37.65639	2015-05-16
Vestavia Hills	US	good	-86.78777	33.44872	2018-11-20
Kherson	UA	excellent	32.6178	46.65581	2015-10-18
Hartley	GB	good	0.30367	51.38673	13 Mar 2022
Sinhyeon	KR	excellent	128.62667	34.8825	2019/05/13
Bang Ban	TH	excellent	100.48528	14.37395	05/09/2013, 00:00:00
Nyangao	TZ	building	39.28333	-10.33333	01/03/2014, 00:00:00
San Juan	US	excellent	-98.15529	26.18924	20 Jan 2014
Diwek	ID	good	112.23109	-7.57897	2021-01-03
Fazilpur	PK	accep	75.06583	32.17629	2019/11/10
Juhaynah	EG	accep	31.4976	26.67319	2021/11/14
Otradnyy	RU	good	51.3452	53.37596	11/14/2014, 00:00:00
Kangayam	IN	good	77.5609	11.00599	06/29/2018, 00:00:00
Misterbianco	IT	accep	15.00913	37.51803	05/09/2016, 00:00:00
Canton	US	good	-83.48216	42.30865	2016/11/07
Kahului	US	good	-156.47432	20.88953	15 Sep 2013
Karlovy Vary	CZ	acceptable	12.87117	50.23271	2016/11/25
Aistala	IN	excellent	88.58	23.18	2013/02/28
Yasothon	TH	excellent	104.1451	15.79408	24 Dec 2020
Sirsi	IN	accep	74.83554	14.62072	2014/09/10
Belper	GB	building	-1.48119	53.0233	2020-08-13
Pottstown	US	good	-75.64963	40.24537	2019-04-03
Casa Blanca	MX	average	-98.11889	19.04222	31 Aug 2016
Charlottenburg-Nord	DE	accep	13.29371	52.53048	06 Sep 2014
Aytos	BG	average	27.25	42.7	03 Jun 2022
Sungurlu	TR	average	34.37389	40.1675	2022/03/11
Aberdeen	GB	good	-2.09814	57.14369	17 Feb 2021
Lakota	CI	accep	-5.682	5.84752	06 Nov 2014
Lakewood	US	maintenance	-81.79819	41.48199	2018-03-31
Loanda	BR	average	-53.13722	-22.92306	2016/01/10
Sukabumi	ID	building	106.92667	-6.91806	06/29/2021, 00:00:00
Chanika	TZ	excellent	38.01667	-5.41667	08/07/2014, 00:00:00
Gainesville	US	average	-82.32483	29.65163	2019/12/12
Patti	IN	building	74.85849	31.28092	12/09/2021, 00:00:00
Boo	SE	accep	18.28333	59.33333	2012-11-18
Yao	JP	excellent	135.6	34.61667	2017/12/25
Patnos	TR	good	42.85693	39.22493	2020-08-08
Temse	BE	average	4.21372	51.12794	29 Mar 2017
Norfolk County	CA	maitennce	-80.38297	42.8334	2018/11/11
Reus	ES	excellent	1.10687	41.15612	03 Mar 2017
Andes	CO	excellent	-75.87877	5.6561	2018-01-16
Alytus	LT	maintenance	24.04142	54.39635	17 Jan 2014
Contla	MX	average	-98.1664	19.32932	2013/04/19
Shahre Jadide Andisheh	IR	average	51.0193	35.6803	09/22/2020, 00:00:00
Yenagoa	NG	good	6.26764	4.92675	07/16/2015, 00:00:00
Brazzaville	CG	good	15.28318	-4.26613	02 Jan 2021
Hakodate	JP	building	140.73667	41.77583	08/03/2013, 00:00:00
Nonoichi	JP	excellent	136.61667	36.53333	2015-05-17
Dalsingh Sarai	IN	average	85.83636	25.66795	2015/11/16
Damnoen Saduak	TH	excellent	99.95469	13.51825	02/28/2015, 00:00:00
Chosica	PE	average	-76.70944	-11.94306	2019/04/03
Shagamu	NG	accep	3.64633	6.8485	2018-10-09
Yauco	PR	average	-66.8499	18.03496	07/29/2019, 00:00:00
Efon-Alaaye	NG	accep	4.92235	7.65649	17 Jun 2014
Xinzhou	CN	accep	112.73333	38.40917	15 Nov 2015
Ina	JP	excellent	137.95378	35.82756	2020-01-24
Santa Gertrudes	BR	accep	-47.53028	-22.45667	05/09/2013, 00:00:00
Pune	IN	maintenance	73.85535	18.51957	10 Feb 2021
Simpang	ID	acceptable	104.09701	-1.26424	2013-01-12
Montecchio Maggiore-Alte Ceccato	IT	accep	11.412	45.50369	04/16/2013, 00:00:00
Ilopango	SV	maintenance	-89.10944	13.70167	09/21/2017, 00:00:00
Bothell	US	building	-122.2054	47.76232	2014-07-15
High Wycombe	GB	excellent	-0.74934	51.62907	2016/03/03
Belper	GB	good	-1.48119	53.0233	12/02/2017, 00:00:00
Oldenzaal	NL	excellent	6.92917	52.31333	2017-05-28
Elbeuf	FR	good	1.00288	49.28669	2020-08-05
Lutz	US	average	-82.46148	28.15112	11/10/2012, 00:00:00
Falconara Marittima	IT	good	13.39954	43.62558	30 May 2018
Sorsogon	PH	accep	123.99333	12.97389	2019-05-21
Camarillo	US	average	-119.0376	34.21639	2014/12/06
Antanifotsy	MG	average	47.31667	-19.65	2015/09/24
Msaken	TN	maintenance	10.58082	35.72917	18 Aug 2015
San Juan	US	excellent	-98.15529	26.18924	2016-01-07
Ambatondrazaka	MG	excellent	48.41667	-17.83333	2012-11-25
Zhukovka	RU	maintenance	33.72798	53.53395	01/27/2013, 00:00:00
Bachhraon	IN	excellent	78.23456	28.92694	02 Jan 2017
Gainsborough	GB	accep	-0.76667	53.38333	2016/10/20
Soroca	MD	accep	28.28489	48.15659	11 Dec 2018
Caldas Novas	BR	accep	-48.62789	-17.74431	04/24/2019, 00:00:00
Veracruz	PA	building	-79.62603	8.88988	05/11/2017, 00:00:00
Aschaffenburg	DE	good	9.15214	49.97704	11/23/2018, 00:00:00
Amposta	ES	good	0.57856	40.70995	26 Jan 2017
Jackson	US	good	-88.81395	35.61452	24 May 2019
Bad Honnef	DE	accep	7.2278	50.64336	2013/10/30
Dorval	CA	excellent	-73.75335	45.4473	2017/02/02
Itaperuna	BR	good	-41.88778	-21.205	10/27/2013, 00:00:00
Greenville	US	building	-91.06177	33.41012	2022/03/28
Haldwani	IN	accep	79.5286	29.22254	2019/11/25
Novogrudok	BY	accep	25.8191	53.5942	03 Nov 2012
Tortona	IT	good	8.86374	44.89784	09 Jul 2018
Reda	PL	building	18.34717	54.60528	2020-08-21
Carnegie	AU	average	145.06667	-37.88333	2019-07-16
Davis	US	accep	-121.74052	38.54491	2018/05/17
Peabody	US	good	-70.92866	42.52787	2012/11/25
Gilbert	US	excellent	-111.78903	33.35283	11 Jan 2018
Annaka	JP	average	138.89585	36.33011	2021-05-11
Saharsa	IN	building	86.59611	25.87498	2021/08/03
Efon-Alaaye	NG	excellent	4.92235	7.65649	12 Aug 2018
Scotch Plains	US	building	-74.38987	40.65538	12/01/2014, 00:00:00
Vahdat	TJ	good	69.01354	38.55632	2016/01/22
Tadmur	SY	accep	38.28402	34.5624	2019/08/29
Stuttgart	DE	average	9.17702	48.78232	2019/12/08
Redding	US	good	-122.39168	40.58654	2014/09/03
Baki	SO	excellent	43.38531	9.89206	2019-11-21
Soroca	MD	excellent	28.28489	48.15659	2018-11-02
Port-Vila	VU	good	168.31366	-17.73648	04/25/2014, 00:00:00
Silvan	TR	average	41.00817	38.13708	2019-03-02
Catende	BR	excellent	-35.71667	-8.66667	2015-05-01
Foshan	CN	average	113.13148	23.02677	27 Feb 2020
Lower Earley	GB	average	-0.91979	51.42708	05 Apr 2014
Haldwani	IN	accep	79.5286	29.22254	2015/03/01
Oldenzaal	NL	average	6.92917	52.31333	2021/11/14
Stade	DE	average	9.47629	53.59337	2013-03-15
Zeist	NL	average	5.23333	52.09	07/08/2016, 00:00:00
Chamba	IN	good	76.12647	32.55531	11/03/2020, 00:00:00
Stockbridge	US	excellent	-84.23381	33.54428	2013-05-04
Nidderau	DE	average	8.86704	50.23805	2016/01/24
Daud Khel	PK	maintenance	71.57118	32.87533	03/09/2014, 00:00:00
Sharypovo	RU	excellent	89.20083	55.54028	2015/08/04
Annaka	JP	building	138.89585	36.33011	2013-01-15
Ulanhot	CN	average	122.08333	46.08333	2018/11/25
Baulkham Hills	AU	accep	150.99292	-33.75881	2020-07-30
Osmanabad	IN	average	76.03889	18.18158	14 Jun 2022
Mwandiga	TZ	accep	29.65806	-4.83	2021-08-10
Scarsdale	US	excellent	-73.78458	41.0051	2020/06/13
Hutchinson	US	good	-97.92977	38.06084	2018/09/25
Novara	IT	accep	8.62118	45.44694	2015/04/02
Pleasant Prairie	US	average	-87.93341	42.55308	10/26/2021, 00:00:00
Covington	US	average	-84.50855	39.08367	2019/12/19
Yangambi	CD	maintenance	24.43973	0.76755	01/14/2020, 00:00:00
Winsford	GB	building	-2.52398	53.19146	2013-04-29
Jaruco	CU	good	-82.00919	23.04419	2021/09/09
Teghra	IN	excellent	85.94001	25.49043	11 Mar 2016
Mokopane	ZA	average	29.00974	-24.19436	2017-04-05
Aykhal	RU	maintenance	111.4834	65.93381	09 May 2014
Burscheid	DE	maintenance	7.11393	51.08468	2021-05-25
Pune	IN	accep	73.85535	18.51957	20 Mar 2020
El Alia	TN	excellent	10.03478	37.16911	05 Nov 2020
Sydney	CA	accep	-60.1831	46.1351	07/23/2022, 00:00:00
Annaka	JP	excellent	138.89585	36.33011	05/12/2016, 00:00:00
Kamakura	JP	good	139.55028	35.30889	19 Jul 2013
Shuangcheng	CN	excellent	126.28333	45.35	08/16/2018, 00:00:00
Pfullingen	DE	average	9.22796	48.46458	24 Oct 2021
Schererville	US	good	-87.45476	41.47892	18 Apr 2021
Les Olives	FR	good	5.4584	43.32393	13 Dec 2012
Emmeloord	NL	maintenance	5.74861	52.71083	2014/09/22
Puducherry	IN	building	79.82979	11.93381	2021-04-16
Arzamas	RU	excellent	43.83992	55.39485	2016/08/25
Polohy	UA	maintenance	36.25361	47.48444	08/23/2014, 00:00:00
Gorgonzola	IT	accep	9.40531	45.53069	06/18/2019, 00:00:00
Kensington	US	maintenance	-73.97069	40.64621	2017/10/07
Las Gabias	ES	maintenance	-3.67029	37.13548	2014/10/24
Lanciano	IT	excellent	14.39024	42.22718	01/03/2015, 00:00:00
Myawadi	MM	average	98.50893	16.68911	11/21/2012, 00:00:00
Bretten	DE	accep	8.70745	49.03685	07/10/2022, 00:00:00
Cebu City	PH	building	123.89071	10.31672	11/09/2021, 00:00:00
Al Jubayl	SA	maitennce	49.62251	27.0174	2013/09/16
Novelda	ES	good	-0.76773	38.38479	2013/06/04
Pekin	US	maintenance	-89.64066	40.56754	18 Aug 2014
Zvenihorodka	UA	excellent	30.96755	49.07866	10 Jul 2022
Deoli	IN	good	75.37991	25.75728	03/29/2016, 00:00:00
Aracaju	BR	maintenance	-37.07167	-10.91111	11/03/2012, 00:00:00
Misterbianco	IT	accep	15.00913	37.51803	2013-02-04
Brenham	US	average	-96.39774	30.16688	06/12/2021, 00:00:00
Temse	BE	good	4.21372	51.12794	18 Jul 2017
Marseille 11	FR	good	5.4384	43.2907	2020/05/16
Kendall	US	building	-80.31727	25.67927	05 Nov 2016
Walsrode	DE	excellent	9.5926	52.86147	03 May 2022
Volla	IT	maintenance	14.34085	40.87363	2015-07-22
Malakhovka	RU	good	38.02486	55.64776	09/24/2015, 00:00:00
Solntsevo	RU	excellent	37.38115	55.63711	2022-08-16
Finnentrop	DE	excellent	7.973	51.168	01 Aug 2014
South Lawndale	US	average	-87.71255	41.84364	2018/12/22
Collinwood	US	maintenance	-81.56929	41.55838	2015-04-04
Ozersk	RU	average	60.70278	55.75556	12 Jan 2016
Chichicastenango	GT	excellent	-91.11667	14.93333	05/23/2022, 00:00:00
Abilene	US	average	-99.73314	32.44874	2018/03/28
Bijeljina	BA	average	19.21437	44.75874	08/17/2015, 00:00:00
Barra dos Coqueiros	BR	excellent	-37.03861	-10.90889	07/30/2014, 00:00:00
Patnos	TR	average	42.85693	39.22493	01/11/2022, 00:00:00
Sirsi	IN	good	74.83554	14.62072	2017/06/03
Santa Gertrudes	BR	excellent	-47.53028	-22.45667	23 Oct 2015
Woodbridge	US	average	-74.28459	40.5576	08/17/2022, 00:00:00
Minokamo	JP	maintenance	137.02166	35.48199	11/11/2013, 00:00:00
Ilopango	SV	excellent	-89.10944	13.70167	2018/09/30
Meizhou	CN	accep	116.11768	24.28859	07/14/2017, 00:00:00
Mwandiga	TZ	average	29.65806	-4.83	05/17/2014, 00:00:00
Caravaca	ES	maintenance	-1.86343	38.10558	2013/09/05
Lagarto	BR	excellent	-37.65	-10.91722	28 Jul 2019
Carlos Barbosa	BR	excellent	-51.50361	-29.2975	2013-05-01
Jerada	MA	accep	-2.16	34.31	2018-06-04
Wangon	ID	good	109.05389	-7.51611	02/23/2013, 00:00:00
Hasilpur	PK	building	72.54566	29.69221	2019/11/09
Sukabumi	ID	excellent	106.92667	-6.91806	20 Mar 2013
Sa Dec	VN	excellent	105.75635	10.29085	06/14/2022, 00:00:00
Beni	CD	average	29.47306	0.49113	05/27/2013, 00:00:00
Westchester	US	excellent	-87.882	41.85059	2015/04/21
Sterling	US	building	-77.4286	39.00622	09/07/2021, 00:00:00
Shalqar	KZ	building	59.6	47.83333	2014-07-13
Kudus	ID	good	110.8405	-6.8048	06/08/2013, 00:00:00
Milagro	EC	average	-79.59415	-2.13404	2014-04-06
Minokamo	JP	excellent	137.02166	35.48199	2018/10/25
Port Huron	US	good	-82.42491	42.97086	02/03/2022, 00:00:00
El Copey	CO	building	-73.9614	10.15031	12 Oct 2018
Lompoc	US	accep	-120.45794	34.63915	2016/01/28
Pedro II	BR	excellent	-41.45861	-4.42472	2020/02/01
Hutto	US	excellent	-97.54667	30.5427	2013/12/07
Puertollano	ES	maintenance	-4.10734	38.68712	2013/03/14
Rosemount	US	accep	-93.12577	44.73941	2019/03/31
Korschenbroich	DE	accep	6.51352	51.19139	2019-09-28
Walsrode	DE	good	9.5926	52.86147	11/20/2013, 00:00:00
Onex	CH	good	6.10237	46.18396	2016/05/22
Mudanya	TR	excellent	28.88222	40.37528	2021/07/17
Chanika	TZ	excellent	38.01667	-5.41667	10/06/2019, 00:00:00
Ishim	RU	average	69.49015	56.11281	19 Aug 2015
Schiebroek	NL	good	4.47124	51.95838	11/18/2019, 00:00:00
Davis	US	good	-121.74052	38.54491	14 Feb 2015
Riverbank	US	excellent	-120.93549	37.73604	10/16/2015, 00:00:00
Ambatondrazaka	MG	building	48.41667	-17.83333	08/25/2015, 00:00:00
Caldas Novas	BR	good	-48.62789	-17.74431	03/25/2017, 00:00:00
Fujioka	JP	excellent	139.07204	36.24624	01 Feb 2017
Palm Desert	US	accep	-116.37697	33.72255	2019-05-30
Gonesse	FR	good	2.44892	48.98693	2015/05/02
Aracaju	BR	accep	-37.07167	-10.91111	01/23/2021, 00:00:00
Manaoag	PH	excellent	120.4861	16.0438	2018/06/15
High Wycombe	GB	maintenance	-0.74934	51.62907	01/01/2017, 00:00:00
Kahului	US	good	-156.47432	20.88953	10/28/2017, 00:00:00
Lakota	CI	accep	-5.682	5.84752	07/03/2017, 00:00:00
Muskogee	US	good	-95.36969	35.74788	2015/08/30
Lons-le-Saunier	FR	maintenance	5.55575	46.67535	2021-02-26
Quimper	FR	excellent	-4.1	48	05/08/2018, 00:00:00
Zgorzelec	PL	good	15.00835	51.14942	2015-11-18
South Whittier	US	maintenance	-118.03917	33.95015	2014-12-08
Ponta Delgada	PT	average	-25.66689	37.74615	05/17/2022, 00:00:00
Tupiza	BO	average	-65.71875	-21.44345	14 Mar 2022
Jagna	PH	accep	124.3697	9.6531	17 Mar 2022
Guli	CN	good	120.03308	28.88162	2012-11-22
Shepetivka	UA	excellent	27.06365	50.18545	2019/06/18
Iringa	TZ	good	35.7	-7.76667	08/25/2017, 00:00:00
Aklera	IN	maintenance	76.56719	24.41288	26 Feb 2019
Le Chesnay	FR	building	2.12213	48.8222	04/12/2020, 00:00:00
Caravaca	ES	good	-1.86343	38.10558	09/30/2019, 00:00:00
Fresno	US	accep	-95.44744	29.53885	20 Jun 2017
Zacoalco de Torres	MX	excellent	-103.5687	20.22816	2017-06-25
Karbala	IQ	good	44.02488	32.61603	24 Jul 2013
Foshan	CN	excellent	113.13148	23.02677	2012-11-01
Finnentrop	DE	good	7.973	51.168	03/20/2013, 00:00:00
Ajdabiya	LY	excellent	20.22625	30.75545	2019/11/24
Chiavari	IT	maintenance	9.32241	44.31771	13 Apr 2018
Chamba	IN	average	76.12647	32.55531	2019/01/11
Independence	US	average	-94.41551	39.09112	2015-10-13
Ushuaia	AR	building	-68.3	-54.8	2020/04/04
Zacoalco de Torres	MX	average	-103.5687	20.22816	2014/03/14
Carnaxide	PT	excellent	-9.24671	38.72706	17 Feb 2019
Vestavia Hills	US	average	-86.78777	33.44872	2014-06-12
Brierley Hill	GB	good	-2.12139	52.48173	2017-10-25
Ngemplak	ID	good	110.71639	-7.54972	27 Jul 2017
Rafiganj	IN	excellent	84.63445	24.81757	09/30/2018, 00:00:00
Chiguayante	CL	maintenance	-73.02841	-36.9256	2020/11/27
Westbury	GB	accep	-2.1875	51.26	2019/06/02
Wittenau	DE	accep	13.32127	52.59319	14 Mar 2015
Rafiganj	IN	accep	84.63445	24.81757	05/28/2020, 00:00:00
Pilar	PH	building	120.56528	14.66	05/20/2020, 00:00:00
Sremska Mitrovica	RS	excellent	19.61222	44.97639	19 Sep 2014
Tver	RU	average	35.90057	56.85836	2017/11/15
Voznesensk	UA	average	31.33078	47.56494	08/25/2013, 00:00:00
Sydney	CA	average	-60.1831	46.1351	2020/06/10
Lons-le-Saunier	FR	building	5.55575	46.67535	2015-02-07
Lutz	US	building	-82.46148	28.15112	2016/07/29
Poulton-le-Fylde	GB	building	-2.98333	53.83333	2016-09-25
Altamira	BR	good	-52.20639	-3.20333	12/09/2015, 00:00:00
Mitry-Mory	FR	excellent	2.61667	48.98333	08/21/2015, 00:00:00
Paoy Paet	KH	accep	102.56365	13.65805	11/22/2013, 00:00:00
Lodwar	KE	average	35.59642	3.11988	08/15/2022, 00:00:00
Ponta Delgada	PT	maintenance	-25.66689	37.74615	15 Sep 2020
Fontenay-aux-Roses	FR	average	2.29275	48.79325	02/28/2016, 00:00:00
Bang Ban	TH	maintenance	100.48528	14.37395	2015/07/13
Perugia	IT	good	12.38878	43.1122	12/14/2014, 00:00:00
Pottstown	US	excellent	-75.64963	40.24537	02/20/2015, 00:00:00
Eppingen	DE	excellent	8.91229	49.13645	09/07/2018, 00:00:00
Neuburg an der Donau	DE	accep	11.18709	48.73218	03/03/2013, 00:00:00
Kashipur	IN	average	78.95693	29.21399	2014-08-07
Kushtia	BD	average	89.11943	23.9028	2016/04/07
La Garenne-Colombes	FR	accep	2.2469	48.90472	2020-12-03
Zhuangyuan	CN	good	120.82747	37.30553	2015/03/01
Karben	DE	average	8.77155	50.23019	2013/03/22
Dumont	US	average	-73.99681	40.94065	05 May 2015
Most	CZ	average	13.63617	50.50301	2014-01-08
Jaruco	CU	good	-82.00919	23.04419	2019/07/27
Cowes	GB	good	-1.29772	50.76306	2015/11/15
Bisceglie	IT	excellent	16.50104	41.24264	15 Aug 2013
Claremont	US	excellent	-117.71978	34.09668	2016-10-07
Burscheid	DE	good	7.11393	51.08468	01/08/2020, 00:00:00
Esmeraldas	BR	accep	-44.31389	-19.7625	03/14/2013, 00:00:00
Ambatondrazaka	MG	excellent	48.41667	-17.83333	2020/03/03
Marau	BR	excellent	-52.2	-28.44917	2019-07-23
Jersey City	US	maintenance	-74.07764	40.72816	30 Jan 2019
Shreveport	US	average	-93.75018	32.52515	02/22/2020, 00:00:00
Stupino	RU	good	38.07083	54.90083	2019-12-22
Wacheng	CN	maintenance	114.51667	33.78333	2019-12-10
Gariadhar	IN	excellent	71.57737	21.53889	07/16/2015, 00:00:00
Houthalen	BE	excellent	5.37429	51.03427	07/09/2015, 00:00:00
Port Huron	US	good	-82.42491	42.97086	2020/07/13
Rudolstadt	DE	accep	11.34046	50.72043	20 Jul 2022
Ajdabiya	LY	accep	20.22625	30.75545	2016-12-06
Muncar	ID	excellent	114.33333	-8.43333	2014-01-19
Boli	CN	excellent	130.57211	45.75279	04 Dec 2013
New Yekepa	LR	excellent	-8.53778	7.57944	08/09/2017, 00:00:00
Otradnyy	RU	excellent	51.3452	53.37596	13 Jan 2021
San Jose	PH	building	121.06761	12.35275	2021/05/05
Camayenne	GN	average	-13.68778	9.535	2014-05-02
Kearns	US	good	-111.99633	40.65995	2018/11/02
Barnet	GB	average	-0.2	51.65	2021/08/04
Jashpurnagar	IN	maintenance	84.13864	22.88783	2016-10-21
Nyahururu	KE	good	36.36339	0.03813	2016/07/18
Bhayandar	IN	accep	72.85107	19.30157	2016-11-08
Madrid	CO	good	-74.26419	4.73245	2016/01/18
Maliana	TL	excellent	125.21972	-8.99167	08 Feb 2014
Albstadt	DE	accep	9.02596	48.21644	04 Jul 2014
Penzance	GB	excellent	-5.53715	50.11861	10/31/2020, 00:00:00
Boumerdas	DZ	excellent	3.47717	36.76639	12/12/2014, 00:00:00
Bergama	TR	average	27.18052	39.12074	2019/10/09
Dipolog	PH	accep	123.33471	8.56697	11/14/2020, 00:00:00
Saint-Denis	RE	good	55.4504	-20.88231	2020-07-13
Gainesville	US	accep	-82.32483	29.65163	2020/04/22
Franceville	GA	excellent	13.58357	-1.63333	2018-04-22
Morningside Heights	US	average	-73.9625	40.81	2018-11-10
Yingkou	CN	accep	122.22833	40.66482	2020/11/17
Taunton	US	maintenance	-71.08977	41.9001	2021-10-16
Wheelers Hill	AU	building	145.18333	-37.9	28 Feb 2013
Tarakan	ID	average	117.59152	3.31332	08/09/2018, 00:00:00
Massapequa	US	good	-73.47429	40.68066	23 Mar 2014
Efon-Alaaye	NG	good	4.92235	7.65649	2016-09-04
Svatove	UA	maintenance	38.15035	49.41029	09 Aug 2016
Binnish	SY	maintenance	36.7138	35.95664	10/17/2013, 00:00:00
Naga	PH	average	123.758	10.20898	2022/07/24
Carnot	CF	maintenance	15.87735	4.94273	04/13/2020, 00:00:00
Aleshtar	IR	average	48.26258	33.86419	2020-07-02
Mouscron	BE	average	3.20639	50.74497	01/03/2016, 00:00:00
Jinotepe	NI	accep	-86.19903	11.84962	04 Sep 2017
Rahat	IL	average	34.75699	31.39547	05/20/2014, 00:00:00
Milagro	EC	average	-79.59415	-2.13404	2015/03/19
Robertsonpet	IN	good	78.27539	12.95629	27 Aug 2019
Minokamo	JP	average	137.02166	35.48199	17 Jul 2013
Yangambi	CD	average	24.43973	0.76755	07/14/2022, 00:00:00
Aykhal	RU	maintenance	111.4834	65.93381	29 Aug 2013
Portogruaro	IT	excellent	12.84052	45.78071	2017-09-04
Floridsdorf	AT	accep	16.4	48.25	2016/08/14
Bourbonnais	US	average	-87.88754	41.15376	02 Feb 2018
Franceville	GA	maintenance	13.58357	-1.63333	2015-06-11
Santa Cruz de Barahona	DO	excellent	-71.10077	18.20854	30 Sep 2015
Cowes	GB	building	-1.29772	50.76306	2015/10/28
Exeter	GB	maintenance	-3.52751	50.7236	12/06/2021, 00:00:00
Phanat Nikhom	TH	maintenance	101.18445	13.44581	09/16/2021, 00:00:00
Tonota	BW	good	27.46153	-21.44236	07 Jul 2019
Mexborough	GB	excellent	-1.29243	53.49389	22 Aug 2020
Rueil-Malmaison	FR	average	2.18967	48.8765	01 Mar 2016
Iquitos	PE	good	-73.25383	-3.74912	2018-09-09
Bothell West	US	maintenance	-122.24064	47.80527	2015-04-07
Brunswick	US	good	-69.96533	43.91452	2019-05-06
Saraj	MK	building	21.32778	42	11/03/2019, 00:00:00
Dax	FR	average	-1.05366	43.71032	19 Dec 2020
Adliswil	CH	accep	8.52462	47.30997	2019/07/03
Novogrudok	BY	good	25.8191	53.5942	2019/04/20
Binnish	SY	excellent	36.7138	35.95664	2017-01-28
Wacheng	CN	building	114.51667	33.78333	05/04/2014, 00:00:00
Chillum	US	maintenance	-76.99081	38.96372	2012-12-21
Deoli	IN	average	75.37991	25.75728	2016/11/15
Gifhorn	DE	building	10.5511	52.47774	2019/08/04
Walton-on-the-Naze	GB	building	1.26738	51.84819	2020/03/03
Idenao	CM	excellent	9.00472	4.2475	07/12/2021, 00:00:00
South Lawndale	US	building	-87.71255	41.84364	2021-02-09
Barbil	IN	average	85.37752	22.10194	2017-01-24
Longview	US	accep	-94.74049	32.5007	2017-05-24
Talavera de la Reina	ES	maintenance	-4.83076	39.96348	2021-01-22
Farafenni	GM	average	-15.6	13.56667	2022-06-08
Roslavl‚Äô	RU	accep	32.86389	53.95278	19 Jul 2018
Bar-le-Duc	FR	excellent	5.16108	48.77275	07/15/2017, 00:00:00
El Copey	CO	excellent	-73.9614	10.15031	2019/01/13
Naushahra Virkan	PK	building	73.97117	31.96258	12/21/2020, 00:00:00
Redding	US	good	-122.39168	40.58654	2019-05-22
Amreli	IN	good	71.21169	21.59983	2017-06-11
Dorval	CA	average	-73.75335	45.4473	2014/05/28
Beni Douala	DZ	excellent	4.08282	36.61954	05 Jun 2013
Magong	TW	maintenance	119.58627	23.5654	2020/03/26
Jackson	US	average	-88.81395	35.61452	03 Nov 2017
Patnos	TR	accep	42.85693	39.22493	25 Mar 2013
Zaysan	KZ	excellent	84.87144	47.46657	2018/07/12
Krymsk	RU	excellent	37.99117	44.92934	04 Jan 2013
Muskogee	US	accep	-95.36969	35.74788	09/15/2020, 00:00:00
Alwaye	IN	building	76.35484	10.10649	08/16/2017, 00:00:00
Kulai	MY	building	103.6032	1.6561	2019/08/19
Lebanon	US	average	-84.20299	39.43534	2022/01/09
Minas de Marcona	PE	excellent	-75.11028	-15.21194	2015-10-20
Denderleeuw	BE	accep	4.07601	50.88506	08 Jan 2015
Myawadi	MM	accep	98.50893	16.68911	2014/02/09
Nowshahr	IR	average	51.49621	36.64852	2020/12/09
Robertsonpet	IN	average	78.27539	12.95629	03/19/2015, 00:00:00
Rutherglen	GB	good	-4.21376	55.82885	20 Aug 2021
Myawadi	MM	average	98.50893	16.68911	2021-09-24
Vienne	FR	building	4.86667	45.51667	24 Sep 2016
Albufeira	PT	maitennce	-8.2503	37.08819	16 Dec 2015
Jersey City	US	building	-74.07764	40.72816	2017-06-10
Montana	BG	average	23.225	43.4125	26 Jul 2013
Sicklerville	US	average	-74.96933	39.71734	2020-08-26
Keene	US	good	-72.27814	42.93369	07/15/2019, 00:00:00
Arzamas	RU	accep	43.83992	55.39485	22 Nov 2019
Sojat	IN	building	73.66633	25.92493	06/22/2017, 00:00:00
Kovylkino	RU	accep	43.91385	54.03876	29 Aug 2013
Arles	FR	good	4.63031	43.67681	10 Nov 2013
Frenda	DZ	excellent	1.04945	35.06544	2020-10-30
Stockbridge	US	accep	-84.23381	33.54428	09/26/2013, 00:00:00
Farafenni	GM	excellent	-15.6	13.56667	2013/07/03
Pedro II	BR	maintenance	-41.45861	-4.42472	12/01/2021, 00:00:00
Busia	KE	average	34.11169	0.46005	10/08/2018, 00:00:00
Zhoucun	CN	good	117.81667	36.81667	09 Jun 2016
Sarandi	BR	excellent	-51.87389	-23.44361	02 Oct 2013
Ada	US	average	-96.67834	34.77453	19 Sep 2020
Carnot	CF	maintenance	15.87735	4.94273	2021/07/24
Loanda	BR	good	-53.13722	-22.92306	05/05/2014, 00:00:00
Casa Blanca	MX	building	-98.11889	19.04222	09/04/2013, 00:00:00
Besuki	ID	average	113.69785	-7.73379	13 Sep 2020
Tupelo	US	good	-88.70464	34.25807	08/06/2013, 00:00:00
Xiangtan	CN	average	112.9	27.85	2017-09-02
Ozersk	RU	average	60.70278	55.75556	2020-09-06
Kamina	CD	accep	24.99798	-8.73508	2016/06/30
Okahandja	NA	accep	16.91667	-21.98333	07/11/2019, 00:00:00
Afragola	IT	good	14.30935	40.92298	12/31/2021, 00:00:00
Shinshiro	JP	excellent	137.5	34.9	2022/01/08
Le Robert	MQ	average	-60.94228	14.67751	08/06/2020, 00:00:00
Kashira	RU	good	38.16694	54.84444	06/03/2019, 00:00:00
Thap Than	TH	average	99.89166	15.46063	30 Jul 2021
Split	HR	excellent	16.43915	43.50891	02/16/2020, 00:00:00
Novogrudok	BY	good	25.8191	53.5942	10/08/2021, 00:00:00
Maasin	PH	building	124.84472	10.13361	12/04/2019, 00:00:00
Scottsdale	US	maintenance	-111.89903	33.50921	15 Mar 2022
Santa Maria	US	excellent	-120.43572	34.95303	18 Oct 2013
Solntsevo	RU	building	37.38115	55.63711	2019/01/13
Tinaquillo	VE	average	-68.30472	9.91861	2013-03-24
Bergama	TR	accep	27.18052	39.12074	07/23/2022, 00:00:00
Pandua	IN	average	88.28637	23.07492	2013/08/02
el Camp de l'Arpa del Clot	ES	average	2.18247	41.41204	2022/06/26
Mesagne	IT	maintenance	17.80774	40.55851	09/16/2013, 00:00:00
Thomazeau	HT	good	-72.09391	18.65297	2017/10/11
Pointe-Claire	CA	average	-73.81669	45.44868	10/23/2017, 00:00:00
Tarkwa	GH	excellent	-1.98956	5.30383	2014-05-08
Jaruco	CU	excellent	-82.00919	23.04419	25 Feb 2019
Brentwood Estates	US	good	-86.77917	36.02506	07/29/2022, 00:00:00
Oldenzaal	NL	accep	6.92917	52.31333	30 Aug 2020
Wheelers Hill	AU	maintenance	145.18333	-37.9	2014-11-25
Kaukauna	US	excellent	-88.27205	44.27804	2020/06/14
Stade	DE	maintenance	9.47629	53.59337	2017/05/22
Muritiba	BR	maintenance	-39.25	-12.91667	2022/02/20
Rosemount	US	maintenance	-93.12577	44.73941	05/29/2020, 00:00:00
Pleasant Prairie	US	accep	-87.93341	42.55308	12 Jun 2017
Gainsborough	GB	maintenance	-0.76667	53.38333	24 Nov 2015
Ina	JP	good	137.95378	35.82756	2019/04/10
Gua Musang	MY	accep	101.96857	4.88441	09/18/2020, 00:00:00
Wacheng	CN	average	114.51667	33.78333	27 Dec 2014
Otegen Batyra	KZ	accep	77.0202	43.41949	05/03/2020, 00:00:00
Gates-North Gates	US	accep	-77.70066	43.16547	2015/05/14
Reutlingen	DE	accep	9.20427	48.49144	29 Dec 2016
Marburg an der Lahn	DE	excellent	8.77069	50.80904	12/05/2016, 00:00:00
Thap Than	TH	building	99.89166	15.46063	10/19/2019, 00:00:00
Mirriah	NE	accep	9.15013	13.70727	2016-07-13
Kantharalak	TH	average	104.64992	14.64056	02 Aug 2022
Vught	NL	accep	5.2875	51.65333	2019/06/03
Gingee	IN	accep	79.41727	12.25282	2019/08/04
Sainte-Catherine	CA	excellent	-73.58248	45.40008	10 Jun 2022
Tianfu	CN	building	122.05228	37.19723	2018-12-28
Oschatz	DE	accep	13.10984	51.30001	03/20/2022, 00:00:00
Beaconsfield	CA	good	-73.86586	45.43341	2013-02-09
Greenpoint	US	excellent	-73.95097	40.72371	2021/10/12
Otegen Batyra	KZ	accep	77.0202	43.41949	20 Oct 2020
Pilkhua	IN	building	77.656	28.71271	2020/06/15
Tinaquillo	VE	good	-68.30472	9.91861	2018-03-23
Chharra	IN	maintenance	78.40102	27.9247	2021-02-12
Itabirito	BR	average	-43.80139	-20.25333	05/28/2013, 00:00:00
Itaperuna	BR	excellent	-41.88778	-21.205	02 Jul 2017
Argungu	NG	excellent	4.52514	12.74482	05 Jan 2013
Sar-e Pul	AF	good	65.93249	36.21544	23 Jun 2017
Rwamagana	RW	building	30.4347	-1.9487	2020/05/11
Oschatz	DE	good	13.10984	51.30001	27 Nov 2021
Pontevedra	AR	maintenance	-58.70072	-34.74785	2013-05-05
Pameungpeuk	ID	excellent	107.60389	-7.01833	2016-02-02
Ken Caryl	US	excellent	-105.11221	39.57582	2016-11-17
Sydney	CA	excellent	-60.1831	46.1351	2021-03-06
Peabody	US	average	-70.92866	42.52787	2018/09/25
Crystal Lake	US	average	-88.3162	42.24113	2017-06-28
Larkana	PK	maintenance	68.21204	27.55898	2013/11/12
Kolomyagi	RU	excellent	30.28491	60.02427	2018-12-19
Carlos Barbosa	BR	accep	-51.50361	-29.2975	07 May 2016
Gainsborough	GB	excellent	-0.76667	53.38333	2021-07-22
Gilbert	US	average	-111.78903	33.35283	2014-11-11
Luena	AO	excellent	19.91667	-11.78333	11/14/2017, 00:00:00
Kenda	IN	average	86.51499	23.1959	2014/03/23
Bar-le-Duc	FR	average	5.16108	48.77275	27 Feb 2016
Redding	US	good	-122.39168	40.58654	10/06/2021, 00:00:00
Arbroath	GB	building	-2.58736	56.56317	2016/09/09
Saraktash	RU	average	56.36091	51.78771	2019-09-07
Acaponeta	MX	excellent	-105.36369	22.49396	2018-01-28
Kantharalak	TH	building	104.64992	14.64056	2019/04/13
Annaka	JP	good	138.89585	36.33011	2013-12-06
Le Chesnay	FR	accep	2.12213	48.8222	2016-06-05
Buynaksk	RU	accep	47.1192	42.819	2020-02-02
Tupiza	BO	good	-65.71875	-21.44345	2013-08-18
Yanliang	CN	maintenance	109.22921	34.65918	2018-09-01
Winsford	GB	accep	-2.52398	53.19146	2017/08/25
Bryn Mawr-Skyway	US	excellent	-122.24092	47.4943	2013-02-01
Zaozhuang	CN	excellent	117.55417	34.86472	06/01/2016, 00:00:00
Tudela	ES	good	-1.60452	42.06166	2015/09/04
Izluchinsk	RU	maintenance	76.92421	60.97944	01/16/2016, 00:00:00
Mount Hagen	PG	average	144.23058	-5.85746	31 Aug 2014
Davangere	IN	average	75.92694	14.46693	2019-12-03
Honda	CO	excellent	-74.73584	5.20856	2016-01-01
Bad Segeberg	DE	accep	10.30215	53.94313	05/10/2020, 00:00:00
Montecchio Maggiore-Alte Ceccato	IT	maintenance	11.412	45.50369	2015/02/05
Yingkou	CN	good	122.22833	40.66482	2014/08/12
Toyokawa	JP	excellent	137.4	34.81667	2015-02-05
Reda	PL	accep	18.34717	54.60528	2020-04-17
Ueno-ebisumachi	JP	average	136.13108	34.75856	2015-04-25
Bibiani	GH	accep	-2.31938	6.46346	2013/05/25
Mongo	TD	average	18.69303	12.18441	12/04/2012, 00:00:00
Ozersk	RU	maintenance	60.70278	55.75556	2014/02/21
Lagarto	BR	average	-37.65	-10.91722	2015/12/24
Hutto	US	good	-97.54667	30.5427	06/11/2015, 00:00:00
Leland	US	good	-78.04471	34.25628	01 Feb 2017
Villaquilambre	ES	average	-5.55835	42.64685	2020-11-28
Dharmapuri	IN	excellent	78.15794	12.1277	09 Apr 2018
El Achir	DZ	excellent	4.62744	36.06386	05/30/2014, 00:00:00
Fontenay-aux-Roses	FR	excellent	2.29275	48.79325	29 Dec 2021
Guaraciaba do Norte	BR	average	-40.7475	-4.16694	09/29/2021, 00:00:00
Radevormwald	DE	building	7.36027	51.20219	2020-06-26
Taunton	US	good	-71.08977	41.9001	14 Sep 2016
Chichicastenango	GT	maintenance	-91.11667	14.93333	29 Jun 2019
Wheelers Hill	AU	average	145.18333	-37.9	17 Feb 2018
Marly-le-Roi	FR	average	2.08333	48.86667	2021-04-27
Palmeira	BR	average	-50.00639	-25.42944	11 Jun 2013
Belle Glade	US	good	-80.66756	26.68451	18 Sep 2016
Gilbert	US	average	-111.78903	33.35283	2015-07-14
Miracema	BR	good	-42.19667	-21.41222	2020-10-30
Gudermes	RU	good	46.10925	43.35071	21 Apr 2020
Baulkham Hills	AU	maintenance	150.99292	-33.75881	19 Aug 2013
Nayoro	JP	accep	142.45778	44.35056	2015/04/29
Pune	IN	building	73.85535	18.51957	2015/07/20
Nidderau	DE	good	8.86704	50.23805	12/06/2021, 00:00:00
Biu	NG	maintenance	12.19458	10.61285	2014/12/09
Busia	KE	accep	34.11169	0.46005	2019/09/18
Leteri	IN	excellent	77.40858	24.05979	12/11/2012, 00:00:00
Voznesensk	UA	maintenance	31.33078	47.56494	09/30/2019, 00:00:00
Siegburg	DE	accep	7.20769	50.80019	08/29/2016, 00:00:00
Tharu Shah	PK	accep	68.11759	26.9423	20 Mar 2016
Kulai	MY	average	103.6032	1.6561	2017/12/09
Kirchlengern	DE	acceptable	8.63333	52.2	27 Dec 2018
Mesagne	IT	excellent	17.80774	40.55851	06/07/2019, 00:00:00
Verl	DE	maintenance	8.51667	51.88333	2019/03/14
Skalica	SK	excellent	17.22635	48.8449	2021-04-09
Kirchlengern	DE	excellent	8.63333	52.2	08/03/2016, 00:00:00
Oulmes	MA	acceptable	-6.00137	33.42585	02/07/2020, 00:00:00
Mesagne	IT	accep	17.80774	40.55851	2016-09-25
Juhaynah	EG	good	31.4976	26.67319	08/04/2022, 00:00:00
Yeysk	RU	maintenance	38.2739	46.7055	11 Sep 2019
Tharu Shah	PK	average	68.11759	26.9423	01/16/2020, 00:00:00
Nonsan	KR	accep	127.08472	36.20389	2019-10-01
Santa Gertrudes	BR	accep	-47.53028	-22.45667	2020/04/10
Okegawa	JP	good	139.55722	36	12 Jun 2013
Kovylkino	RU	building	43.91385	54.03876	2022/07/27
Timaru	NZ	acceptable	171.25364	-44.39672	12 Jan 2018
Guaraciaba do Norte	BR	good	-40.7475	-4.16694	2022-02-19
Ishim	RU	maintenance	69.49015	56.11281	2016/02/22
Port of Spain	TT	accep	-61.51889	10.66668	30 May 2022
San Lorenzo Acopilco	MX	accep	-99.32556	19.32889	10/15/2020, 00:00:00
Gero	JP	maintenance	137.23333	35.8	2017/02/09
Ada	US	maintenance	-96.67834	34.77453	09/28/2021, 00:00:00
Catania	IT	average	15.07041	37.49223	15 Apr 2014
Mikhaylovka	RU	excellent	43.2379	50.06	2018/09/20
Yablonovskiy	RU	excellent	38.94324	44.98901	02/19/2018, 00:00:00
Tortona	IT	maintenance	8.86374	44.89784	2021-10-04
Yakuplu	TR	excellent	28.67582	40.98894	2018/07/16
Brzeg	PL	excellent	17.4674	50.86079	25 Jun 2019
Sterling	US	maintenance	-77.4286	39.00622	2022/02/14
Jerada	MA	building	-2.16	34.31	2015-05-24
Barneveld	NL	good	5.58472	52.14	11/30/2021, 00:00:00
Guanajuato	MX	maintenance	-101.2591	21.01858	12 Dec 2018
Iron River	US	average	-88.64235	46.09273	31 Jul 2014
Guanajuato	MX	accep	-101.2591	21.01858	20 Sep 2018
Talisay	PH	average	122.9666	10.7375	2019/06/24
Ajdabiya	LY	building	20.22625	30.75545	06/12/2017, 00:00:00
Encinitas	US	average	-117.29198	33.03699	2013/09/02
Reutlingen	DE	maintenance	9.20427	48.49144	2016-02-12
Ragusa	IT	good	14.72443	36.92574	2018/10/01
Kireyevsk	RU	accep	37.92792	53.93361	2015-09-24
Cavaillon	FR	average	5.03586	43.83125	2022/02/01
Foshan	CN	good	113.13148	23.02677	2020-05-05
Campobasso	IT	acceptable	14.66737	41.55947	2017/06/18
Keizer	US	excellent	-123.02621	44.99012	2017/11/27
Split	HR	building	16.43915	43.50891	01/18/2018, 00:00:00
Hendala	LK	good	79.883	6.9909	2012/11/14
Ozersk	RU	maintenance	60.70278	55.75556	2019/05/01
Stupino	RU	accep	38.07083	54.90083	03/02/2020, 00:00:00
Harstad	NO	good	16.54165	68.79833	23 Nov 2019
Varadero	CU	excellent	-81.24441	23.15678	26 Nov 2012
Mokopane	ZA	building	29.00974	-24.19436	2018-07-24
Bibiani	GH	excellent	-2.31938	6.46346	27 Feb 2013
Huntley	US	average	-88.42814	42.16808	14 Nov 2021
Sambalpur	IN	accep	83.97573	21.46527	04/13/2015, 00:00:00
Jersey City	US	good	-74.07764	40.72816	2015-07-23
Greenpoint	US	excellent	-73.95097	40.72371	03 Jun 2020
Bhit Shah	PK	excellent	68.49143	25.80565	12/24/2015, 00:00:00
Muritiba	BR	maintenance	-39.25	-12.91667	2013-09-07
Tver	RU	accep	35.90057	56.85836	07 Oct 2019
Tupiza	BO	excellent	-65.71875	-21.44345	12/27/2020, 00:00:00
Paracho de Verduzco	MX	building	-102.04897	19.64745	14 Jun 2016
Silvan	TR	building	41.00817	38.13708	14 Mar 2017
Malakhovka	RU	building	38.02486	55.64776	2013/01/13
Strood	GB	accep	0.47713	51.39323	2014-10-31
Tonota	BW	good	27.46153	-21.44236	12/07/2020, 00:00:00
Gauting	DE	maintenance	11.37703	48.06919	2021/04/19
Guli	CN	building	120.03308	28.88162	11/26/2016, 00:00:00
Mianwali	PK	good	71.52847	32.57756	2016-09-26
Saharsa	IN	building	86.59611	25.87498	2013/08/12
Resplendor	BR	accep	-41.25528	-19.32556	2019/10/09
Gaziantep	TR	accep	37.3825	37.05944	2013/10/11
Nutley	US	accep	-74.15987	40.82232	11/03/2016, 00:00:00
Jashpurnagar	IN	building	84.13864	22.88783	2015/09/29
Fontenay-aux-Roses	FR	excellent	2.29275	48.79325	28 Dec 2019
Likhobory	RU	good	37.56667	55.85	02 May 2018
Sceaux	FR	good	2.29026	48.77644	2014/09/05
Middletown	US	good	-71.29144	41.54566	12 Oct 2021
Fort Washington	US	average	-77.02303	38.70734	2021/02/27
Zhuangyuan	CN	average	120.82747	37.30553	2020-12-16
Southsea	GB	maintenance	-1.08593	50.79205	2016/06/03
Fujioka	JP	maintenance	139.07204	36.24624	14 May 2019
Granger	US	maintenance	-86.11084	41.75338	11/29/2012, 00:00:00
American Canyon	US	good	-122.2608	38.17492	2021-11-21
Westchester	US	maintenance	-87.882	41.85059	2014/11/08
Gifhorn	DE	good	10.5511	52.47774	2016/07/04
San Gabriel	US	maintenance	-118.10583	34.09611	2021/09/17
Shimotoda	JP	good	139.6853	35.815	2021/09/24
Barneveld	NL	maintenance	5.58472	52.14	07 Oct 2014
Canton	US	good	-83.48216	42.30865	2020-06-25
Voznesensk	UA	accep	31.33078	47.56494	2013-04-13
Davangere	IN	excellent	75.92694	14.46693	26 Jun 2017
Gronau	DE	building	7.02238	52.21099	15 Mar 2020
Tucano	BR	accep	-38.79084	-10.95817	2022-02-23
Rudolstadt	DE	accep	11.34046	50.72043	2013-10-05
Larkana	PK	good	68.21204	27.55898	09/06/2017, 00:00:00
Rwamagana	RW	building	30.4347	-1.9487	04 Jan 2022
Dharmapuri	IN	good	78.15794	12.1277	28 Nov 2015
Durazno	UY	excellent	-56.52361	-33.38056	2022/02/28
Reda	PL	average	18.34717	54.60528	2019/02/21
Baki	SO	good	43.38531	9.89206	03/19/2015, 00:00:00
Soledade	BR	average	-52.51028	-28.81833	23 Sep 2017
Fontenay-aux-Roses	FR	average	2.29275	48.79325	2020/11/01
San Carlos	CO	excellent	-75.69947	8.79577	05/18/2021, 00:00:00
Santa Maria	US	good	-120.43572	34.95303	10/16/2012, 00:00:00
Wesseling	DE	average	6.9747	50.82709	12/04/2019, 00:00:00
Bavly	RU	accep	53.26023	54.39304	2022/02/24
Majene	ID	average	118.9707	-3.5403	05/11/2015, 00:00:00
Ilopango	SV	accep	-89.10944	13.70167	2014-06-05
Bushey	GB	average	-0.36053	51.64316	01 May 2022
Castelfranco Emilia	IT	excellent	11.04979	44.59445	2021-12-11
Poulton-le-Fylde	GB	good	-2.98333	53.83333	04/05/2022, 00:00:00
Volokolamsk	RU	excellent	35.96944	56.03361	2021/02/27
Cheraga	DZ	excellent	2.95924	36.76775	10/25/2013, 00:00:00
Guaraciaba do Norte	BR	excellent	-40.7475	-4.16694	2013/10/06
San Gabriel	US	maintenance	-118.10583	34.09611	20 Jul 2020
Smolyan	BG	good	24.71204	41.57439	12 Oct 2019
Gero	JP	excellent	137.23333	35.8	2018/10/12
Antipolo	PH	maintenance	121.12251	14.62578	10/05/2013, 00:00:00
Poulton-le-Fylde	GB	accep	-2.98333	53.83333	2014/01/15
Norwalk	US	acceptable	-82.61573	41.24255	06 Jun 2022
Roslavl‚Äô	RU	excellent	32.86389	53.95278	2020-04-11
Thenia	DZ	excellent	3.55665	36.72544	03 Sep 2015
Aschaffenburg	DE	good	9.15214	49.97704	2020/05/01
Ishim	RU	accep	69.49015	56.11281	2015-12-11
Sishui	CN	excellent	117.27583	35.64889	03/25/2020, 00:00:00
Tucano	BR	excellent	-38.79084	-10.95817	2014-06-07
Sirsi	IN	average	74.83554	14.62072	2022/04/18
Naushahra Virkan	PK	good	73.97117	31.96258	11/16/2018, 00:00:00
Franceville	GA	good	13.58357	-1.63333	2018/04/11
Toba	JP	maintenance	136.84186	34.4833	2022-03-28
Ciudad Guayana	VE	good	-62.64102	8.35122	20 Feb 2021
Alwaye	IN	building	76.35484	10.10649	2014-07-07
Severodvinsk	RU	good	39.8302	64.5635	11/01/2018, 00:00:00
Hrazdan	AM	average	44.7662	40.49748	04/27/2019, 00:00:00
Talavera de la Reina	ES	accep	-4.83076	39.96348	22 Mar 2014
Rhosllanerchrugog	GB	accep	-3.05814	53.00974	01/22/2013, 00:00:00
Gainsborough	GB	excellent	-0.76667	53.38333	2018-03-01
Sainte-Catherine	CA	good	-73.58248	45.40008	2018/12/28
Yingkou	CN	average	122.22833	40.66482	12 Jul 2013
Darreh Shahr	IR	accep	47.3799	33.14447	04 Jul 2017
Iquitos	PE	good	-73.25383	-3.74912	09 Oct 2020
Scottsdale	US	maintenance	-111.89903	33.50921	2020/09/14
Phanat Nikhom	TH	average	101.18445	13.44581	2019-04-16
Sharypovo	RU	acceptable	89.20083	55.54028	02/26/2015, 00:00:00
Tyoply Stan	RU	accep	37.49338	55.62047	2021/10/12
Cowes	GB	accep	-1.29772	50.76306	22 Jun 2018
Miracema	BR	excellent	-42.19667	-21.41222	05/14/2017, 00:00:00
Batu Feringgi	MY	maintenance	100.24529	5.4709	2018-06-25
Sonzacate	SV	building	-89.71472	13.73417	2021/12/09
Le Robert	MQ	excellent	-60.94228	14.67751	2022/06/09
Vienne	FR	excellent	4.86667	45.51667	2019-04-06
Petrozavodsk	RU	accep	34.34691	61.78491	10/30/2012, 00:00:00
Villabate	IT	accep	13.44275	38.07789	2022/04/18
Nanpiao	CN	good	120.74792	41.09822	2019-09-24
Sunnyside	US	accep	-120.00865	46.32374	19 Apr 2017
Rosedale	US	good	-76.51552	39.32011	2019/11/26
Southsea	GB	average	-1.08593	50.79205	2017/08/21
Acworth	US	excellent	-84.67837	34.06635	2013/09/13
Progreso	MX	average	-89.66123	21.28306	2014-01-15
Kuvandyk	RU	good	57.3552	51.4781	22 Nov 2014
Jalal-Abad	KG	maintenance	73	40.93333	2016-11-12
Shahre Jadide Andisheh	IR	building	51.0193	35.6803	2019-11-19
Novelda	ES	building	-0.76773	38.38479	2013-05-19
Binnish	SY	excellent	36.7138	35.95664	2015-04-22
Gauting	DE	excellent	11.37703	48.06919	09/11/2014, 00:00:00
Harstad	NO	excellent	16.54165	68.79833	2021/10/06
Tucano	BR	building	-38.79084	-10.95817	03/14/2014, 00:00:00
Pujali	IN	excellent	88.1453	22.4711	07 Nov 2016
Meizhou	CN	good	116.11768	24.28859	2022/07/22
Barneveld	NL	accep	5.58472	52.14	2013/06/08
Yingkou	CN	excellent	122.22833	40.66482	05/18/2020, 00:00:00
High Wycombe	GB	average	-0.74934	51.62907	2021-05-12
Brighton Beach	US	average	-73.95958	40.57788	07/28/2022, 00:00:00
Albufeira	PT	building	-8.2503	37.08819	2020/06/20
Udumalaippettai	IN	excellent	77.24779	10.58806	05/07/2018, 00:00:00
Yanliang	CN	good	109.22921	34.65918	12 Apr 2017
Paredes	PT	maintenance	-8.33147	41.20485	2014-03-04
West Des Moines	US	average	-93.71133	41.57721	04/09/2021, 00:00:00
Minas de Marcona	PE	average	-75.11028	-15.21194	2021/09/24
Tonga	CM	excellent	10.7	4.96667	2013-03-10
La Trinidad	PH	good	120.5875	16.455	05 Dec 2014
Punta Gorda Isles	US	average	-82.07842	26.91756	04/18/2022, 00:00:00
Gifhorn	DE	good	10.5511	52.47774	2015-05-02
Lal Bahadur Nagar	IN	maintenance	78.55757	17.34769	07/27/2015, 00:00:00
el Camp de l'Arpa del Clot	ES	accep	2.18247	41.41204	17 Mar 2022
Esperanza	AR	good	-60.93173	-31.4488	2017-04-19
Keizer	US	average	-123.02621	44.99012	07/29/2020, 00:00:00
Brentwood Estates	US	building	-86.77917	36.02506	16 Dec 2018
Kovylkino	RU	excellent	43.91385	54.03876	2015-10-27
Laguna Niguel	US	excellent	-117.70755	33.52253	08/01/2020, 00:00:00
Lesozavodsk	RU	good	133.42825	45.47885	02/10/2016, 00:00:00
Puerto Colombia	CO	accep	-74.95472	10.98778	10/14/2013, 00:00:00
Iquitos	PE	accep	-73.25383	-3.74912	2021/03/04
Wacheng	CN	excellent	114.51667	33.78333	2020/05/30
East Jerusalem	PS	excellent	35.23388	31.78336	2015-03-17
Thomasville	US	building	-80.08199	35.88264	11 Jul 2016
Toyokawa	JP	average	137.4	34.81667	23 Oct 2020
Danjiangkou	CN	accep	111.50861	32.54278	12/21/2012, 00:00:00
Randudongkal	ID	excellent	109.3243	-7.0981	03/04/2020, 00:00:00
Skalica	SK	excellent	17.22635	48.8449	08 Apr 2016
Karlovy Vary	CZ	accep	12.87117	50.23271	2022/02/20
Sillanwali	PK	average	72.54064	31.82539	2020-04-02
Bushey	GB	excellent	-0.36053	51.64316	01/05/2018, 00:00:00
Nampa	US	accep	-116.56346	43.54072	2017-06-04
Sharypovo	RU	building	89.20083	55.54028	08/21/2015, 00:00:00
Bothell West	US	average	-122.24064	47.80527	01/18/2020, 00:00:00
Skalica	SK	building	17.22635	48.8449	05/04/2019, 00:00:00
La Garenne-Colombes	FR	average	2.2469	48.90472	28 Oct 2013
Pontevedra	AR	average	-58.70072	-34.74785	2021-10-26
Bavly	RU	average	53.26023	54.39304	12/24/2017, 00:00:00
Idenao	CM	accep	9.00472	4.2475	2020-10-01
Rwamagana	RW	good	30.4347	-1.9487	2022/06/26
San Carlos	CO	excellent	-75.69947	8.79577	25 Apr 2020
Ataq	YE	good	46.83187	14.53767	2013/04/09
Mudanya	TR	average	28.88222	40.37528	2017/10/30
Jumilla	ES	maintenance	-1.325	38.47917	07/16/2022, 00:00:00
Oberhausen	DE	excellent	6.8625	51.47805	08/10/2020, 00:00:00
Zacoalco de Torres	MX	excellent	-103.5687	20.22816	09/05/2019, 00:00:00
Naga	PH	good	123.758	10.20898	05 Sep 2016
Idenao	CM	average	9.00472	4.2475	2013/03/31
Copperas Cove	US	building	-97.90308	31.12406	2016/08/08
Camarillo	US	building	-119.0376	34.21639	2014-02-18
Tavda	RU	accep	65.27258	58.04254	03/12/2016, 00:00:00
Yao	JP	accep	135.6	34.61667	2020/03/29
Madrid	CO	building	-74.26419	4.73245	2013/05/05
Malakhovka	RU	excellent	38.02486	55.64776	12/21/2013, 00:00:00
Naushahra Virkan	PK	accep	73.97117	31.96258	2017-03-16
Voznesensk	UA	good	31.33078	47.56494	2022/08/02
Arzamas	RU	accep	43.83992	55.39485	2016-09-06
Strood	GB	building	0.47713	51.39323	2015-03-30
Polohy	UA	excellent	36.25361	47.48444	2022-07-12
Woodbridge	US	maintenance	-74.28459	40.5576	2020/07/24
Muritiba	BR	good	-39.25	-12.91667	08/30/2021, 00:00:00
Madhipura	IN	maintenance	86.79271	25.92127	2014-07-10
Greenpoint	US	good	-73.95097	40.72371	08/29/2016, 00:00:00
Mira Mesa	US	excellent	-117.14392	32.9156	2018-01-13
Brunswick	US	accep	-69.96533	43.91452	2018/02/17
Granger	US	good	-86.11084	41.75338	2013/01/23
Olupona	NG	good	4.18333	7.6	01/23/2020, 00:00:00
Abilene	US	accep	-99.73314	32.44874	2015/07/25
El Copey	CO	excellent	-73.9614	10.15031	2021-07-11
Teziutlan	MX	average	-97.35992	19.8173	2021/12/17
Penzance	GB	maintenance	-5.53715	50.11861	2017/07/25
Leioa	ES	excellent	-2.98884	43.32686	21 Sep 2018
Scottsdale	US	average	-111.89903	33.50921	2019/12/10
Bothell	US	accep	-122.2054	47.76232	2015/12/04
Belper	GB	good	-1.48119	53.0233	10/22/2020, 00:00:00
Santa Maria	US	excellent	-120.43572	34.95303	06/16/2016, 00:00:00
Carlos Barbosa	BR	good	-51.50361	-29.2975	28 Aug 2021
Copperas Cove	US	good	-97.90308	31.12406	2013-12-12
Jashpurnagar	IN	excellent	84.13864	22.88783	02/26/2015, 00:00:00
Hushitai	CN	accep	123.50266	41.94175	2015-03-19
Heyuan	CN	excellent	114.68333	23.73333	2017-08-17
Sirsi	IN	excellent	74.83554	14.62072	2021/11/03
Darreh Shahr	IR	average	47.3799	33.14447	2021-05-09
Balikpapan	ID	maintenance	116.82887	-1.26753	2013-04-10
Bretten	DE	good	8.70745	49.03685	2016-10-29
Beni	CD	excellent	29.47306	0.49113	12/27/2014, 00:00:00
Harrisburg	US	accep	-76.88442	40.2737	2017-11-18
Bogovinje	MK	maintenance	20.91361	41.92361	11 Jan 2014
Karben	DE	accep	8.77155	50.23019	05/27/2022, 00:00:00
Tadmur	SY	average	38.28402	34.5624	15 Oct 2012
Bhayandar	IN	accep	72.85107	19.30157	2018-07-09
Palafrugell	ES	good	3.1631	41.91738	01/15/2022, 00:00:00
Nanpiao	CN	good	120.74792	41.09822	2021/05/25
Rutherglen	GB	average	-4.21376	55.82885	2016/12/18
Mesagne	IT	average	17.80774	40.55851	21 Oct 2017
Beaumont	US	maintenance	-116.97725	33.92946	2017-12-26
Rhosllanerchrugog	GB	average	-3.05814	53.00974	2015/11/08
Bryn Mawr-Skyway	US	accep	-122.24092	47.4943	01/31/2016, 00:00:00
Teghra	IN	average	85.94001	25.49043	05/21/2022, 00:00:00
Santa Gertrudes	BR	excellent	-47.53028	-22.45667	27 Jun 2014
Elbeuf	FR	excellent	1.00288	49.28669	02/21/2019, 00:00:00
Greenville	US	good	-91.06177	33.41012	06/21/2019, 00:00:00
Silvan	TR	maintenance	41.00817	38.13708	2015-07-13
Losser	NL	good	7.00417	52.26083	2019-08-15
Segundo Ensanche	ES	accep	-1.64295	42.8139	20 Sep 2019
Elamanchili	IN	excellent	82.85749	17.54907	05/19/2015, 00:00:00
Ovalle	CL	average	-71.19901	-30.60106	06/20/2022, 00:00:00
Soroca	MD	excellent	28.28489	48.15659	24 Jun 2021
San Juan	US	accep	-98.15529	26.18924	08/09/2020, 00:00:00
Porto Velho	BR	maintenance	-63.90389	-8.76194	2022/03/23
Segundo Ensanche	ES	excellent	-1.64295	42.8139	2021-09-06
Cuenca	EC	maintenance	-79.00453	-2.90055	18 Aug 2016
Cowes	GB	average	-1.29772	50.76306	04 Jan 2017
Kamina	CD	maintenance	24.99798	-8.73508	10 Apr 2015
Jashpurnagar	IN	building	84.13864	22.88783	2012-12-12
Lexington	US	maintenance	-81.23621	33.98154	09/04/2016, 00:00:00
Surbiton	GB	building	-0.29825	51.39148	12/22/2019, 00:00:00
Ganei Tikva	IL	good	34.8732	32.05971	2022-08-26
Schwalmtal	DE	good	6.26667	51.21667	2014/01/30
Friedberg	DE	good	10.98461	48.35693	2016-08-24
Oulmes	MA	excellent	-6.00137	33.42585	2019/10/21
Oberhausen	DE	accep	6.8625	51.47805	2017-03-14
Marau	BR	accep	-52.2	-28.44917	2014/11/09
Castelfranco Emilia	IT	excellent	11.04979	44.59445	2016/03/04
Mount Hagen	PG	good	144.23058	-5.85746	2013-04-28
Recife	BR	good	-34.88111	-8.05389	23 Nov 2015
Sicklerville	US	accep	-74.96933	39.71734	11/18/2020, 00:00:00
Boo	SE	accep	18.28333	59.33333	27 Oct 2013
Davis	US	good	-121.74052	38.54491	11/05/2012, 00:00:00
Hlohovec	SK	average	17.8031	48.43174	12 Apr 2014
Qadirpur Ran	PK	good	71.67164	30.29184	07/11/2016, 00:00:00
Annaka	JP	good	138.89585	36.33011	2018-07-03
Frederiksberg	DK	accep	12.53463	55.67938	2013-07-26
Bothell West	US	accep	-122.24064	47.80527	10/31/2012, 00:00:00
Encinitas	US	good	-117.29198	33.03699	02/18/2020, 00:00:00
Barmbek-Nord	DE	good	10.03988	53.6052	2021/09/12
Nakhon Pathom	TH	excellent	100.04427	13.8196	08/01/2021, 00:00:00
Wesseling	DE	maintenance	6.9747	50.82709	07 Oct 2015
Petrozavodsk	RU	maintenance	34.34691	61.78491	09/12/2020, 00:00:00
Sherwood Park	CA	accep	-113.3187	53.51684	2013-06-18
Paoy Paet	KH	excellent	102.56365	13.65805	26 Jan 2020
Daud Khel	PK	good	71.57118	32.87533	2022/04/30
Labuhan Deli	ID	excellent	98.6738	3.7278	2014/08/08
Esmeraldas	BR	good	-44.31389	-19.7625	2020/02/08
Hueytown	US	accep	-86.99666	33.45122	09/06/2020, 00:00:00
Bretten	DE	good	8.70745	49.03685	05/28/2021, 00:00:00
Karlovy Vary	CZ	good	12.87117	50.23271	09/28/2018, 00:00:00
Stupino	RU	good	38.07083	54.90083	05/29/2019, 00:00:00
Naushahra Virkan	PK	average	73.97117	31.96258	05 Jul 2022
Artsyz	UA	good	29.41824	45.99194	2013/02/09
Falconara Marittima	IT	maintenance	13.39954	43.62558	20 Jan 2022
Villabate	IT	maintenance	13.44275	38.07789	2017-01-30
Deoli	IN	accep	75.37991	25.75728	07/09/2016, 00:00:00
Jerada	MA	excellent	-2.16	34.31	28 Jul 2022
Timaru	NZ	excellent	171.25364	-44.39672	2014-06-16
Nonsan	KR	accep	127.08472	36.20389	2013/12/02
Karbala	IQ	excellent	44.02488	32.61603	2018-12-23
Opportunity	US	acceptable	-117.23991	47.64995	2017-10-24
Hengshui	CN	maintenance	115.70111	37.73222	2018-04-15
Harstad	NO	excellent	16.54165	68.79833	2019/10/18
Wheelers Hill	AU	building	145.18333	-37.9	2021/02/06
Utica	US	excellent	-75.23266	43.1009	2016-03-11
Aguadilla	PR	accep	-67.15407	18.42745	2018-12-12
Gorgonzola	IT	acceptable	9.40531	45.53069	08/04/2016, 00:00:00
Peabody	US	average	-70.92866	42.52787	2013/03/11
Ina	JP	maintenance	137.95378	35.82756	2015/01/10
Ar Ruseris	SD	accep	34.3869	11.8659	2018/02/23
Narva	EE	accep	28.19028	59.37722	2016-10-08
Losheim	DE	accep	6.74549	49.5099	2015-09-07
Parola	IN	excellent	75.11937	20.88098	2017/07/05
Quimper	FR	accep	-4.1	48	12/11/2017, 00:00:00
Argungu	NG	accep	4.52514	12.74482	09/26/2019, 00:00:00
Antanifotsy	MG	accep	47.31667	-19.65	06/15/2016, 00:00:00
Baulkham Hills	AU	building	150.99292	-33.75881	2015-07-18
Dongfeng	CN	good	125.51176	42.64031	08 Jan 2017
Ambatondrazaka	MG	average	48.41667	-17.83333	05/22/2015, 00:00:00
Longgang	CN	building	120.33063	37.65181	2021/10/01
Gariadhar	IN	excellent	71.57737	21.53889	03 Mar 2014
Zhuangyuan	CN	good	120.82747	37.30553	2017-05-07
Kashipur	IN	excellent	78.95693	29.21399	28 Mar 2017
Dongdu	CN	good	117.7	35.85	2018/04/23
Palm Desert	US	good	-116.37697	33.72255	2021-04-06
Maspalomas	ES	accep	-15.58602	27.76056	2013/04/27
Landshut	DE	excellent	12.16179	48.52961	15 Nov 2019
Crystal Lake	US	maintenance	-88.3162	42.24113	2019/06/30
Teluk Intan	MY	accep	101.02083	4.02219	09/06/2015, 00:00:00
Srinagar	IN	good	74.80555	34.08565	02/23/2016, 00:00:00
Baulkham Hills	AU	accep	150.99292	-33.75881	2014-02-07
Rangia	IN	good	91.61356	26.44931	13 Feb 2021
Barras	BR	accep	-42.29444	-4.24444	2021-07-03
New City	US	good	-87.65644	41.80753	2015-01-14
El Alia	TN	excellent	10.03478	37.16911	2014/12/15
Likhobory	RU	average	37.56667	55.85	2019/09/12
Lanciano	IT	average	14.39024	42.22718	2015-05-20
Barmbek-Nord	DE	excellent	10.03988	53.6052	16 May 2013
Carnot	CF	excellent	15.87735	4.94273	2013-07-24
Canavieiras	BR	average	-38.94722	-15.675	03/13/2022, 00:00:00
Gaziantep	TR	accep	37.3825	37.05944	12/09/2013, 00:00:00
San Carlos	CO	accep	-75.69947	8.79577	25 Dec 2012
Boli	CN	average	130.57211	45.75279	28 Mar 2018
Shimotoda	JP	accep	139.6853	35.815	2018-09-22
Media Luna	CU	maintenance	-77.43532	20.14298	2020-09-11
Port-Vila	VU	building	168.31366	-17.73648	2016/01/23
Isfahan	IR	average	51.67462	32.65246	06 May 2020
Talavera de la Reina	ES	maintenance	-4.83076	39.96348	2018-09-09
San Giuliano Milanese	IT	excellent	9.29109	45.39402	2017/12/03
Hoogezand	NL	average	6.76111	53.16167	04 Nov 2014
Bhuban	IN	accep	85.83334	20.88197	2022-06-26
Salima	MW	average	34.4587	-13.7804	03/28/2021, 00:00:00
Salima	MW	average	34.4587	-13.7804	2015/11/15
Keizer	US	average	-123.02621	44.99012	08 Mar 2014
Greenfield	US	maintenance	-85.76942	39.78504	23 Feb 2022
Negotin	RS	average	22.53083	44.22639	2015-05-29
Nampa	US	building	-116.56346	43.54072	09/11/2016, 00:00:00
Veracruz	PA	excellent	-79.62603	8.88988	2019/05/08
Kirchlengern	DE	excellent	8.63333	52.2	2015/07/17
Freetown	SL	average	-13.2356	8.48714	2013/07/20
Salvatierra	MX	excellent	-100.88023	20.21322	2013/04/16
San Jose	PH	average	121.06761	12.35275	2021/03/07
Colomiers	FR	good	1.33467	43.61058	06/28/2014, 00:00:00
Longgang	CN	maitennce	120.33063	37.65181	12 Nov 2014
Antanifotsy	MG	good	47.31667	-19.65	2013/11/20
Aurora	US	excellent	-104.83192	39.72943	2014-12-31
Bhayandar	IN	accep	72.85107	19.30157	10/17/2021, 00:00:00
Boyeros	CU	excellent	-82.4017	23.0072	2020/09/05
Jashpurnagar	IN	average	84.13864	22.88783	2021/09/29
Collinwood	US	accep	-81.56929	41.55838	03/21/2018, 00:00:00
Ambatondrazaka	MG	average	48.41667	-17.83333	10/21/2012, 00:00:00
Norco	US	accep	-117.54866	33.93113	2013/08/09
Wesseling	DE	excellent	6.9747	50.82709	07/28/2021, 00:00:00
Barnet	GB	excellent	-0.2	51.65	01/25/2018, 00:00:00
Sicklerville	US	accep	-74.96933	39.71734	2021/01/29
Oberhausen	DE	average	6.8625	51.47805	03/12/2016, 00:00:00
Santa Cruz de Barahona	DO	excellent	-71.10077	18.20854	19 Apr 2019
Rutherglen	GB	average	-4.21376	55.82885	04/12/2015, 00:00:00
Bonoua	CI	excellent	-3.59625	5.27247	2020-01-30
Cardedeu	ES	average	2.35739	41.63976	05/19/2022, 00:00:00
Santa Maria	US	good	-120.43572	34.95303	02/12/2013, 00:00:00
Mvomero	TZ	excellent	38.66667	-6.25	05/24/2019, 00:00:00
Hutto	US	building	-97.54667	30.5427	07 Sep 2018
Periyakulam	IN	excellent	77.54372	10.12268	10/30/2020, 00:00:00
Shinshiro	JP	good	137.5	34.9	2019-09-27
Westbury	GB	good	-2.1875	51.26	04/05/2017, 00:00:00
Mokopane	ZA	average	29.00974	-24.19436	01/28/2014, 00:00:00
Santa Gertrudes	BR	excellent	-47.53028	-22.45667	05/03/2017, 00:00:00
Messaad	DZ	excellent	3.50309	34.15429	19 Jan 2020
Kachkanar	RU	average	59.4839	58.7002	04/15/2015, 00:00:00
Guli	CN	average	120.03308	28.88162	05/16/2013, 00:00:00
Milledgeville	US	average	-83.2321	33.08014	2012-11-06
Bridgeport	US	good	-73.20483	41.16704	2017/01/29
Ksar Chellala	DZ	excellent	2.31889	35.21222	2017/07/03
Covington	US	accep	-84.50855	39.08367	07/19/2019, 00:00:00
Indio	US	average	-116.21677	33.7207	2013-12-30
Kushtia	BD	building	89.11943	23.9028	2019/08/10
Palm Desert	US	average	-116.37697	33.72255	2018-05-13
Kashipur	IN	good	78.95693	29.21399	19 Dec 2020
Gandia	ES	building	-0.18333	38.96667	2018-01-11
Sassari	IT	average	8.55552	40.72586	28 Jul 2022
Darreh Shahr	IR	good	47.3799	33.14447	2014-09-04
New Yekepa	LR	average	-8.53778	7.57944	11/30/2021, 00:00:00
Saint-Denis	RE	good	55.4504	-20.88231	05 Jan 2019
