location	station	revision	latitude	longitude	QoS
Africa/Maputo	Maxixe	09/15/2014, 00:00:00	-23.85972	35.34722	building
Asia/Dhaka	Manikchari	2019-05-28	22.83957	91.84128	accep
America/Sao_Paulo	Soledade	2021-11-09	-28.81833	-52.51028	good
Africa/Douala	Tonga	2013-08-12	4.96667	10.7	average
Asia/Shanghai	Hushitai	2018/12/28	41.94175	123.50266	maintenance
Asia/Karachi	Larkana	2014-03-18	27.55898	68.21204	average
America/Los_Angeles	Watsonville	2021/11/21	36.91023	-121.75689	accep
America/New_York	Yonkers	2014-01-19	40.93121	-73.89875	building
Africa/Tunis	El Alia	12/30/2015, 00:00:00	37.16911	10.03478	excellent
America/Sao_Paulo	Caldas Novas	2013-05-11	-17.74431	-48.62789	good
Europe/Moscow	Kovylkino	2017-11-04	54.03876	43.91385	maintenance
America/Sao_Paulo	Guapimirim	02/06/2020, 00:00:00	-22.53722	-42.98194	good
Europe/London	Aberdeen	20 Jun 2017	57.14369	-2.09814	good
Asia/Urumqi	Hoxtolgay	2022-06-27	46.51872	86.00214	excellent
Africa/Lagos	Olupona	2022/06/06	7.6	4.18333	good
Africa/Gaborone	Tonota	2017/12/22	-21.44236	27.46153	maintenance
Pacific/Efate	Port-Vila	2015/12/24	-17.73648	168.31366	maintenance
Europe/Warsaw	Jaworzno	02 Nov 2021	50.20528	19.27498	excellent
Europe/Prague	Karlovy Vary	30 Nov 2016	50.23271	12.87117	excellent
Asia/Yekaterinburg	Oktyabr‚Äôskiy	11/16/2014, 00:00:00	54.48147	53.47103	accep
Asia/Kolkata	Chharra	03/15/2013, 00:00:00	27.9247	78.40102	accep
America/Bogota	Villa del Rosario	09/22/2022, 00:00:00	7.83389	-72.47417	average
America/Bahia	Canavieiras	07 Jan 2016	-15.675	-38.94722	excellent
Pacific/Auckland	Gisborne	06/29/2015, 00:00:00	-38.65333	178.00417	excellent
Africa/Porto-Novo	Tchaourou	2022-09-08	8.88649	2.59753	excellent
America/Detroit	Waverly	2014/04/04	42.7392	-84.62081	maintenance
America/Sao_Paulo	Palmeira	22 Jan 2019	-25.42944	-50.00639	good
America/Mexico_City	Zacoalco de Torres	2012/10/12	20.22816	-103.5687	average
America/Santiago	San Bernardo	2015/07/31	-33.59217	-70.6996	average
America/Los_Angeles	San Gabriel	2022-07-30	34.09611	-118.10583	average
Asia/Dhaka	Kushtia	2021-03-08	23.9028	89.11943	average
America/Los_Angeles	Opportunity	06/12/2021, 00:00:00	47.64995	-117.23991	excellent
Africa/Lagos	Efon-Alaaye	2012/11/18	7.65649	4.92235	average
America/La_Paz	Tupiza	25 Jun 2021	-21.44345	-65.71875	accep
America/Los_Angeles	Mira Mesa	02 Oct 2018	32.9156	-117.14392	building
America/Chicago	Evergreen Park	03/24/2019, 00:00:00	41.72059	-87.70172	maitennce
Europe/Moscow	Volokolamsk	02 Jul 2016	56.03361	35.96944	accep
Asia/Kolkata	Periyakulam	02 May 2016	10.12268	77.54372	accep
Europe/Rome	Gorgonzola	23 Sep 2022	45.53069	9.40531	excellent
America/New_York	Bridgeport	2015-11-12	41.16704	-73.20483	average
Europe/Amsterdam	Oldenzaal	05 Aug 2013	52.31333	6.92917	average
Asia/Manila	Manaoag	29 Jan 2022	16.0438	120.4861	maintenance
Asia/Tokyo	Shinshiro	2022/02/17	34.9	137.5	excellent
Asia/Yekaterinburg	Lesnoy	2018/03/09	58.63667	59.80222	good
Africa/Tunis	Msaken	05/08/2014, 00:00:00	35.72917	10.58082	average
Asia/Kolkata	Chamba	28 Sep 2014	32.55531	76.12647	accep
Asia/Shanghai	Hengshui	2014/12/06	37.73222	115.70111	average
Asia/Tokyo	Nonoichi	30 Sep 2012	36.53333	136.61667	good
America/New_York	Woodbridge	2021/07/23	40.5576	-74.28459	average
Asia/Tokyo	Annaka	2022/06/20	36.33011	138.89585	accep
Europe/Zaporozhye	Polohy	11/08/2021, 00:00:00	47.48444	36.25361	good
Africa/Tunis	Beni Khiar	2013/01/26	36.46917	10.78222	good
America/Bahia	Rio Real	08 Apr 2019	-11.48472	-37.93278	excellent
America/New_York	Leland	04/24/2018, 00:00:00	34.25628	-78.04471	excellent
Europe/London	Rutherglen	2013/10/22	55.82885	-4.21376	excellent
Europe/London	Viewpark	2020-04-10	55.82737	-4.0573	average
Africa/Nairobi	Nyahururu	08/15/2019, 00:00:00	0.03813	36.36339	maintenance
America/Vancouver	Vernon	2020/01/28	50.26729	-119.27337	accep
America/New_York	Rosedale	19 Jun 2021	39.32011	-76.51552	excellent
Pacific/Efate	Port-Vila	03 Jun 2015	-17.73648	168.31366	excellent
America/New_York	Punta Gorda Isles	24 Sep 2016	26.91756	-82.07842	excellent
America/Los_Angeles	Bothell West	2016/05/21	47.80527	-122.24064	average
America/Sao_Paulo	Artur Nogueira	01/07/2013, 00:00:00	-22.57306	-47.1725	accep
America/New_York	Fayetteville	2015/07/09	35.05266	-78.87836	building
Europe/Berlin	Eppingen	23 Dec 2018	49.13645	8.91229	average
Asia/Barnaul	Novosilikatnyy	16 Sep 2021	53.30972	83.62389	maintenance
Europe/Istanbul	Edremit	23 May 2021	39.59611	27.02444	good
Asia/Shanghai	Heyuan	2020-08-02	23.73333	114.68333	excellent
America/Sao_Paulo	Resplendor	2013-04-19	-19.32556	-41.25528	building
Asia/Jerusalem	Ganei Tikva	2021-03-08	32.05971	34.8732	maintenance
Asia/Karachi	Qadirpur Ran	07 Nov 2018	30.29184	71.67164	excellent
America/New_York	Thomasville	2013/05/25	35.88264	-80.08199	good
Europe/London	Hartley	11 Jul 2013	51.38673	0.30367	excellent
Africa/Algiers	Frenda	12/03/2012, 00:00:00	35.06544	1.04945	accep
Europe/Berlin	Karben	13 Feb 2013	50.23019	8.77155	maintenance
Europe/Berlin	Weimar	2020-01-31	50.9803	11.32903	accep
America/Chicago	Searcy	2012-10-08	35.25064	-91.73625	average
America/Santiago	La Ligua	2014/05/09	-32.45242	-71.23106	excellent
Europe/Warsaw	Strzelce Opolskie	2013-12-18	50.5107	18.30056	accep
Africa/Lubumbashi	Yangambi	02/27/2015, 00:00:00	0.76755	24.43973	accep
America/Sao_Paulo	Esmeraldas	12/26/2014, 00:00:00	-19.7625	-44.31389	good
Europe/Vienna	Sankt Peter	14 Jul 2015	47.05	15.46667	good
Europe/Rome	Mesagne	08/05/2020, 00:00:00	40.55851	17.80774	excellent
America/Chicago	Brenham	01 May 2018	30.16688	-96.39774	good
Europe/London	Poulton-le-Fylde	20 Oct 2020	53.83333	-2.98333	good
Asia/Shanghai	Heyuan	06/11/2013, 00:00:00	23.73333	114.68333	good
Europe/Berlin	Hermsdorf	13 Aug 2020	52.61131	13.31783	building
Asia/Jakarta	Pameungpeuk	2014/12/08	-7.01833	107.60389	building
America/Los_Angeles	Laguna Niguel	2016/05/26	33.52253	-117.70755	good
Africa/Brazzaville	Brazzaville	2019/05/25	-4.26613	15.28318	average
America/Los_Angeles	Bothell	2013-07-23	47.76232	-122.2054	good
Europe/Istanbul	Aksaray	2018-03-06	38.37255	34.02537	building
Asia/Jakarta	Cibinong	03/27/2021, 00:00:00	-6.48167	106.85417	excellent
Africa/Douala	Mbalmayo	10/19/2015, 00:00:00	3.51667	11.5	average
Asia/Yekaterinburg	Ishim	2021-08-25	56.11281	69.49015	maintenance
Asia/Kolkata	Kangayam	01/31/2014, 00:00:00	11.00599	77.5609	average
Asia/Ulaanbaatar	Ulan Bator	05/27/2013, 00:00:00	47.90771	106.88324	accep
Europe/Berlin	Karben	06/08/2021, 00:00:00	50.23019	8.77155	good
Asia/Jakarta	Simpang	11/16/2018, 00:00:00	-1.26424	104.09701	excellent
Europe/Berlin	Eppingen	2017-05-09	49.13645	8.91229	average
Australia/Melbourne	Carnegie	18 Jan 2022	-37.88333	145.06667	average
America/Los_Angeles	Troutdale	04 Jul 2015	45.53929	-122.38731	accep
Africa/Kigali	Rwamagana	2016/04/13	-1.9487	30.4347	excellent
Africa/Maputo	Maxixe	2019/11/07	-23.85972	35.34722	good
Asia/Seoul	T‚Äôaebaek	2018/10/22	37.1759	128.9889	good
Asia/Shanghai	Hengshui	16 Dec 2015	37.73222	115.70111	good
Europe/Rome	Francavilla Fontana	07/28/2015, 00:00:00	40.53123	17.58522	maintenance
America/Mexico_City	Acayucan	2014/06/19	17.94979	-94.91386	average
Europe/Warsaw	Jaworzno	01/17/2022, 00:00:00	50.20528	19.27498	good
America/El_Salvador	Sonzacate	09/28/2018, 00:00:00	13.73417	-89.71472	excellent
America/New_York	Sicklerville	01/10/2015, 00:00:00	39.71734	-74.96933	excellent
Europe/Berlin	Hofheim am Taunus	2018-02-06	50.09019	8.4493	excellent
Europe/Rome	Agrigento	03 Jul 2014	37.31065	13.57661	average
America/Los_Angeles	Bryn Mawr-Skyway	2022/03/08	47.4943	-122.24092	maintenance
Europe/Berlin	Gauting	17 Feb 2020	48.06919	11.37703	building
America/Chicago	Fairview Heights	09 Jun 2016	38.58894	-89.99038	good
Europe/Madrid	Amposta	03 May 2013	40.70995	0.57856	average
Asia/Bangkok	Damnoen Saduak	12/13/2013, 00:00:00	13.51825	99.95469	accep
America/Argentina/Ushuaia	Ushuaia	10/20/2017, 00:00:00	-54.8	-68.3	good
Europe/Moscow	Danilov	18 Nov 2019	58.1908	40.17171	excellent
Asia/Seoul	Goyang-si	10/23/2020, 00:00:00	37.65639	126.835	average
Africa/Algiers	Bordj Zemoura	2018/07/27	36.27462	4.85668	building
Africa/Luanda	Luena	2020-08-09	-11.78333	19.91667	accep
Europe/Rome	Francavilla Fontana	29 Oct 2013	40.53123	17.58522	excellent
Europe/Madrid	Talavera de la Reina	2017-10-23	39.96348	-4.83076	average
Asia/Kolkata	Sirsi	2016/09/12	14.62072	74.83554	average
Europe/Moscow	Tver	07/24/2020, 00:00:00	56.85836	35.90057	good
Europe/Rome	Mesagne	2015-08-29	40.55851	17.80774	excellent
America/Maceio	Lagarto	03/14/2020, 00:00:00	-10.91722	-37.65	maintenance
Europe/Rome	Bisceglie	2013/12/16	41.24264	16.50104	accep
Asia/Shanghai	Beidao	2016-11-30	34.56861	105.89333	accep
Africa/Lagos	Igbara-Odo	2018/02/24	7.50251	5.06258	average
Europe/Berlin	Radevormwald	17 Jun 2016	51.20219	7.36027	excellent
Asia/Qyzylorda	Kyzylorda	02 Feb 2019	44.85278	65.50917	good
Asia/Seoul	Goyang-si	2021/05/12	37.65639	126.835	good
America/New_York	Cypress Hills	2015/05/08	40.67705	-73.89125	building
Europe/Kiev	Kherson	2018-08-19	46.65581	32.6178	excellent
America/Toronto	Markham	2022/03/21	43.86682	-79.2663	excellent
America/Argentina/Tucuman	Aguilares	04/25/2015, 00:00:00	-27.4338	-65.61427	good
Africa/Dar_es_Salaam	Usagara	03/26/2013, 00:00:00	-2.68333	33	average
Africa/Lagos	Kafanchan	2019-06-27	9.58126	8.2926	accep
Africa/Ndjamena	Mongo	2013-01-27	12.18441	18.69303	maintenance
Asia/Kolkata	Chharra	2019/09/01	27.9247	78.40102	accep
Africa/Mogadishu	Baki	2012-10-19	9.89206	43.38531	average
America/Merida	Progreso	2015-10-26	21.28306	-89.66123	accep
Pacific/Honolulu	Kahului	2022/08/04	20.88953	-156.47432	good
Asia/Karachi	Naushahra Virkan	2016-03-12	31.96258	73.97117	average
Africa/Dar_es_Salaam	Kidodi	27 Nov 2018	-7.60361	37.00438	building
America/Chicago	Estelle	2014-02-25	29.84576	-90.10674	average
Europe/Berlin	Landshut	2019/01/30	48.52961	12.16179	average
Europe/Moscow	Nizhniy Lomov	2016/08/07	53.53041	43.67663	maintenance
Europe/Rome	Villabate	04 Sep 2016	38.07789	13.44275	maintenance
America/New_York	Cypress Hills	2020-09-01	40.67705	-73.89125	accep
Asia/Bangkok	Tak Bai	08/17/2021, 00:00:00	6.25947	102.05461	accep
Africa/Windhoek	Okahandja	2016/11/08	-21.98333	16.91667	good
America/Chicago	Tupelo	2018-09-15	34.25807	-88.70464	average
America/Los_Angeles	Kent	14 Oct 2018	47.38093	-122.23484	average
Asia/Kabul	Sar-e Pul	07/15/2013, 00:00:00	36.21544	65.93249	excellent
Europe/Moscow	Stupino	2015/11/17	54.90083	38.07083	excellent
Europe/Berlin	Reutlingen	2013-01-26	48.49144	9.20427	excellent
America/Mexico_City	Tuxtla	2019/01/27	16.75973	-93.11308	good
Asia/Dhaka	Kushtia	02/09/2021, 00:00:00	23.9028	89.11943	accep
America/Santiago	La Ligua	11/01/2017, 00:00:00	-32.45242	-71.23106	average
America/New_York	Bon Air	2018-08-19	37.52487	-77.55777	accep
Africa/Blantyre	Salima	2021-02-01	-13.7804	34.4587	excellent
America/Chicago	Huntley	2013/09/09	42.16808	-88.42814	excellent
Asia/Shanghai	Heyuan	07 Nov 2015	23.73333	114.68333	building
Asia/Shanghai	Licheng	2020-12-09	23.29549	113.82465	building
Europe/Rome	Tortona	2017-02-28	44.89784	8.86374	good
America/New_York	Harrisburg	12 Nov 2013	40.2737	-76.88442	excellent
America/Chicago	Coralville	19 Feb 2017	41.6764	-91.58045	accep
America/Sao_Paulo	Artur Nogueira	01 Oct 2014	-22.57306	-47.1725	building
America/New_York	Palm Valley	2019/11/05	30.17746	-81.38758	accep
Asia/Kolkata	Osmanabad	11/08/2014, 00:00:00	18.18158	76.03889	average
Asia/Kolkata	Dombivli	25 Aug 2014	19.21667	73.08333	excellent
Asia/Bangkok	Kantharalak	2017/04/05	14.64056	104.64992	average
Europe/Paris	Talence	2019-03-07	44.80477	-0.59543	accep
Asia/Kolkata	Davangere	2014-02-01	14.46693	75.92694	average
America/New_York	Thomasville	2014-07-13	35.88264	-80.08199	good
Europe/Moscow	Bogoroditsk	2018-08-04	53.77166	38.12408	accep
Europe/Rome	Falconara Marittima	11 Mar 2013	43.62558	13.39954	average
America/New_York	Brunswick	2012-12-19	43.91452	-69.96533	average
Asia/Yangon	Dawei	01/24/2014, 00:00:00	14.0823	98.19151	accep
Europe/London	Hartley	31 Jul 2016	51.38673	0.30367	excellent
America/Denver	Carlsbad	19 Feb 2018	32.42067	-104.22884	good
Europe/Brussels	Lille	2018/05/16	51.24197	4.82313	building
Africa/Lubumbashi	Yangambi	02 May 2021	0.76755	24.43973	accep
Europe/Minsk	Dobrush	2018/11/07	52.4089	31.3237	accep
America/New_York	Brunswick	02/23/2014, 00:00:00	43.91452	-69.96533	accep
Europe/Istanbul	Bergama	2018/12/08	39.12074	27.18052	good
Europe/Istanbul	Edremit	09 Aug 2016	39.59611	27.02444	excellent
Asia/Shanghai	Dongfeng	09/27/2019, 00:00:00	42.64031	125.51176	average
Europe/Rome	Tortona	02/19/2020, 00:00:00	44.89784	8.86374	accep
America/New_York	Yonkers	02 May 2015	40.93121	-73.89875	good
America/Chicago	Jackson	2014/08/12	35.61452	-88.81395	building
America/Los_Angeles	Watsonville	02/20/2013, 00:00:00	36.91023	-121.75689	maintenance
Europe/Berlin	Gronau	2018-01-20	52.21099	7.02238	excellent
Australia/Sydney	Baulkham Hills	2015/05/12	-33.75881	150.99292	good
America/Sao_Paulo	Alfenas	2022/01/08	-21.42917	-45.94722	good
Europe/Rome	Tortona	2015/01/02	44.89784	8.86374	acceptable
America/Sao_Paulo	Artur Nogueira	2014-02-23	-22.57306	-47.1725	excellent
Africa/Kampala	Arua	2014/05/03	3.02013	30.91105	accep
America/Toronto	Pointe-Claire	08 Jun 2021	45.44868	-73.81669	average
Asia/Kolkata	Deoli	15 Sep 2018	25.75728	75.37991	excellent
America/Mexico_City	Tuxtla	2019/02/23	16.75973	-93.11308	excellent
Asia/Kolkata	Pilkhua	2020/05/21	28.71271	77.656	average
America/New_York	Leland	11/26/2021, 00:00:00	34.25628	-78.04471	building
Asia/Jakarta	Simpang	2019-03-21	-1.26424	104.09701	good
America/Los_Angeles	Watsonville	10 Oct 2016	36.91023	-121.75689	excellent
Asia/Kolkata	Pilkhua	05 Feb 2018	28.71271	77.656	good
America/Costa_Rica	San Rafael	2014/02/27	9.92787	-84.13722	maintenance
Asia/Kolkata	Madhipura	06 Aug 2013	25.92127	86.79271	excellent
Europe/Madrid	Leioa	2017/11/01	43.32686	-2.98884	accep
America/Los_Angeles	Opportunity	05/08/2016, 00:00:00	47.64995	-117.23991	good
Asia/Tehran	Aleshtar	2018-05-31	33.86419	48.26258	average
Asia/Tbilisi	Kobuleti	18 Oct 2020	41.82143	41.77921	average
America/Chicago	Hueytown	10 May 2019	33.45122	-86.99666	excellent
America/New_York	Jersey City	2015-11-30	40.72816	-74.07764	good
Asia/Colombo	Dehiwala-Mount Lavinia	02/13/2017, 00:00:00	6.84019	79.87116	excellent
America/Toronto	Markham	2019-08-14	43.86682	-79.2663	excellent
Europe/Moscow	Arzamas	2021/04/05	55.39485	43.83992	good
America/Chicago	Crystal Lake	06/21/2017, 00:00:00	42.24113	-88.3162	accep
Asia/Seoul	T‚Äôaebaek	11/02/2018, 00:00:00	37.1759	128.9889	good
America/Guayaquil	Cuenca	04/26/2020, 00:00:00	-2.90055	-79.00453	building
Europe/Moscow	Alatyr‚Äô	27 Sep 2022	54.8421	46.5813	accep
Europe/Berlin	Trossingen	2016/01/25	48.07667	8.64409	building
Europe/Madrid	Palafrugell	2019-05-04	41.91738	3.1631	average
Asia/Shanghai	Shuangcheng	07 May 2021	45.35	126.28333	excellent
America/New_York	Rutland	2022-02-14	43.61062	-72.97261	excellent
America/Bogota	Honda	2018/03/04	5.20856	-74.73584	excellent
Europe/Paris	Talence	10/29/2021, 00:00:00	44.80477	-0.59543	excellent
America/Los_Angeles	Sunnyside	2016-09-03	46.32374	-120.00865	average
Asia/Kolkata	Gorakhpur	16 Mar 2019	26.76628	83.36889	accep
America/Chicago	Fresno	2019-11-14	29.53885	-95.44744	building
Europe/Moscow	Kovylkino	2016/06/13	54.03876	43.91385	excellent
Asia/Kolkata	Kalavoor	2017/05/04	9.57046	76.32756	good
America/New_York	Gainesville	2014-11-30	29.65163	-82.32483	good
Africa/Addis_Ababa	Arba Minch	2017-02-14	6.03333	37.55	accep
America/Bogota	Andes	2020/03/08	5.6561	-75.87877	average
Asia/Manila	Burgos	2017/11/13	15.72892	120.57224	acceptable
Asia/Kolkata	Betamcherla	12/30/2013, 00:00:00	15.45144	78.14797	maintenance
Africa/Algiers	Thenia	2014/08/28	36.72544	3.55665	maintenance
Australia/Sydney	Eastwood	2019/03/16	-33.79176	151.08057	accep
Asia/Shanghai	Yingkou	2017-11-16	40.66482	122.22833	accep
Europe/Paris	Gonesse	2020-12-27	48.98693	2.44892	accep
Asia/Shanghai	Sishui	2013-10-31	35.64889	117.27583	accep
Africa/Tunis	Beni Khiar	2020-08-26	36.46917	10.78222	excellent
Asia/Urumqi	Hoxtolgay	2020-08-30	46.51872	86.00214	maintenance
America/Los_Angeles	Mira Mesa	09/18/2017, 00:00:00	32.9156	-117.14392	excellent
Asia/Shanghai	Yingkou	2017-01-17	40.66482	122.22833	good
Europe/Zaporozhye	Polohy	22 Dec 2020	47.48444	36.25361	good
Europe/Lisbon	Custoias	06/21/2013, 00:00:00	41.1053	-7.32097	building
Asia/Almaty	Zaysan	2019/07/15	47.46657	84.87144	good
Asia/Kolkata	Hungund	08 Dec 2015	16.06213	76.0586	maintenance
America/New_York	Lexington	09/21/2020, 00:00:00	33.98154	-81.23621	good
America/New_York	Martinsburg	2022-08-19	39.45621	-77.96389	average
Europe/London	Southsea	2022-07-12	50.79205	-1.08593	excellent
America/Chicago	New City	2020-05-10	41.80753	-87.65644	accep
Australia/Sydney	Eastwood	2021/02/15	-33.79176	151.08057	good
Europe/Kiev	Zvenihorodka	2014/10/11	49.07866	30.96755	building
Asia/Shanghai	Dongfeng	2019-12-26	42.64031	125.51176	average
Europe/Moscow	Kovylkino	2017/07/21	54.03876	43.91385	good
America/Sao_Paulo	Pato Branco	02/07/2015, 00:00:00	-26.22861	-52.67056	maintenance
Asia/Tokyo	Kamakura	2013/02/15	35.30889	139.55028	accep
Europe/Moscow	Shushary	04/25/2013, 00:00:00	59.80917	30.38167	average
America/Chicago	Hutchinson	2016-02-09	38.06084	-97.92977	good
Asia/Kolkata	Jashpurnagar	2013/11/22	22.88783	84.13864	excellent
Africa/Cairo	Juhaynah	04 Oct 2019	26.67319	31.4976	average
Europe/London	High Wycombe	2013/07/16	51.62907	-0.74934	accep
Europe/Brussels	Lille	2020/02/27	51.24197	4.82313	accep
Pacific/Port_Moresby	Mount Hagen	2015-06-08	-5.85746	144.23058	excellent
Africa/Algiers	Frenda	2019/01/30	35.06544	1.04945	excellent
Asia/Kolkata	Hungund	26 Jun 2020	16.06213	76.0586	good
Africa/Luanda	Luena	2021-09-25	-11.78333	19.91667	excellent
America/Chicago	Columbia Heights	08 Sep 2020	45.0408	-93.263	accep
Europe/Paris	Bobigny	2015-08-04	48.90982	2.45012	excellent
America/New_York	Peabody	10 Oct 2019	42.52787	-70.92866	good
Europe/Rome	Agrigento	02/10/2017, 00:00:00	37.31065	13.57661	maintenance
Australia/Brisbane	Maryborough	05/13/2016, 00:00:00	-25.54073	152.70493	good
Asia/Kolkata	Sirsi	11/14/2013, 00:00:00	14.62072	74.83554	average
Europe/Brussels	Denderleeuw	2012/12/27	50.88506	4.07601	good
Asia/Shanghai	Shaowu	2017/06/03	27.34089	117.4831	accep
Africa/Kampala	Paidha	2021-04-05	2.41669	30.98551	good
Asia/Shanghai	Heyuan	2022-04-02	23.73333	114.68333	accep
America/Chicago	Kaukauna	03/07/2014, 00:00:00	44.27804	-88.27205	excellent
Asia/Shanghai	Jiangyan	2018-04-26	32.50611	120.14278	excellent
Europe/Rome	Perugia	03/23/2021, 00:00:00	43.1122	12.38878	excellent
America/Caracas	Barinas	09/12/2021, 00:00:00	8.62261	-70.20749	good
Europe/Paris	Vienne	2020-04-08	45.51667	4.86667	good
America/New_York	Morningside Heights	11/25/2015, 00:00:00	40.81	-73.9625	excellent
Asia/Jerusalem	Rahat	2021/09/24	31.39547	34.75699	accep
Asia/Yekaterinburg	Tavda	2021-04-20	58.04254	65.27258	accep
Africa/Algiers	Beni Douala	05/17/2014, 00:00:00	36.61954	4.08282	accep
Europe/Berlin	Burscheid	2020/11/19	51.08468	7.11393	average
Europe/Berlin	Eppingen	02/07/2016, 00:00:00	49.13645	8.91229	good
Europe/Moscow	Shushary	2016-11-01	59.80917	30.38167	maintenance
Asia/Kolkata	Narwar	02/05/2013, 00:00:00	25.6439	77.9129	good
America/Mexico_City	Tuxtla	15 Jan 2015	16.75973	-93.11308	good
America/New_York	Cypress Hills	03/06/2021, 00:00:00	40.67705	-73.89125	average
America/New_York	East Haven	01/16/2013, 00:00:00	41.27621	-72.86843	building
America/New_York	Fayetteville	05 Jun 2015	35.05266	-78.87836	accep
Asia/Kolkata	Udumalaippettai	2019-09-14	10.58806	77.24779	excellent
America/Toronto	Beaconsfield	13 Feb 2013	45.43341	-73.86586	accep
Europe/Oslo	Harstad	23 Dec 2015	68.79833	16.54165	building
America/Mexico_City	Santa Rosa Jauregui	2015/11/03	20.74122	-100.44843	maintenance
America/Vancouver	Kelowna	2014-10-27	49.88307	-119.48568	accep
Europe/Rome	Tortona	2017/06/01	44.89784	8.86374	accep
Africa/Dar_es_Salaam	Usagara	2013/02/05	-2.68333	33	accep
America/Santarem	Altamira	2020-02-02	-3.20333	-52.20639	building
Asia/Kolkata	Sathyamangalam	2018/09/23	11.50526	77.23826	excellent
America/Lima	Yunguyo	14 Jun 2021	-16.25	-69.08333	excellent
Asia/Jerusalem	Rahat	2016/08/17	31.39547	34.75699	excellent
Africa/Kigali	Rwamagana	2013-01-27	-1.9487	30.4347	accep
America/New_York	Deltona	10/26/2014, 00:00:00	28.90054	-81.26367	average
America/New_York	Rutland	11/06/2019, 00:00:00	43.61062	-72.97261	acceptable
Asia/Jerusalem	Ramla	2013-08-03	31.92923	34.86563	average
Asia/Kolkata	Calangute	11/04/2012, 00:00:00	15.5439	73.7553	accep
Europe/Madrid	Tudela	2021/07/13	42.06166	-1.60452	good
Europe/Moscow	Bavly	12 Jan 2020	54.39304	53.26023	accep
Europe/Andorra	les Escaldes	2017/10/13	42.50729	1.53414	accep
America/Chicago	Odessa	17 Jul 2022	31.84568	-102.36764	building
Europe/Berlin	Karben	21 Nov 2013	50.23019	8.77155	maintenance
Asia/Colombo	Dehiwala-Mount Lavinia	2017/02/02	6.84019	79.87116	excellent
Asia/Kolkata	Supaul	04/15/2019, 00:00:00	26.11527	86.59509	good
Atlantic/Canary	Maspalomas	12 Jun 2018	27.76056	-15.58602	average
Australia/Sydney	Baulkham Hills	12 May 2017	-33.75881	150.99292	excellent
Australia/Brisbane	Maryborough	12/15/2021, 00:00:00	-25.54073	152.70493	good
America/New_York	Brunswick	31 Mar 2022	43.91452	-69.96533	excellent
Asia/Krasnoyarsk	Sharypovo	2016-06-27	55.54028	89.20083	average
Asia/Kolkata	Patti	2020-06-02	31.28092	74.85849	accep
Asia/Yangon	Myawadi	23 Jul 2018	16.68911	98.50893	maintenance
Asia/Shanghai	Shuangcheng	12 Sep 2014	45.35	126.28333	excellent
Africa/Porto-Novo	Tchaourou	01 Jul 2018	8.88649	2.59753	accep
Africa/Algiers	Messaad	11/11/2014, 00:00:00	34.15429	3.50309	excellent
Asia/Phnom_Penh	Paoy Paet	2021-09-02	13.65805	102.56365	average
Asia/Kolkata	Amreli	2016/06/10	21.59983	71.21169	good
Asia/Karachi	Daud Khel	02/06/2016, 00:00:00	32.87533	71.57118	accep
Europe/Moscow	Novopavlovsk	24 Dec 2013	43.96222	43.63417	excellent
Asia/Tashkent	Parkent	2019-08-31	41.29444	69.67639	accep
Asia/Dili	Maliana	2016/08/05	-8.99167	125.21972	accep
Asia/Seoul	Sinhyeon	11 Jun 2021	34.8825	128.62667	average
Europe/Madrid	Las Gabias	02 Sep 2021	37.13548	-3.67029	accep
Europe/Moscow	Yablonovskiy	2022-09-22	44.98901	38.94324	maintenance
America/Havana	Boyeros	2022/02/27	23.0072	-82.4017	excellent
America/Chicago	Murray	2014-03-21	36.61033	-88.31476	good
Asia/Karachi	Sangla Hill	2013-05-09	31.71667	73.38333	good
America/New_York	Middletown	2014-02-02	41.54566	-71.29144	building
Europe/Berlin	Wittenau	2019/05/27	52.59319	13.32127	accep
Europe/Moscow	Dyat‚Äôkovo	2021/03/28	53.59782	34.33825	accep
Asia/Shanghai	Hushitai	12/24/2014, 00:00:00	41.94175	123.50266	excellent
Asia/Kolkata	Udumalaippettai	12/21/2012, 00:00:00	10.58806	77.24779	excellent
Asia/Manila	San Jose	2016-07-24	12.35275	121.06761	good
America/New_York	North Lauderdale	2018/03/16	26.2173	-80.22588	average
Asia/Jakarta	Simpang	16 Jul 2021	-1.26424	104.09701	average
Asia/Almaty	Zaysan	2021/06/14	47.46657	84.87144	good
Asia/Bangkok	Phanat Nikhom	02/25/2018, 00:00:00	13.44581	101.18445	excellent
America/Chicago	Fairview Heights	2018/05/24	38.58894	-89.99038	good
Europe/London	Devizes	26 Mar 2016	51.35084	-1.99421	accep
America/Los_Angeles	American Canyon	12/15/2013, 00:00:00	38.17492	-122.2608	accep
Asia/Tokyo	Toyokawa	2019/01/23	34.81667	137.4	accep
Asia/Shanghai	Jingzhou	05/16/2021, 00:00:00	30.35028	112.19028	building
Indian/Antananarivo	Ikalamavony	15 Apr 2016	-21.15	46.58333	accep
Asia/Jerusalem	Ramla	07 Sep 2015	31.92923	34.86563	accep
Europe/Skopje	Bogovinje	2022/05/19	41.92361	20.91361	average
Asia/Aqtobe	Shalqar	2012-12-06	47.83333	59.6	good
Europe/Moscow	Tver	29 Jul 2015	56.85836	35.90057	average
Europe/Rome	Falconara Marittima	12/15/2019, 00:00:00	43.62558	13.39954	good
Europe/Berlin	Radevormwald	2022/01/25	51.20219	7.36027	accep
Africa/Lagos	Lagos	2021/10/11	6.45407	3.39467	building
America/Caracas	Tinaquillo	2018-11-09	9.91861	-68.30472	accep
Asia/Manila	Recodo	11 May 2013	6.95194	121.96361	good
Africa/Abidjan	Lakota	30 Sep 2020	5.84752	-5.682	excellent
Asia/Riyadh	Al Jubayl	2022-01-14	27.0174	49.62251	excellent
America/Montevideo	Durazno	2021/12/30	-33.38056	-56.52361	excellent
America/Puerto_Rico	Yauco	2017/10/12	18.03496	-66.8499	excellent
Europe/Warsaw	Ustka	22 Jul 2019	54.58048	16.86194	average
America/New_York	Lakewood	04/17/2018, 00:00:00	41.48199	-81.79819	good
Asia/Manila	Naga	2019-08-08	10.20898	123.758	good
America/Los_Angeles	Camarillo	2012-12-07	34.21639	-119.0376	excellent
Europe/Warsaw	Zgorzelec	2022/05/21	51.14942	15.00835	good
Europe/Moscow	Solntsevo	23 Sep 2017	55.63711	37.38115	good
Europe/Minsk	Dobrush	19 Jul 2017	52.4089	31.3237	average
Asia/Manila	Dipolog	2013/05/16	8.56697	123.33471	average
Asia/Jakarta	Sukabumi	22 Apr 2019	-6.91806	106.92667	average
America/New_York	Gates-North Gates	07/02/2022, 00:00:00	43.16547	-77.70066	maintenance
Asia/Dhaka	Manikchari	2022/04/09	22.83957	91.84128	average
America/Toronto	Norfolk County	05/06/2020, 00:00:00	42.8334	-80.38297	building
Asia/Kolkata	Meerut	2019/09/19	28.98002	77.70636	accep
Asia/Yekaterinburg	Ishim	2014/02/25	56.11281	69.49015	accep
Asia/Shanghai	Jingzhou	05/30/2018, 00:00:00	30.35028	112.19028	excellent
Europe/Rome	Mesagne	2018/08/20	40.55851	17.80774	average
Indian/Reunion	Saint-Denis	03/19/2019, 00:00:00	-20.88231	55.4504	accep
Europe/Madrid	Gandia	2022-05-12	38.96667	-0.18333	excellent
Europe/London	Bushey	08/24/2021, 00:00:00	51.64316	-0.36053	good
Asia/Dhaka	Manikchari	2013-02-07	22.83957	91.84128	excellent
Asia/Tokyo	Minokamo	01 Oct 2012	35.48199	137.02166	excellent
Europe/Skopje	Saraj	2020/11/26	42	21.32778	accep
Europe/Berlin	Verl	12/08/2018, 00:00:00	51.88333	8.51667	good
America/Chicago	Columbia Heights	2018-10-08	45.0408	-93.263	average
America/Maceio	Barra dos Coqueiros	05 Jul 2015	-10.90889	-37.03861	excellent
Asia/Kolkata	Pujali	2016/01/23	22.4711	88.1453	maintenance
Europe/Minsk	Novogrudok	03/14/2013, 00:00:00	53.5942	25.8191	excellent
Asia/Manila	Santa Catalina	02/11/2021, 00:00:00	9.3337	122.8637	good
Africa/Algiers	El Achir	2021/10/23	36.06386	4.62744	average
Asia/Karachi	Alipur	24 Aug 2014	29.38242	70.91106	accep
Asia/Yekaterinburg	Lesnoy	2018/11/07	58.63667	59.80222	excellent
America/Managua	Jinotepe	2013/06/30	11.84962	-86.19903	average
America/New_York	Gates-North Gates	11/17/2017, 00:00:00	43.16547	-77.70066	maintenance
Asia/Dhaka	Manikchari	16 Mar 2018	22.83957	91.84128	good
Europe/Kiev	Krasyliv	2020-07-15	49.65186	26.97253	average
Europe/Berlin	Bad Segeberg	01/19/2021, 00:00:00	53.94313	10.30215	good
Europe/Berlin	Marburg an der Lahn	2017/12/27	50.80904	8.77069	average
America/Chicago	Schererville	06/09/2013, 00:00:00	41.47892	-87.45476	good
Africa/Algiers	Cheraga	2015/12/03	36.76775	2.95924	accep
Asia/Shanghai	Jingzhou	16 Apr 2021	30.35028	112.19028	maintenance
Africa/Lubumbashi	Kamina	03 Mar 2017	-8.73508	24.99798	accep
Africa/Lagos	Argungu	23 Mar 2021	12.74482	4.52514	average
Europe/Amsterdam	Zeist	2015-04-29	52.09	5.23333	excellent
Europe/London	Southsea	11/29/2016, 00:00:00	50.79205	-1.08593	average
Asia/Dushanbe	Vahdat	2018-02-07	38.55632	69.01354	building
Australia/Perth	Willetton	06/15/2018, 00:00:00	-32.05251	115.88782	good
Asia/Yekaterinburg	Kachkanar	06/12/2020, 00:00:00	58.7002	59.4839	excellent
Africa/Algiers	Thenia	2021-11-06	36.72544	3.55665	average
Asia/Shanghai	Pucheng	20 Oct 2012	27.92333	118.53333	accep
Europe/Tallinn	Narva	2017-04-28	59.37722	28.19028	accep
Europe/Istanbul	Mudanya	2017-12-30	40.37528	28.88222	accep
Europe/Amsterdam	Losser	08/09/2014, 00:00:00	52.26083	7.00417	excellent
America/Los_Angeles	Santa Maria	2016-12-07	34.95303	-120.43572	accep
America/New_York	Middletown	03/27/2021, 00:00:00	41.54566	-71.29144	maintenance
Asia/Jakarta	Randudongkal	27 Jun 2014	-7.0981	109.3243	good
Europe/Skopje	Saraj	2017-03-03	42	21.32778	average
America/New_York	Milledgeville	2015/09/24	33.08014	-83.2321	good
America/Havana	Media Luna	05 Oct 2016	20.14298	-77.43532	good
Europe/Madrid	Gandia	15 Apr 2022	38.96667	-0.18333	average
America/Jamaica	New Kingston	14 Mar 2017	18.00747	-76.78319	building
Europe/Istanbul	Edremit	2020/07/16	39.59611	27.02444	average
America/New_York	Punta Gorda Isles	2014-03-25	26.91756	-82.07842	average
Asia/Tokyo	Shinshiro	2013-11-11	34.9	137.5	average
Asia/Kolkata	Chharra	22 Sep 2020	27.9247	78.40102	good
Europe/Paris	Saint-Genis-Laval	2020-06-21	45.69558	4.7934	average
America/New_York	Massapequa	07/03/2016, 00:00:00	40.68066	-73.47429	average
Africa/Casablanca	Temara	12/10/2019, 00:00:00	33.92866	-6.90656	average
Asia/Tokyo	Sasayama	26 Jul 2022	35.06667	135.21667	maintenance
Asia/Manila	Cebu City	04/19/2013, 00:00:00	10.31672	123.89071	accep
America/Chicago	Ada	2014/04/10	34.77453	-96.67834	building
Asia/Manila	Antipolo	2013/09/04	14.62578	121.12251	excellent
America/New_York	Rutland	2018/10/04	43.61062	-72.97261	maintenance
Asia/Kolkata	Davangere	2022-01-11	14.46693	75.92694	accep
America/Martinique	Le Robert	02/10/2016, 00:00:00	14.67751	-60.94228	accep
America/Caracas	Ciudad Guayana	2019-04-02	8.35122	-62.64102	excellent
Europe/London	Penzance	02/17/2015, 00:00:00	50.11861	-5.53715	good
Asia/Karachi	Qadirpur Ran	06/26/2018, 00:00:00	30.29184	71.67164	average
Europe/London	Strood	2016/09/01	51.39323	0.47713	average
Asia/Kolkata	Diamond Harbour	06/17/2022, 00:00:00	22.19303	88.18466	maintenance
Asia/Bangkok	Yasothon	2019-05-14	15.79408	104.1451	excellent
Europe/Brussels	Beveren	2017/01/02	51.21187	4.25633	good
Europe/Rome	Somma Vesuviana	23 Apr 2018	40.87329	14.43865	excellent
Europe/Paris	Montpellier	2019-04-16	43.61092	3.87723	excellent
Europe/Berlin	Bensheim	11/20/2020, 00:00:00	49.68369	8.61839	average
Europe/Moscow	Buynaksk	2022/01/17	42.819	47.1192	average
America/Los_Angeles	North Tustin	05/06/2021, 00:00:00	33.76446	-117.79394	average
Europe/London	Strood	2017-09-10	51.39323	0.47713	good
Europe/Rome	Agrigento	2022-02-24	37.31065	13.57661	building
Europe/Moscow	Naro-Fominsk	2019-07-29	55.38752	36.73307	excellent
America/Los_Angeles	Aloha	08 Oct 2018	45.49428	-122.86705	good
Africa/Khartoum	Ar Ruseris	06/30/2020, 00:00:00	11.8659	34.3869	average
America/New_York	Brunswick	2021/06/02	43.91452	-69.96533	excellent
America/Sao_Paulo	Guapimirim	2020/11/28	-22.53722	-42.98194	excellent
Asia/Kolkata	Dharmapuri	08/12/2020, 00:00:00	12.1277	78.15794	excellent
Europe/Berlin	Bad Honnef	09/01/2020, 00:00:00	50.64336	7.2278	accep
Europe/Moscow	Malakhovka	2019/10/23	55.64776	38.02486	maintenance
Europe/Minsk	Vitebsk	2016/02/24	55.1904	30.2049	accep
America/Chicago	Grand Forks	2014/05/06	47.92526	-97.03285	good
Africa/Lagos	Gaya	2018/09/03	11.86064	9.0027	good
Europe/Istanbul	Patnos	18 Sep 2016	39.22493	42.85693	good
Asia/Seoul	Sinhyeon	2014-08-27	34.8825	128.62667	accep
America/New_York	Lutz	03/14/2013, 00:00:00	28.15112	-82.46148	building
Europe/Paris	Fontenay-aux-Roses	09/27/2018, 00:00:00	48.79325	2.29275	good
Europe/Amsterdam	Culemborg	06/19/2014, 00:00:00	51.955	5.22778	good
Africa/Mogadishu	Kismayo	2014-08-08	-0.35817	42.54536	building
Europe/Kiev	Zvenihorodka	2022/06/15	49.07866	30.96755	average
Asia/Manila	Baliuag	2015-07-26	14.95472	120.89694	accep
Asia/Shanghai	Pucheng	2012-10-12	27.92333	118.53333	excellent
Europe/Moscow	Tyoply Stan	01/06/2017, 00:00:00	55.62047	37.49338	building
Europe/Paris	Colomiers	2020/03/01	43.61058	1.33467	excellent
Asia/Manila	Jagna	11/16/2018, 00:00:00	9.6531	124.3697	excellent
America/Toronto	Beaconsfield	2014-05-14	45.43341	-73.86586	excellent
Asia/Colombo	Dehiwala-Mount Lavinia	2021-09-18	6.84019	79.87116	excellent
Europe/Rome	Misterbianco	2018-10-27	37.51803	15.00913	accep
America/Panama	Chilibre	2016/05/15	9.15093	-79.62098	accep
Europe/Oslo	Harstad	2020/12/26	68.79833	16.54165	excellent
Europe/Madrid	Leioa	06/08/2019, 00:00:00	43.32686	-2.98884	good
Asia/Kolkata	Malaut	2014/02/09	30.21121	74.4818	good
Asia/Shanghai	Meizhou	01 Dec 2015	24.28859	116.11768	accep
America/Chicago	Fresno	2022/02/02	29.53885	-95.44744	excellent
Europe/Rome	Somma Vesuviana	2015/03/22	40.87329	14.43865	excellent
Europe/Brussels	Beveren	2012/12/30	51.21187	4.25633	accep
America/Lima	Minas de Marcona	2021-10-29	-15.21194	-75.11028	good
Africa/Algiers	Frenda	06 Jan 2017	35.06544	1.04945	good
Asia/Karachi	Qadirpur Ran	17 Sep 2018	30.29184	71.67164	maintenance
Asia/Kolkata	Pandua	08/21/2015, 00:00:00	23.07492	88.28637	accep
Europe/Paris	Arles	06/02/2015, 00:00:00	43.67681	4.63031	good
America/Mexico_City	Teziutlan	01/04/2020, 00:00:00	19.8173	-97.35992	average
America/Mexico_City	Tuxtla	2019-06-12	16.75973	-93.11308	excellent
Pacific/Auckland	Gisborne	08/15/2013, 00:00:00	-38.65333	178.00417	good
America/Mexico_City	Jocotepec	05 May 2016	20.28527	-103.42897	excellent
America/New_York	Peabody	2012/11/23	42.52787	-70.92866	good
Europe/Berlin	Gronau	18 Nov 2018	52.21099	7.02238	maintenance
Asia/Kolkata	Kundla	2015-06-05	21.34222	71.30633	building
Europe/Paris	Dax	2015/05/15	43.71032	-1.05366	accep
Africa/Nairobi	Busia	09/05/2015, 00:00:00	0.46005	34.11169	accep
America/Chicago	Schererville	24 Oct 2012	41.47892	-87.45476	average
Asia/Kolkata	Sheoganj	08/11/2018, 00:00:00	25.13915	73.06784	maintenance
Asia/Yekaterinburg	Oktyabr‚Äôskiy	2019/01/08	54.48147	53.47103	building
Africa/Luanda	Luena	19 Sep 2019	-11.78333	19.91667	excellent
Europe/Berlin	Losheim	12 Oct 2020	49.5099	6.74549	average
Europe/Berlin	Bensheim	06 Sep 2016	49.68369	8.61839	average
Europe/Madrid	Segundo Ensanche	10/14/2019, 00:00:00	42.8139	-1.64295	accep
Europe/Zagreb	Split	07 May 2020	43.50891	16.43915	accep
America/New_York	Cypress Hills	01/29/2018, 00:00:00	40.67705	-73.89125	maintenance
America/Los_Angeles	Visitacion Valley	2018-06-28	37.71715	-122.40433	accep
Europe/Madrid	Talavera de la Reina	05/05/2020, 00:00:00	39.96348	-4.83076	excellent
Europe/Warsaw	Brzeg	2019-10-05	50.86079	17.4674	excellent
Asia/Kolkata	Chharra	2013/05/10	27.9247	78.40102	excellent
Europe/Berlin	Albstadt	2019-10-15	48.21644	9.02596	average
Africa/Algiers	Messaad	08/29/2021, 00:00:00	34.15429	3.50309	maintenance
Europe/Oslo	Harstad	2014/12/01	68.79833	16.54165	good
Asia/Kolkata	Dombivli	2018/05/31	19.21667	73.08333	good
Asia/Karachi	Alipur	2015-12-03	29.38242	70.91106	accep
America/Mexico_City	Tuxtla	17 May 2018	16.75973	-93.11308	good
Europe/Rome	Villabate	2019/10/18	38.07789	13.44275	maintenance
Africa/Gaborone	Tonota	06/24/2020, 00:00:00	-21.44236	27.46153	good
Africa/Lagos	Gaya	02/04/2016, 00:00:00	11.86064	9.0027	maintenance
Europe/Amsterdam	Schiebroek	2019-02-27	51.95838	4.47124	accep
Europe/London	East Dereham	2018/07/05	52.68333	0.93333	average
Europe/Rome	Campobasso	01 Jun 2022	41.55947	14.66737	accep
Europe/Prague	Most	01/17/2020, 00:00:00	50.50301	13.63617	building
Africa/Algiers	Bordj Zemoura	2016/10/18	36.27462	4.85668	excellent
Africa/Ndjamena	Mongo	07/19/2022, 00:00:00	12.18441	18.69303	excellent
Europe/Moscow	Shushary	2015/04/09	59.80917	30.38167	good
Europe/Berlin	Bensheim	2019/07/02	49.68369	8.61839	accep
Asia/Makassar	Majene	2017/10/13	-3.5403	118.9707	accep
America/Menominee	Iron River	30 Sep 2015	46.09273	-88.64235	maintenance
Europe/London	Lymington	16 Dec 2013	50.75767	-1.5443	average
America/Los_Angeles	North Tustin	2014/08/21	33.76446	-117.79394	building
Europe/London	Poulton-le-Fylde	01/31/2013, 00:00:00	53.83333	-2.98333	excellent
America/Chicago	Fairview Heights	2020-10-14	38.58894	-89.99038	average
Africa/Addis_Ababa	Arba Minch	29 Aug 2019	6.03333	37.55	good
Europe/Paris	Lons-le-Saunier	2019/05/23	46.67535	5.55575	average
Asia/Tokyo	Ina	15 Oct 2021	35.82756	137.95378	good
America/Maceio	Barra dos Coqueiros	10 Dec 2015	-10.90889	-37.03861	average
America/New_York	Stockbridge	06/10/2021, 00:00:00	33.54428	-84.23381	good
Asia/Kabul	Sar-e Pul	2021/09/30	36.21544	65.93249	average
Asia/Kolkata	Hungund	2013/09/15	16.06213	76.0586	excellent
Asia/Tokyo	Nonoichi	2016/02/28	36.53333	136.61667	good
Europe/London	High Wycombe	2014/12/19	51.62907	-0.74934	average
Asia/Tokyo	Annaka	15 Jan 2014	36.33011	138.89585	maintenance
America/New_York	Lutz	01/24/2015, 00:00:00	28.15112	-82.46148	building
Asia/Bangkok	Phanat Nikhom	2019/11/24	13.44581	101.18445	excellent
America/Recife	Cabo	12/21/2020, 00:00:00	-8.28333	-35.03333	building
Europe/Berlin	Schleswig	2018/12/08	54.52156	9.5586	average
Asia/Kolkata	Dalsingh Sarai	2021/01/07	25.66795	85.83636	excellent
Europe/Rome	Agrigento	05/12/2018, 00:00:00	37.31065	13.57661	building
Asia/Dili	Maliana	04/29/2022, 00:00:00	-8.99167	125.21972	accep
America/Los_Angeles	Watsonville	18 Jan 2015	36.91023	-121.75689	average
America/New_York	Morningside Heights	2022/04/02	40.81	-73.9625	good
America/Chicago	Schererville	2015-11-15	41.47892	-87.45476	average
Europe/Rome	Francavilla Fontana	2019/05/22	40.53123	17.58522	good
Asia/Shanghai	Heyuan	2016/06/14	23.73333	114.68333	average
Asia/Kolkata	Puducherry	06/02/2019, 00:00:00	11.93381	79.82979	good
Europe/Rome	Malnate	21 Dec 2014	45.79377	8.88104	good
Europe/Berlin	Aschaffenburg	06 May 2013	49.97704	9.15214	acceptable
America/Los_Angeles	Camarillo	2019-12-12	34.21639	-119.0376	good
Europe/Moscow	Kolomyagi	2018/09/23	60.02427	30.28491	building
America/Fortaleza	Barras	2012/11/07	-4.24444	-42.29444	good
Asia/Damascus	Tadmur	12/14/2013, 00:00:00	34.5624	38.28402	excellent
Europe/Berlin	Halstenbek	20 Oct 2013	53.63333	9.85	average
Asia/Karachi	Tharu Shah	2020-10-27	26.9423	68.11759	maintenance
Europe/Berlin	Gauting	2017/06/20	48.06919	11.37703	accep
Europe/Belgrade	Glogovac	07/10/2018, 00:00:00	42.62833	20.89389	excellent
Africa/Kigali	Rwamagana	2018-07-20	-1.9487	30.4347	excellent
Europe/Copenhagen	Frederiksberg	2016/09/12	55.67938	12.53463	excellent
Asia/Kolkata	Parola	2013/09/22	20.88098	75.11937	building
Asia/Tehran	Shahre Jadide Andisheh	08/18/2014, 00:00:00	35.6803	51.0193	average
Africa/Brazzaville	Brazzaville	03/17/2017, 00:00:00	-4.26613	15.28318	accep
Asia/Shanghai	Zhuangyuan	2018-02-02	37.30553	120.82747	average
Europe/Zaporozhye	Polohy	11/02/2021, 00:00:00	47.48444	36.25361	average
Europe/Helsinki	Espoo	2021/04/20	60.2052	24.6522	excellent
Asia/Baku	Qazax	2016/11/04	41.09246	45.36561	good
Europe/London	Newbury	07/13/2021, 00:00:00	51.40148	-1.32471	excellent
Europe/London	Barnet	2019-07-15	51.65	-0.2	good
Europe/London	Exeter	2020-11-21	50.7236	-3.52751	excellent
Europe/Moscow	Arzamas	11/11/2016, 00:00:00	55.39485	43.83992	accep
Africa/Lagos	Yenagoa	2019/07/03	4.92675	6.26764	good
America/Sao_Paulo	Palmeira	2017-10-25	-25.42944	-50.00639	excellent
Europe/London	East Dereham	05 Jan 2016	52.68333	0.93333	accep
Europe/Rome	Sassari	2014-01-04	40.72586	8.55552	average
America/Lima	Chosica	2012/11/04	-11.94306	-76.70944	average
America/Indiana/Indianapolis	Greenfield	17 May 2013	39.78504	-85.76942	maintenance
Europe/Rome	Novara	26 Dec 2015	45.44694	8.62118	good
Asia/Jakarta	Sukabumi	2014-05-13	-6.91806	106.92667	good
Europe/Kiev	Nova Kakhovka	29 Feb 2016	46.75451	33.34864	maintenance
Asia/Kolkata	Barbil	24 Jul 2022	22.10194	85.37752	building
Europe/Madrid	Amposta	2021/06/20	40.70995	0.57856	excellent
America/Mazatlan	Acaponeta	2018/08/12	22.49396	-105.36369	good
America/Los_Angeles	Porterville	2022/05/29	36.06523	-119.01677	good
America/Caracas	Tinaquillo	2020/02/08	9.91861	-68.30472	average
Asia/Kolkata	Deoli	04/03/2017, 00:00:00	25.75728	75.37991	average
America/New_York	Sun City Center	2014/09/02	27.71809	-82.35176	good
Asia/Kolkata	Kundla	12/03/2017, 00:00:00	21.34222	71.30633	good
Europe/Paris	Marly-le-Roi	03/23/2016, 00:00:00	48.86667	2.08333	good
America/Fortaleza	Guaraciaba do Norte	08 Mar 2013	-4.16694	-40.7475	excellent
Europe/Moscow	Solntsevo	03/30/2013, 00:00:00	55.63711	37.38115	good
Asia/Karachi	Sillanwali	16 May 2015	31.82539	72.54064	maintenance
America/Chicago	Jackson	15 Sep 2019	35.61452	-88.81395	maintenance
America/Guayaquil	Milagro	04 Apr 2013	-2.13404	-79.59415	good
Asia/Novokuznetsk	Yashkino	2013/03/18	55.8736	85.4265	accep
America/Sao_Paulo	Itabirito	2020-04-06	-20.25333	-43.80139	good
America/Sao_Paulo	Carlos Barbosa	08/07/2019, 00:00:00	-29.2975	-51.50361	good
Asia/Tokyo	Toba	10/20/2014, 00:00:00	34.4833	136.84186	accep
America/Matamoros	Heroica Matamoros	2018-01-08	25.87972	-97.50417	building
Europe/Sarajevo	Bijeljina	2015/12/09	44.75874	19.21437	building
Europe/Moscow	Roslavl‚Äô	07 Mar 2022	53.95278	32.86389	average
America/Toronto	Markham	2020/03/19	43.86682	-79.2663	good
Europe/Berlin	Hofheim am Taunus	09/16/2020, 00:00:00	50.09019	8.4493	excellent
Africa/Lagos	Efon-Alaaye	14 May 2019	7.65649	4.92235	average
America/Argentina/Buenos_Aires	Chacabuco	2013/06/29	-34.64167	-60.47389	accep
America/Los_Angeles	Norco	02 May 2013	33.93113	-117.54866	excellent
Asia/Manila	Calauan	2012-12-01	14.14989	121.3152	average
Africa/Dar_es_Salaam	Magomeni	2022/09/09	-6.8	39.25	good
America/Los_Angeles	Indio	2013/04/17	33.7207	-116.21677	good
Africa/Lagos	Nkpor	2018-11-09	6.15038	6.83042	maintenance
Europe/Rome	Catania	2019-05-02	37.49223	15.07041	maintenance
Europe/Moscow	Kovylkino	2017-02-19	54.03876	43.91385	excellent
Asia/Tokyo	Kamakura	19 Aug 2014	35.30889	139.55028	good
Europe/Paris	Montpellier	2021/01/19	43.61092	3.87723	accep
America/Argentina/Buenos_Aires	Chacabuco	10/04/2013, 00:00:00	-34.64167	-60.47389	average
Africa/Lagos	Kafanchan	03 Apr 2022	9.58126	8.2926	excellent
Europe/Istanbul	Bergama	2022/05/31	39.12074	27.18052	excellent
America/Tegucigalpa	Olanchito	27 Feb 2021	15.48131	-86.57415	average
Europe/London	Rutherglen	2015/09/18	55.82885	-4.21376	average
Asia/Karachi	Hasilpur	12/07/2012, 00:00:00	29.69221	72.54566	excellent
Asia/Tokyo	Toyokawa	2016-09-04	34.81667	137.4	good
America/Matamoros	Heroica Matamoros	08 Jul 2017	25.87972	-97.50417	average
Europe/Rome	Castelfranco Emilia	09/10/2016, 00:00:00	44.59445	11.04979	excellent
Asia/Kolkata	Gingee	09/02/2019, 00:00:00	12.25282	79.41727	excellent
Europe/Sofia	Smolyan	14 Apr 2016	41.57439	24.71204	good
Europe/Brussels	Houthalen	2021-11-01	51.03427	5.37429	accep
Europe/Berlin	Burscheid	2017/06/20	51.08468	7.11393	average
Asia/Bangkok	Damnoen Saduak	04/26/2013, 00:00:00	13.51825	99.95469	excellent
Europe/Moscow	Shushary	02/09/2019, 00:00:00	59.80917	30.38167	good
Europe/London	Devizes	2012/10/09	51.35084	-1.99421	good
Europe/Berlin	Memmingen	2016/02/11	47.98372	10.18527	accep
Pacific/Port_Moresby	Mount Hagen	12/17/2021, 00:00:00	-5.85746	144.23058	excellent
Asia/Baku	Astara	2021-12-24	38.45598	48.87498	good
America/Los_Angeles	South Whittier	2013/03/27	33.95015	-118.03917	excellent
Europe/Prague	Most	08/27/2014, 00:00:00	50.50301	13.63617	building
America/Mexico_City	Acayucan	23 Jun 2014	17.94979	-94.91386	accep
Europe/Paris	Bron	2013-06-24	45.73333	4.91667	building
Europe/Berlin	Korschenbroich	22 Jun 2014	51.19139	6.51352	accep
Asia/Kolkata	Barpeta	2017/03/27	26.32293	91.00632	accep
Europe/Madrid	Leioa	2019-10-23	43.32686	-2.98884	average
Asia/Yekaterinburg	Tavda	12/20/2017, 00:00:00	58.04254	65.27258	good
Europe/London	Hartley	2019-12-11	51.38673	0.30367	good
Europe/Kiev	Lutsk	24 Aug 2017	50.75932	25.34244	average
Africa/Algiers	Beni Douala	09/03/2017, 00:00:00	36.61954	4.08282	accep
America/Lima	Yunguyo	2020/01/17	-16.25	-69.08333	accep
America/Sao_Paulo	Santa Gertrudes	01/10/2020, 00:00:00	-22.45667	-47.53028	excellent
America/Lima	Yunguyo	2020/09/20	-16.25	-69.08333	average
Asia/Shanghai	Changzhi	02/07/2022, 00:00:00	35.20889	111.73861	building
Europe/Zaporozhye	Polohy	13 Aug 2013	47.48444	36.25361	accep
Europe/Paris	Herblay	2020-07-06	48.98994	2.1699	maintenance
Europe/Zurich	Onex	2018/08/24	46.18396	6.10237	excellent
America/Mexico_City	Santa Rosa Jauregui	06 Mar 2019	20.74122	-100.44843	accep
America/New_York	Kendall	11/22/2020, 00:00:00	25.67927	-80.31727	average
America/New_York	Sicklerville	03/20/2014, 00:00:00	39.71734	-74.96933	excellent
Africa/Kigali	Rwamagana	03 Sep 2019	-1.9487	30.4347	average
America/Chicago	Schererville	12/06/2014, 00:00:00	41.47892	-87.45476	accep
America/Port-au-Prince	Thomazeau	2018-07-25	18.65297	-72.09391	average
America/Costa_Rica	San Rafael	24 May 2017	9.92787	-84.13722	average
America/Los_Angeles	Aloha	2021/08/19	45.49428	-122.86705	good
Africa/Conakry	Camayenne	2017-01-10	9.535	-13.68778	maintenance
Europe/Moscow	Severodvinsk	2015-01-31	64.5635	39.8302	excellent
America/Chicago	Coralville	11/02/2015, 00:00:00	41.6764	-91.58045	good
Africa/Dar_es_Salaam	Usagara	22 Sep 2013	-2.68333	33	excellent
Asia/Yekaterinburg	Beryozovsky	07 Mar 2022	56.9083	60.8019	excellent
Europe/Rome	Tortona	2015-02-08	44.89784	8.86374	average
Asia/Tokyo	Shinshiro	2022/08/01	34.9	137.5	acceptable
America/Chicago	Pleasant Prairie	2013-12-03	42.55308	-87.93341	accep
Europe/Moscow	Gudermes	2013/10/09	43.35071	46.10925	average
Europe/Moscow	Naro-Fominsk	2015-05-20	55.38752	36.73307	accep
Asia/Krasnoyarsk	Sharypovo	18 Jan 2014	55.54028	89.20083	good
Europe/Rome	Misterbianco	12 Jul 2020	37.51803	15.00913	maintenance
Europe/Berlin	Hofheim am Taunus	11 Jan 2015	50.09019	8.4493	average
Asia/Kuala_Lumpur	Kulai	05/08/2021, 00:00:00	1.6561	103.6032	excellent
America/Lima	Minas de Marcona	26 Apr 2018	-15.21194	-75.11028	building
Europe/Madrid	Gernika-Lumo	2019-09-15	43.31667	-2.68333	excellent
America/New_York	Palm Valley	2017/02/24	30.17746	-81.38758	excellent
Asia/Baku	Astara	01 Jun 2017	38.45598	48.87498	average
Indian/Antananarivo	Sakaraha	12 Mar 2014	-22.9	44.53333	excellent
Asia/Shanghai	Tianfu	2016-05-26	37.19723	122.05228	good
Europe/Berlin	Stuttgart	01/06/2021, 00:00:00	48.78232	9.17702	maintenance
America/New_York	Kensington	13 Jul 2019	40.64621	-73.97069	maintenance
Europe/Istanbul	Aksaray	09/05/2016, 00:00:00	38.37255	34.02537	good
Europe/London	Devizes	2017-09-24	51.35084	-1.99421	accep
America/Sao_Paulo	Itaperuna	08/21/2015, 00:00:00	-21.205	-41.88778	average
Europe/Berlin	Hofheim am Taunus	2022/04/10	50.09019	8.4493	average
Asia/Yekaterinburg	Tavda	2018/04/11	58.04254	65.27258	building
Europe/Madrid	Jumilla	19 Oct 2017	38.47917	-1.325	average
Europe/Berlin	Halstenbek	2012-11-05	53.63333	9.85	building
Europe/Brussels	Temse	2021-12-15	51.12794	4.21372	average
America/Managua	Jinotepe	2013/11/16	11.84962	-86.19903	excellent
Europe/Istanbul	Silvan	2019/05/18	38.13708	41.00817	good
Asia/Yekaterinburg	Oktyabr‚Äôskiy	03/11/2020, 00:00:00	54.48147	53.47103	excellent
Europe/Rome	Malnate	05/24/2013, 00:00:00	45.79377	8.88104	building
Europe/Paris	Rueil-Malmaison	2012/11/13	48.8765	2.18967	accep
America/Chicago	Tupelo	07/12/2017, 00:00:00	34.25807	-88.70464	excellent
Europe/Berlin	Oschatz	2021/02/20	51.30001	13.10984	maintenance
Europe/London	Clacton-on-Sea	2016-11-03	51.78967	1.15597	excellent
Europe/Berlin	Dahlem	31 Oct 2014	52.4581	13.28702	good
Europe/Rome	Afragola	11/17/2014, 00:00:00	40.92298	14.30935	building
Asia/Jakarta	Cibinong	2013/01/28	-6.48167	106.85417	maintenance
America/Bahia	Canavieiras	31 Aug 2013	-15.675	-38.94722	good
Europe/Moscow	Kolomyagi	2019/03/08	60.02427	30.28491	good
Europe/Paris	Arles	2020-03-18	43.67681	4.63031	average
Europe/Zurich	Onex	04 Sep 2015	46.18396	6.10237	good
America/Matamoros	Heroica Matamoros	2014/08/11	25.87972	-97.50417	excellent
Asia/Baghdad	Karbala	02/13/2019, 00:00:00	32.61603	44.02488	average
Africa/Niamey	Mirriah	2021/10/01	13.70727	9.15013	good
Europe/Paris	Les Olives	02/14/2017, 00:00:00	43.32393	5.4584	good
America/Detroit	Port Huron	16 Jun 2015	42.97086	-82.42491	good
America/Panama	Veracruz	25 Jun 2018	8.88988	-79.62603	excellent
Asia/Kolkata	Kundla	2019/04/04	21.34222	71.30633	accep
America/Bahia	Rio Real	2018/12/27	-11.48472	-37.93278	good
Asia/Bangkok	Nakhon Si Thammarat	2017/05/11	8.43333	99.96667	building
America/Argentina/Cordoba	Rafaela	03/15/2022, 00:00:00	-31.25033	-61.4867	accep
Europe/Moscow	Alatyr‚Äô	11/25/2013, 00:00:00	54.8421	46.5813	good
Europe/Paris	Bar-le-Duc	2016-09-06	48.77275	5.16108	maintenance
Africa/Mogadishu	Baki	2020-11-02	9.89206	43.38531	accep
America/Sao_Paulo	Esmeraldas	2016/05/10	-19.7625	-44.31389	excellent
Asia/Shanghai	Pucheng	06/03/2016, 00:00:00	27.92333	118.53333	building
Africa/Johannesburg	Standerton	2020/05/01	-26.93366	29.24152	excellent
America/Havana	Media Luna	10/21/2016, 00:00:00	20.14298	-77.43532	good
Africa/Tunis	Msaken	2015/11/24	35.72917	10.58082	good
Europe/Madrid	Amposta	2021/09/06	40.70995	0.57856	excellent
America/Sao_Paulo	Soledade	26 Jul 2015	-28.81833	-52.51028	excellent
Europe/Berlin	Zeitz	17 Nov 2021	51.04962	12.1369	average
Europe/Moscow	Malakhovka	12/09/2020, 00:00:00	55.64776	38.02486	excellent
Europe/Rome	Malnate	2014-12-01	45.79377	8.88104	maintenance
America/Havana	Boyeros	04/13/2019, 00:00:00	23.0072	-82.4017	average
Europe/Istanbul	Gaziantep	01/05/2017, 00:00:00	37.05944	37.3825	accep
Asia/Barnaul	Novosilikatnyy	08/18/2018, 00:00:00	53.30972	83.62389	good
Asia/Manila	Baliuag	2016/04/27	14.95472	120.89694	excellent
Europe/Berlin	Barmbek-Nord	03 Dec 2021	53.6052	10.03988	maintenance
Africa/Lagos	Shagamu	2020/05/31	6.8485	3.64633	average
Europe/Berlin	Losheim	2022-05-26	49.5099	6.74549	excellent
Africa/Windhoek	Okahandja	2014-04-25	-21.98333	16.91667	accep
Asia/Karachi	Kot Addu	2015/02/03	30.46907	70.96699	maintenance
Europe/Zagreb	Split	17 Mar 2018	43.50891	16.43915	average
Asia/Manila	Masbate	22 Oct 2021	12.37169	123.62494	excellent
Asia/Phnom_Penh	Paoy Paet	2020-03-03	13.65805	102.56365	excellent
America/Bogota	San Carlos	2015/05/27	8.79577	-75.69947	accep
Asia/Kolkata	Kalavoor	12/01/2019, 00:00:00	9.57046	76.32756	average
America/Guatemala	Chichicastenango	02/22/2017, 00:00:00	14.93333	-91.11667	excellent
Europe/Paris	Rueil-Malmaison	2017/02/23	48.8765	2.18967	average
Europe/Zaporozhye	Polohy	01/03/2018, 00:00:00	47.48444	36.25361	average
America/Bogota	El Copey	2019/05/18	10.15031	-73.9614	accep
America/Los_Angeles	Aloha	03/12/2018, 00:00:00	45.49428	-122.86705	excellent
Europe/Helsinki	Tornio	2016/04/08	65.84811	24.14662	building
America/Chicago	Crystal Lake	09/08/2022, 00:00:00	42.24113	-88.3162	average
Europe/Paris	Pamiers	05/01/2021, 00:00:00	43.11667	1.6	excellent
America/New_York	Collinwood	10/21/2013, 00:00:00	41.55838	-81.56929	maintenance
America/Chicago	Grand Forks	2015/10/14	47.92526	-97.03285	good
Africa/Lagos	Ilesa	10 Apr 2014	7.62789	4.74161	accep
Europe/Amsterdam	Zeist	14 May 2013	52.09	5.23333	accep
America/New_York	Waterbury	02/18/2015, 00:00:00	41.55815	-73.0515	good
Pacific/Auckland	Timaru	2017/04/10	-44.39672	171.25364	accep
Asia/Shanghai	Tianfu	08/05/2020, 00:00:00	37.19723	122.05228	average
Asia/Manila	Pilar	2014-08-11	14.66	120.56528	average
Europe/Berlin	Oberhausen	2017-08-19	51.47805	6.8625	good
America/New_York	Sicklerville	10/21/2014, 00:00:00	39.71734	-74.96933	maintenance
America/Argentina/Ushuaia	Ushuaia	2014-05-16	-54.8	-68.3	excellent
Europe/Oslo	Harstad	2014/03/20	68.79833	16.54165	building
America/Los_Angeles	Lompoc	25 Nov 2018	34.63915	-120.45794	excellent
Europe/Istanbul	Bergama	22 Dec 2015	39.12074	27.18052	good
Asia/Shanghai	Longgang	03/31/2016, 00:00:00	37.65181	120.33063	maintenance
Europe/Paris	Montpellier	2014/09/08	43.61092	3.87723	good
America/Chicago	Copperas Cove	03/17/2020, 00:00:00	31.12406	-97.90308	average
America/Chicago	Lower West Side	02/22/2021, 00:00:00	41.8542	-87.66561	accep
Africa/Bamako	Kati	01 Jan 2017	12.74409	-8.07257	average
America/Sao_Paulo	Valinhos	2020-05-12	-22.97056	-46.99583	excellent
America/Puerto_Rico	Yauco	2018-07-31	18.03496	-66.8499	building
America/El_Salvador	Ilopango	2020/09/15	13.70167	-89.10944	good
Europe/Berlin	Reutlingen	04 Aug 2020	48.49144	9.20427	building
Africa/Freetown	Freetown	2018/05/17	8.48714	-13.2356	excellent
Asia/Shanghai	Jiangyan	18 Apr 2020	32.50611	120.14278	excellent
America/New_York	Bon Air	2019-09-07	37.52487	-77.55777	building
America/New_York	Palm Valley	07 Aug 2022	30.17746	-81.38758	accep
America/New_York	Toledo	22 Apr 2021	41.66394	-83.55521	maintenance
Asia/Yangon	Myawadi	29 May 2021	16.68911	98.50893	good
Europe/Moscow	Yablonovskiy	2012-09-29	44.98901	38.94324	excellent
Europe/Istanbul	Edremit	20 Sep 2020	39.59611	27.02444	accep
America/New_York	Middletown	2016-02-09	41.54566	-71.29144	average
Asia/Shanghai	Jingzhou	2021/03/06	30.35028	112.19028	building
Europe/Helsinki	Kallio	05/25/2017, 00:00:00	60.18427	24.95034	maintenance
Asia/Kolkata	Srinagar	2017/07/05	34.08565	74.80555	accep
Africa/Porto-Novo	Tchaourou	2019-07-05	8.88649	2.59753	good
Europe/Paris	Elbeuf	2019/07/26	49.28669	1.00288	average
Europe/Moscow	Arzamas	01 Nov 2016	55.39485	43.83992	average
Europe/Berlin	Rudolstadt	02 Dec 2018	50.72043	11.34046	excellent
Europe/Moscow	Valday	2015/01/10	57.97472	33.2525	good
Europe/London	Viewpark	2015/01/24	55.82737	-4.0573	excellent
Europe/London	Clacton-on-Sea	2014-07-17	51.78967	1.15597	excellent
America/New_York	Gainesville	2019-12-29	29.65163	-82.32483	good
Africa/Lagos	Igbara-Odo	2017/02/20	7.50251	5.06258	good
Asia/Kolkata	Leteri	12/14/2021, 00:00:00	24.05979	77.40858	good
Africa/Porto-Novo	Tchaourou	27 Mar 2021	8.88649	2.59753	good
Asia/Shanghai	Hushitai	2016-09-17	41.94175	123.50266	accep
Europe/London	Strood	02/24/2020, 00:00:00	51.39323	0.47713	average
America/Chicago	Columbia Heights	06/25/2014, 00:00:00	45.0408	-93.263	average
Asia/Kuala_Lumpur	Batu Feringgi	2016-01-07	5.4709	100.24529	average
Europe/Paris	Le Chesnay	08/14/2015, 00:00:00	48.8222	2.12213	building
Europe/London	Gainsborough	2017-02-25	53.38333	-0.76667	maintenance
America/Mexico_City	Zacoalco de Torres	16 May 2022	20.22816	-103.5687	accep
Asia/Tokyo	Yamada	08/26/2019, 00:00:00	39.46667	141.95	maintenance
Europe/Brussels	Houthalen	15 Nov 2014	51.03427	5.37429	average
Europe/Berlin	Ehingen	09 Oct 2017	48.28259	9.72749	accep
America/Phoenix	Gilbert	06/29/2017, 00:00:00	33.35283	-111.78903	maintenance
Europe/Rome	Chiavari	2013/02/14	44.31771	9.32241	excellent
America/Caracas	Barinas	2016-11-22	8.62261	-70.20749	good
Europe/Kiev	Krasyliv	03/30/2020, 00:00:00	49.65186	26.97253	good
Asia/Samarkand	Jizzax	2015/02/06	40.11583	67.84222	excellent
Asia/Kolkata	Sathyamangalam	2016-12-26	11.50526	77.23826	excellent
Asia/Shanghai	Sishui	2015-03-05	35.64889	117.27583	building
Asia/Yekaterinburg	Kuvandyk	2014/10/07	51.4781	57.3552	average
Asia/Almaty	Otegen Batyra	06/25/2019, 00:00:00	43.41949	77.0202	accep
Europe/Paris	Saint-Genis-Laval	2013-06-07	45.69558	4.7934	building
America/New_York	Kendall	2015/09/20	25.67927	-80.31727	excellent
Asia/Manila	Calauan	06/06/2015, 00:00:00	14.14989	121.3152	excellent
Europe/Madrid	Baza	2015-11-10	37.49073	-2.77259	maintenance
Asia/Dili	Maliana	2018/02/12	-8.99167	125.21972	maintenance
Africa/Abidjan	Bonoua	2015-11-07	5.27247	-3.59625	excellent
America/Chicago	Crystal Lake	2016-02-12	42.24113	-88.3162	average
America/Havana	Media Luna	17 Apr 2017	20.14298	-77.43532	excellent
America/Mexico_City	Paracho de Verduzco	2014-01-15	19.64745	-102.04897	excellent
America/New_York	Dublin	2017-03-06	32.54044	-82.90375	excellent
Europe/London	Blackpool	01/25/2016, 00:00:00	53.81667	-3.05	excellent
Asia/Kolkata	Osmanabad	01/30/2013, 00:00:00	18.18158	76.03889	building
America/Chicago	Estelle	11 May 2019	29.84576	-90.10674	good
America/Argentina/Buenos_Aires	Pontevedra	22 Jul 2017	-34.74785	-58.70072	good
Europe/London	Mexborough	02/24/2019, 00:00:00	53.49389	-1.29243	average
Europe/Dublin	An Muileann gCearr	2017-09-25	53.53333	-7.35	maintenance
Africa/Accra	Tarkwa	31 Aug 2015	5.30383	-1.98956	building
America/Mexico_City	San Lorenzo Acopilco	2016/09/26	19.32889	-99.32556	average
Asia/Jerusalem	Ramla	02/12/2018, 00:00:00	31.92923	34.86563	building
Africa/Lubumbashi	Beni	2016-01-15	0.49113	29.47306	excellent
Europe/Rome	San Giuliano Milanese	01/20/2017, 00:00:00	45.39402	9.29109	good
America/Detroit	Port Huron	19 Feb 2018	42.97086	-82.42491	excellent
Asia/Kolkata	Gajendragarh	2022-02-24	15.73628	75.96976	excellent
Asia/Shanghai	Changshu City	02/12/2022, 00:00:00	31.64615	120.74221	excellent
Europe/Berlin	Barmbek-Nord	24 Dec 2021	53.6052	10.03988	building
Europe/Zurich	Onex	08 Jul 2019	46.18396	6.10237	average
Africa/Dar_es_Salaam	Mwandiga	22 Jun 2021	-4.83	29.65806	average
America/Lima	Minas de Marcona	02/24/2014, 00:00:00	-15.21194	-75.11028	excellent
America/Sao_Paulo	Carlos Barbosa	11/14/2013, 00:00:00	-29.2975	-51.50361	maintenance
America/Sao_Paulo	Esmeraldas	11/22/2020, 00:00:00	-19.7625	-44.31389	good
Europe/Berlin	Losheim	2015/07/23	49.5099	6.74549	average
Europe/Minsk	Dobrush	23 May 2020	52.4089	31.3237	building
Europe/Belgrade	Negotin	03 Feb 2021	44.22639	22.53083	building
Africa/Kampala	Arua	02/18/2021, 00:00:00	3.02013	30.91105	maintenance
America/Chicago	Pekin	06/26/2021, 00:00:00	40.56754	-89.64066	good
Europe/Rome	Tortona	2015/06/06	44.89784	8.86374	average
Asia/Tokyo	Shinshiro	11 Oct 2016	34.9	137.5	good
America/Los_Angeles	Bothell West	2014-05-07	47.80527	-122.24064	average
Asia/Hong_Kong	Tsuen Wan	03 Jun 2014	22.37066	114.10479	building
Europe/Zaporozhye	Svatove	02/17/2021, 00:00:00	49.41029	38.15035	excellent
Asia/Manila	Tupi	04 Nov 2014	6.33444	124.95278	excellent
Asia/Tehran	Isfahan	2020/12/11	32.65246	51.67462	accep
Africa/Nairobi	Busia	2021/09/08	0.46005	34.11169	average
America/Bogota	Socorro	01 Oct 2013	6.46838	-73.26022	good
America/New_York	Sicklerville	2017/04/21	39.71734	-74.96933	excellent
America/Los_Angeles	Mira Mesa	03 Jun 2020	32.9156	-117.14392	average
Europe/Minsk	Vitebsk	2014-02-07	55.1904	30.2049	average
Asia/Bangkok	Damnoen Saduak	27 Aug 2021	13.51825	99.95469	good
America/Chicago	Ada	2013/04/16	34.77453	-96.67834	good
Asia/Jakarta	Ngemplak	09/15/2022, 00:00:00	-7.54972	110.71639	excellent
America/Los_Angeles	Indio	2018/04/28	33.7207	-116.21677	average
Europe/Istanbul	Serinhisar	2013/09/05	37.58105	29.26639	good
Europe/Berlin	Hofheim am Taunus	2012/12/20	50.09019	8.4493	building
America/Vancouver	Vernon	26 Jul 2020	50.26729	-119.27337	building
Asia/Bangkok	Damnoen Saduak	08/25/2020, 00:00:00	13.51825	99.95469	good
Europe/Rome	Misterbianco	2020/07/19	37.51803	15.00913	accep
Europe/London	Winsford	2015-09-15	53.19146	-2.52398	excellent
America/New_York	Dumont	13 Dec 2018	40.94065	-73.99681	accep
Asia/Tokyo	Motomachi	01/24/2017, 00:00:00	43.82634	144.09638	average
Europe/Madrid	Segundo Ensanche	23 Feb 2016	42.8139	-1.64295	average
Asia/Kolkata	Pune	2021-01-30	18.51957	73.85535	average
Asia/Colombo	Dehiwala-Mount Lavinia	12 Aug 2013	6.84019	79.87116	accep
America/Toronto	Dorval	2018/08/14	45.4473	-73.75335	accep
Asia/Kolkata	Kalavoor	2021-10-28	9.57046	76.32756	excellent
Europe/Berlin	Verl	2016/05/12	51.88333	8.51667	accep
Europe/Berlin	Stuttgart	2015/12/25	48.78232	9.17702	accep
Europe/Berlin	Aschaffenburg	09/05/2020, 00:00:00	49.97704	9.15214	good
Europe/Helsinki	Kallio	2020/07/02	60.18427	24.95034	accep
Africa/Conakry	Camayenne	30 May 2013	9.535	-13.68778	excellent
Asia/Tokyo	Nonoichi	2021-02-28	36.53333	136.61667	excellent
Africa/Lagos	Igbara-Odo	2017-05-05	7.50251	5.06258	average
Asia/Ho_Chi_Minh	Sa Dec	23 May 2021	10.29085	105.75635	building
Asia/Kolkata	Kangayam	2019-05-12	11.00599	77.5609	accep
Europe/Moscow	Arzamas	2021-07-25	55.39485	43.83992	building
Asia/Shanghai	Haicheng	18 Dec 2019	40.85158	122.74754	building
Asia/Ulaanbaatar	Ulan Bator	07/10/2017, 00:00:00	47.90771	106.88324	average
Africa/Algiers	Frenda	2014-05-25	35.06544	1.04945	good
Europe/Berlin	Schwalmtal	22 Aug 2017	51.21667	6.26667	excellent
America/Los_Angeles	Lompoc	22 Aug 2015	34.63915	-120.45794	accep
Asia/Dushanbe	Vahdat	2014/04/13	38.55632	69.01354	accep
America/Mexico_City	Contla	06/30/2014, 00:00:00	19.32932	-98.1664	building
America/Sao_Paulo	Curitiba	07 Jun 2013	-25.42778	-49.27306	acceptable
Europe/London	Belper	12 Dec 2018	53.0233	-1.48119	building
Asia/Kolkata	Deoli	2020-09-20	25.75728	75.37991	good
Asia/Jakarta	Cibinong	05 Mar 2014	-6.48167	106.85417	accep
America/Havana	Varadero	15 Nov 2016	23.15678	-81.24441	maintenance
Asia/Shanghai	Wacheng	2013-07-20	33.78333	114.51667	maintenance
Europe/Moscow	Petrozavodsk	19 Jan 2019	61.78491	34.34691	average
Asia/Kolkata	Rangia	22 Aug 2016	26.44931	91.61356	average
America/New_York	Acworth	2013/02/07	34.06635	-84.67837	good
America/Panama	Chilibre	03/30/2014, 00:00:00	9.15093	-79.62098	average
Africa/Casablanca	Azrou	2022-02-18	33.43443	-5.22126	building
America/New_York	West Chester	04 Aug 2022	39.96097	-75.60804	building
America/Los_Angeles	American Canyon	02/01/2019, 00:00:00	38.17492	-122.2608	accep
Asia/Shanghai	Changshu City	2022/04/09	31.64615	120.74221	good
Europe/Berlin	Stuttgart	2021/02/16	48.78232	9.17702	average
Asia/Tehran	Nowshahr	2014/06/13	36.64852	51.49621	excellent
America/New_York	Acworth	2021/01/03	34.06635	-84.67837	excellent
America/New_York	Front Royal	04/19/2018, 00:00:00	38.91817	-78.19444	excellent
Europe/Moscow	Stupino	09/16/2016, 00:00:00	54.90083	38.07083	accep
Europe/Madrid	Baza	2014-08-26	37.49073	-2.77259	average
Asia/Shanghai	Boli	01 Oct 2021	45.75279	130.57211	excellent
America/Sao_Paulo	Viradouro	2017/01/06	-20.87306	-48.29694	accep
Asia/Manila	Cebu City	23 May 2020	10.31672	123.89071	good
America/Menominee	Iron River	2014-04-02	46.09273	-88.64235	average
Europe/Rome	Volla	2022-06-19	40.87363	14.34085	average
Africa/Algiers	Cheraga	2019-06-18	36.76775	2.95924	excellent
Europe/Rome	Campobasso	2021/08/12	41.55947	14.66737	excellent
Asia/Tokyo	Sasayama	23 Nov 2016	35.06667	135.21667	excellent
America/Chicago	Odessa	06/17/2021, 00:00:00	31.84568	-102.36764	excellent
Europe/Vienna	Floridsdorf	30 Sep 2013	48.25	16.4	good
America/Toronto	Dorval	2019-08-02	45.4473	-73.75335	average
Africa/Addis_Ababa	Debre Tabor	2018-01-31	11.85	38.01667	accep
Europe/Brussels	Gembloux	01/24/2020, 00:00:00	50.56149	4.69889	excellent
America/Los_Angeles	Beaumont	2021/04/23	33.92946	-116.97725	good
Europe/Madrid	Caravaca	2022-04-15	38.10558	-1.86343	excellent
Asia/Manila	La Trinidad	2018-06-07	16.455	120.5875	excellent
Europe/Berlin	Landshut	2020-08-04	48.52961	12.16179	average
Europe/Rome	San Giuliano Milanese	2018-07-14	45.39402	9.29109	average
Asia/Baghdad	Karbala	03/17/2016, 00:00:00	32.61603	44.02488	maintenance
America/Martinique	Le Robert	2022-06-04	14.67751	-60.94228	accep
Europe/London	Great Wyrley	01/07/2021, 00:00:00	52.66277	-2.01111	maintenance
America/Los_Angeles	Visitacion Valley	2016/01/01	37.71715	-122.40433	accep
Asia/Tokyo	Shimotoda	2013/01/09	35.815	139.6853	accep
America/Port_of_Spain	Port of Spain	2018-07-06	10.66668	-61.51889	good
Europe/Amsterdam	Vught	08/09/2014, 00:00:00	51.65333	5.2875	accep
Asia/Colombo	Hendala	2016/06/11	6.9909	79.883	accep
America/New_York	Punta Gorda Isles	02/21/2020, 00:00:00	26.91756	-82.07842	average
America/Bahia	Muritiba	2015/05/22	-12.91667	-39.25	average
Europe/Moscow	Kolomyagi	03/30/2017, 00:00:00	60.02427	30.28491	good
America/Sao_Paulo	Resplendor	2018/12/31	-19.32556	-41.25528	accep
America/New_York	Fayetteville	25 Feb 2020	35.05266	-78.87836	excellent
Asia/Kolkata	Kheda	05 Nov 2012	22.75218	72.68533	average
Asia/Kolkata	Leteri	2018-06-08	24.05979	77.40858	excellent
America/New_York	Clermont	09 Dec 2018	28.54944	-81.77285	average
Asia/Shanghai	Shuangcheng	2019/09/26	45.35	126.28333	excellent
Asia/Kolkata	Kangayam	2013-03-09	11.00599	77.5609	building
Africa/Algiers	Beni Douala	02 Mar 2016	36.61954	4.08282	accep
America/Bogota	Villa del Rosario	2016/07/22	7.83389	-72.47417	building
America/Chicago	South Lawndale	2019/04/13	41.84364	-87.71255	accep
Europe/Madrid	Gernika-Lumo	2013-11-07	43.31667	-2.68333	accep
Europe/Berlin	Marburg an der Lahn	2015/05/28	50.80904	8.77069	building
America/Guatemala	Chichicastenango	08/16/2019, 00:00:00	14.93333	-91.11667	average
Europe/London	Great Wyrley	2018-01-29	52.66277	-2.01111	building
America/New_York	Chillum	2018-10-14	38.96372	-76.99081	excellent
Africa/Lubumbashi	Beni	02 Mar 2019	0.49113	29.47306	good
Asia/Jakarta	Besuki	2013-02-15	-7.73379	113.69785	excellent
Asia/Krasnoyarsk	Lesosibirsk	09 Nov 2021	58.23583	92.48278	excellent
America/Los_Angeles	Mira Mesa	2020/08/09	32.9156	-117.14392	average
America/Sao_Paulo	Miracema	12/11/2019, 00:00:00	-21.41222	-42.19667	average
Europe/Moscow	Stupino	2016-05-24	54.90083	38.07083	excellent
Europe/Berlin	Weimar	28 Feb 2021	50.9803	11.32903	accep
America/Los_Angeles	South Whittier	02 Dec 2016	33.95015	-118.03917	building
Asia/Manila	Guyong	16 May 2018	14.8361	120.97844	accep
America/Los_Angeles	American Canyon	15 Jun 2022	38.17492	-122.2608	good
Asia/Tokyo	Yamada	2016-05-22	39.46667	141.95	average
Asia/Shanghai	Zaozhuang	07/13/2019, 00:00:00	34.86472	117.55417	accep
Asia/Kolkata	Narwar	2021-04-02	25.6439	77.9129	good
Australia/Sydney	Strathfield	2020/10/23	-33.88096	151.07986	good
Europe/Oslo	Harstad	2016/09/26	68.79833	16.54165	maintenance
Asia/Manila	Antipolo	2015/01/14	14.62578	121.12251	excellent
Asia/Karachi	Fazilpur	11/24/2017, 00:00:00	32.17629	75.06583	accep
Asia/Krasnoyarsk	Sharypovo	11 Mar 2018	55.54028	89.20083	accep
Africa/Lagos	Nkpor	2013/03/26	6.15038	6.83042	good
Europe/London	Chapletown	2015-06-10	53.46506	-1.47217	excellent
America/New_York	Port Richmond	07/03/2014, 00:00:00	40.63316	-74.13653	accep
Africa/Casablanca	Azrou	05/30/2021, 00:00:00	33.43443	-5.22126	excellent
America/Denver	Kearns	02/13/2016, 00:00:00	40.65995	-111.99633	good
Europe/Lisbon	Carnaxide	02/26/2022, 00:00:00	38.72706	-9.24671	accep
Europe/Rome	Castelfranco Emilia	2018-08-19	44.59445	11.04979	good
Australia/Perth	Perth	2015-12-21	-31.95224	115.8614	maintenance
Europe/Sarajevo	Bijeljina	21 Nov 2015	44.75874	19.21437	good
America/Matamoros	Heroica Matamoros	2017-05-25	25.87972	-97.50417	good
Europe/Istanbul	Patnos	11/02/2021, 00:00:00	39.22493	42.85693	accep
Europe/Berlin	Korschenbroich	2014/03/29	51.19139	6.51352	excellent
America/Mexico_City	Acayucan	09/13/2014, 00:00:00	17.94979	-94.91386	accep
Europe/Warsaw	Ustka	2021-04-21	54.58048	16.86194	accep
Europe/Berlin	Bad Segeberg	2019-07-23	53.94313	10.30215	accep
Asia/Tokyo	Shinshiro	11/20/2016, 00:00:00	34.9	137.5	maintenance
Europe/Berlin	Burscheid	2020/04/07	51.08468	7.11393	maintenance
Africa/Abidjan	Bonoua	10 Aug 2014	5.27247	-3.59625	good
Pacific/Efate	Port-Vila	2013/07/10	-17.73648	168.31366	good
Europe/Paris	Sceaux	2013/10/14	48.77644	2.29026	average
America/El_Salvador	Ilopango	2020/11/11	13.70167	-89.10944	average
Asia/Shanghai	Licheng	2022-01-17	23.29549	113.82465	average
America/New_York	Lexington	10 Jul 2019	33.98154	-81.23621	good
Asia/Manila	Sorsogon	2021-03-02	12.97389	123.99333	accep
Asia/Makassar	Majene	09/23/2022, 00:00:00	-3.5403	118.9707	good
Europe/Paris	Gonesse	2020-08-06	48.98693	2.44892	building
America/Havana	Media Luna	2016-01-14	20.14298	-77.43532	average
America/Sao_Paulo	Sarandi	11/03/2019, 00:00:00	-23.44361	-51.87389	excellent
Asia/Kolkata	Sheoganj	23 Jan 2017	25.13915	73.06784	good
Europe/Rome	Ragusa	2020-06-07	36.92574	14.72443	average
America/Mexico_City	Teziutlan	16 Apr 2015	19.8173	-97.35992	maintenance
Europe/Moscow	Kireyevsk	2016-09-03	53.93361	37.92792	accep
America/Chicago	Huntley	2017-07-11	42.16808	-88.42814	maintenance
Asia/Kolkata	Kashipur	30 Oct 2014	29.21399	78.95693	excellent
Asia/Kolkata	Bhuban	2019-10-16	20.88197	85.83334	good
America/Argentina/Buenos_Aires	Tandil	2018/10/18	-37.32167	-59.13316	good
America/El_Salvador	Ilopango	04 Aug 2022	13.70167	-89.10944	good
Asia/Tokyo	Kamakura	10/29/2020, 00:00:00	35.30889	139.55028	excellent
Australia/Melbourne	Wheelers Hill	02/25/2019, 00:00:00	-37.9	145.18333	average
America/New_York	Sterling	10 May 2014	39.00622	-77.4286	excellent
Asia/Shanghai	Liaoyang	2014-08-25	41.27194	123.17306	excellent
Asia/Hong_Kong	Tsuen Wan	2020-01-11	22.37066	114.10479	excellent
Europe/London	High Wycombe	2012-11-15	51.62907	-0.74934	good
Asia/Ulaanbaatar	Ulan Bator	2019/03/30	47.90771	106.88324	average
America/Toronto	Beaconsfield	11 Feb 2020	45.43341	-73.86586	excellent
America/New_York	Massapequa	2020/01/14	40.68066	-73.47429	good
Africa/Banjul	Farafenni	21 Sep 2018	13.56667	-15.6	excellent
Europe/Bratislava	Skalica	2019-02-19	48.8449	17.22635	accep
Asia/Tokyo	Komono	25 Jun 2015	35	136.51667	average
America/Chicago	Vestavia Hills	2015-07-30	33.44872	-86.78777	accep
Africa/Casablanca	Temara	2013/08/19	33.92866	-6.90656	accep
America/Denver	Kearns	04 Nov 2020	40.65995	-111.99633	good
Europe/Zaporozhye	Polohy	2021-04-08	47.48444	36.25361	excellent
Asia/Yakutsk	Aykhal	2021/12/22	65.93381	111.4834	average
America/New_York	Boston	07/12/2013, 00:00:00	42.35843	-71.05977	building
Europe/Brussels	Wevelgem	2019/06/27	50.8	3.16667	accep
America/Fortaleza	Guaraciaba do Norte	2015-06-17	-4.16694	-40.7475	accep
Asia/Kolkata	Sathyamangalam	2018/02/26	11.50526	77.23826	building
Asia/Shanghai	Huangshi	13 Dec 2018	30.24706	115.04814	good
Europe/London	Westbury	09 Apr 2017	51.26	-2.1875	accep
Indian/Reunion	Saint-Denis	09/17/2017, 00:00:00	-20.88231	55.4504	average
America/Edmonton	Sherwood Park	2020/02/03	53.51684	-113.3187	average
Asia/Karachi	Qadirpur Ran	02/13/2017, 00:00:00	30.29184	71.67164	excellent
Europe/Helsinki	Kallio	06/27/2020, 00:00:00	60.18427	24.95034	accep
Europe/Madrid	Gernika-Lumo	2014-04-15	43.31667	-2.68333	good
Europe/Bratislava	Skalica	11/08/2018, 00:00:00	48.8449	17.22635	good
America/Chicago	Huntley	16 Sep 2014	42.16808	-88.42814	average
Europe/Berlin	Stuttgart	2020-04-30	48.78232	9.17702	good
America/Sao_Paulo	Iturama	2014-09-03	-19.72806	-50.19556	average
America/Chicago	Fresno	2015-04-11	29.53885	-95.44744	good
Africa/Lagos	Olupona	07 Aug 2017	7.6	4.18333	building
Asia/Tokyo	Suzaka	24 Jul 2019	36.65	138.31667	average
Asia/Jakarta	Simpang	2017-03-05	-1.26424	104.09701	accep
America/Bogota	Buenaventura	2020/03/05	3.8801	-77.03116	maitennce
Asia/Jakarta	Simpang	2018/01/26	-1.26424	104.09701	good
Asia/Dhaka	Kushtia	19 Dec 2021	23.9028	89.11943	maintenance
Europe/Rome	Ragusa	01 Mar 2014	36.92574	14.72443	building
Africa/Mogadishu	Kismayo	03 Sep 2022	-0.35817	42.54536	excellent
Asia/Kuala_Lumpur	Ulu Tiram	2013/09/11	1.6	103.81667	excellent
Europe/Rome	Villabate	01/29/2015, 00:00:00	38.07789	13.44275	excellent
Europe/Berlin	Oberhausen	09/12/2017, 00:00:00	51.47805	6.8625	average
Europe/Madrid	Villaquilambre	24 Aug 2017	42.64685	-5.55835	average
America/New_York	Belle Glade	2020/02/21	26.68451	-80.66756	building
Atlantic/Canary	Maspalomas	2014-06-26	27.76056	-15.58602	accep
America/Santiago	Chiguayante	2021/02/19	-36.9256	-73.02841	good
Europe/Berlin	Hofheim am Taunus	09/16/2013, 00:00:00	50.09019	8.4493	good
Asia/Manila	Guyong	07/24/2020, 00:00:00	14.8361	120.97844	building
Europe/Madrid	Gandia	23 Apr 2017	38.96667	-0.18333	good
Africa/Addis_Ababa	Arba Minch	2020-04-19	6.03333	37.55	excellent
Africa/Lagos	Argungu	01/24/2016, 00:00:00	12.74482	4.52514	average
Europe/Amsterdam	Emmeloord	2013-01-04	52.71083	5.74861	good
America/Bogota	Madrid	2017/05/25	4.73245	-74.26419	good
America/New_York	Sterling	03/18/2014, 00:00:00	39.00622	-77.4286	building
Asia/Manila	Guyong	2018/05/20	14.8361	120.97844	excellent
Atlantic/Canary	Maspalomas	21 May 2020	27.76056	-15.58602	good
America/Chicago	Pleasant Prairie	24 Apr 2015	42.55308	-87.93341	good
Europe/Kiev	Shepetivka	03/29/2019, 00:00:00	50.18545	27.06365	excellent
America/Chicago	West Des Moines	11/23/2020, 00:00:00	41.57721	-93.71133	good
Europe/Moscow	Roslavl‚Äô	22 May 2014	53.95278	32.86389	accep
Europe/Istanbul	Bergama	22 Mar 2014	39.12074	27.18052	average
America/Los_Angeles	Palm Desert	08/20/2020, 00:00:00	33.72255	-116.37697	excellent
Asia/Yekaterinburg	Kachkanar	2021/01/13	58.7002	59.4839	excellent
Europe/Madrid	Amposta	25 Jun 2022	40.70995	0.57856	average
Asia/Almaty	Otegen Batyra	2017-08-05	43.41949	77.0202	average
Africa/Casablanca	Oulmes	10/16/2016, 00:00:00	33.42585	-6.00137	good
Europe/Rome	Ariccia	2018-09-24	41.72063	12.6723	average
Europe/Rome	Gorgonzola	11/02/2019, 00:00:00	45.53069	9.40531	maintenance
Europe/London	Kingston upon Hull	2015-09-20	53.7446	-0.33525	accep
America/Mexico_City	Casa Blanca	02 Feb 2019	19.04222	-98.11889	acceptable
Europe/Berlin	Neuburg an der Donau	01/13/2016, 00:00:00	48.73218	11.18709	average
Asia/Ulaanbaatar	Ulan Bator	09/25/2018, 00:00:00	47.90771	106.88324	accep
Asia/Kolkata	Udumalaippettai	2014/12/04	10.58806	77.24779	maintenance
America/Sao_Paulo	Santa Gertrudes	2012/11/18	-22.45667	-47.53028	building
Europe/Skopje	Saraj	2020-02-18	42	21.32778	average
