station	QoS	longitude	location	revision	latitude
Sinhyeon	accep	128.62667	Asia/Seoul	01/01/2016, 00:00:00	34.8825
Suzaka	excellent	138.31667	Asia/Tokyo	2021-08-23	36.65
Great Wyrley	building	-2.01111	Europe/London	02 Sep 2020	52.66277
Heyuan	average	114.68333	Asia/Shanghai	06/01/2017, 00:00:00	23.73333
Eisen	average	128.63083	Asia/Seoul	2016/08/24	36.82167
Kearns	average	-111.99633	America/Denver	11/01/2021, 00:00:00	40.65995
Sukabumi	good	106.92667	Asia/Jakarta	2020-10-30	-6.91806
Yonkers	good	-73.89875	America/New_York	2016-10-29	40.93121
Valinhos	accep	-46.99583	America/Sao_Paulo	2019-05-10	-22.97056
Otegen Batyra	maintenance	77.0202	Asia/Almaty	2020-11-18	43.41949
Kulai	maintenance	103.6032	Asia/Kuala_Lumpur	2018-05-08	1.6561
Kashira	excellent	38.16694	Europe/Moscow	09/09/2016, 00:00:00	54.84444
Bua Yai	excellent	102.42587	Asia/Bangkok	2018-07-03	15.58552
Porto Velho	maintenance	-63.90389	America/Porto_Velho	29 Apr 2018	-8.76194
Memmingen	good	10.18527	Europe/Berlin	2013-01-26	47.98372
Ramla	excellent	34.86563	Asia/Jerusalem	07/20/2021, 00:00:00	31.92923
Chacabuco	maintenance	-60.47389	America/Argentina/Buenos_Aires	2022/07/14	-34.64167
Puducherry	good	79.82979	Asia/Kolkata	2021/06/15	11.93381
Kallio	excellent	24.95034	Europe/Helsinki	09/08/2019, 00:00:00	60.18427
Hlukhiv	excellent	33.9162	Europe/Kiev	07 Apr 2019	51.67822
Guaraciaba do Norte	average	-40.7475	America/Fortaleza	10/17/2014, 00:00:00	-4.16694
Jersey City	average	-74.07764	America/New_York	2017-03-12	40.72816
Hoxtolgay	accep	86.00214	Asia/Urumqi	12/21/2013, 00:00:00	46.51872
Kaukauna	average	-88.27205	America/Chicago	17 May 2014	44.27804
Diwek	good	112.23109	Asia/Jakarta	20 Oct 2015	-7.57897
Uran	excellent	72.93924	Asia/Kolkata	20 May 2021	18.87813
Covington	excellent	-84.50855	America/New_York	2018-08-29	39.08367
Sirsi	good	74.83554	Asia/Kolkata	2018/02/02	14.62072
Agrigento	good	13.57661	Europe/Rome	19 Sep 2020	37.31065
Colomiers	maintenance	1.33467	Europe/Paris	02/18/2016, 00:00:00	43.61058
Ozersk	excellent	60.70278	Asia/Yekaterinburg	14 Apr 2022	55.75556
Narwar	accep	77.9129	Asia/Kolkata	21 Aug 2016	25.6439
Scottsdale	accep	-111.89903	America/Phoenix	2012/12/08	33.50921
Buynaksk	accep	47.1192	Europe/Moscow	05/18/2020, 00:00:00	42.819
Karbala	average	44.02488	Asia/Baghdad	2021-11-20	32.61603
Varadero	good	-81.24441	America/Havana	26 Feb 2015	23.15678
Norfolk County	excellent	-80.38297	America/Toronto	2015/09/25	42.8334
Tebingtinggi	accep	99.1625	Asia/Jakarta	2012/12/09	3.3285
East Jerusalem	good	35.23388	Asia/Hebron	09/27/2012, 00:00:00	31.78336
Krymsk	good	37.99117	Europe/Moscow	2015/11/22	44.92934
Kalavoor	accep	76.32756	Asia/Kolkata	2017-09-10	9.57046
Schleswig	excellent	9.5586	Europe/Berlin	12/27/2017, 00:00:00	54.52156
Darreh Shahr	average	47.3799	Asia/Tehran	03 Jan 2018	33.14447
Sceaux	accep	2.29026	Europe/Paris	2022-03-24	48.77644
Thap Than	good	99.89166	Asia/Bangkok	12/11/2021, 00:00:00	15.46063
Dahlem	good	13.28702	Europe/Berlin	2013-01-14	52.4581
Same	excellent	37.73333	Africa/Dar_es_Salaam	08/17/2022, 00:00:00	-4.06667
Srinagar	maintenance	74.80555	Asia/Kolkata	06/09/2022, 00:00:00	34.08565
Longview	average	-94.74049	America/Chicago	2021/03/29	32.5007
Smolyan	excellent	24.71204	Europe/Sofia	2021/01/23	41.57439
Brunswick	good	-69.96533	America/New_York	03 Aug 2015	43.91452
Santa Maria	average	-120.43572	America/Los_Angeles	2022/06/22	34.95303
Port of Spain	average	-61.51889	America/Port_of_Spain	17 Dec 2016	10.66668
New City	building	-87.65644	America/Chicago	2015/01/25	41.80753
San Giuliano Milanese	average	9.29109	Europe/Rome	09/12/2015, 00:00:00	45.39402
Bad Segeberg	accep	10.30215	Europe/Berlin	2022-03-18	53.94313
Shimotoda	average	139.6853	Asia/Tokyo	06 Jan 2019	35.815
Ramla	maintenance	34.86563	Asia/Jerusalem	05/08/2020, 00:00:00	31.92923
Kearns	good	-111.99633	America/Denver	2013/06/15	40.65995
Kampung Ayer Molek	good	102.3278	Asia/Kuala_Lumpur	10 Feb 2014	2.2139
Usagara	average	33	Africa/Dar_es_Salaam	22 Oct 2013	-2.68333
Penzance	maintenance	-5.53715	Europe/London	03/06/2014, 00:00:00	50.11861
Damnoen Saduak	accep	99.95469	Asia/Bangkok	27 May 2021	13.51825
Altamira	good	-52.20639	America/Santarem	2019/05/30	-3.20333
Inawashiro	good	140.11667	Asia/Tokyo	01/18/2017, 00:00:00	37.56667
Greenville	building	-91.06177	America/Chicago	06/03/2015, 00:00:00	33.41012
Glendale	average	-118.25508	America/Los_Angeles	2012/11/02	34.14251
Cibinong	good	106.85417	Asia/Jakarta	11/16/2021, 00:00:00	-6.48167
Mbalmayo	average	11.5	Africa/Douala	06/08/2019, 00:00:00	3.51667
Isfahan	excellent	51.67462	Asia/Tehran	02/15/2021, 00:00:00	32.65246
Debre Tabor	excellent	38.01667	Africa/Addis_Ababa	2021/02/13	11.85
Varadero	excellent	-81.24441	America/Havana	02/05/2017, 00:00:00	23.15678
Southsea	building	-1.08593	Europe/London	2016-03-11	50.79205
Lagos	good	3.39467	Africa/Lagos	2022-08-31	6.45407
Perugia	average	12.38878	Europe/Rome	2022/05/13	43.1122
Malden	good	-71.06616	America/New_York	2013-04-29	42.4251
Sonzacate	excellent	-89.71472	America/El_Salvador	28 Dec 2012	13.73417
Sungurlu	accep	34.37389	Europe/Istanbul	08/20/2013, 00:00:00	40.1675
South Whittier	excellent	-118.03917	America/Los_Angeles	2018-06-04	33.95015
Malnate	average	8.88104	Europe/Rome	2015-05-19	45.79377
Kashipur	good	78.95693	Asia/Kolkata	23 Nov 2017	29.21399
Saraj	good	21.32778	Europe/Skopje	01 Oct 2017	42
Barras	excellent	-42.29444	America/Fortaleza	09 May 2019	-4.24444
Izluchinsk	excellent	76.92421	Asia/Yekaterinburg	17 Jun 2021	60.97944
Novogrudok	excellent	25.8191	Europe/Minsk	12 Jun 2016	53.5942
Onex	accep	6.10237	Europe/Zurich	2015/02/03	46.18396
Shagamu	good	3.64633	Africa/Lagos	11 Dec 2019	6.8485
Saint-Omer	accep	2.25	Europe/Paris	05/16/2019, 00:00:00	50.75
Stupino	average	38.07083	Europe/Moscow	05/30/2016, 00:00:00	54.90083
Brentwood Estates	accep	-86.77917	America/Chicago	2018/10/06	36.02506
Walsrode	maintenance	9.5926	Europe/Berlin	24 Jun 2018	52.86147
Vestavia Hills	accep	-86.78777	America/Chicago	01/01/2022, 00:00:00	33.44872
Adra	accep	86.68363	Asia/Kolkata	14 Oct 2013	23.49668
Gainesville	accep	-82.32483	America/New_York	01 Jul 2017	29.65163
Lower Earley	excellent	-0.91979	Europe/London	05/07/2019, 00:00:00	51.42708
Watsonville	good	-121.75689	America/Los_Angeles	10/15/2012, 00:00:00	36.91023
Barras	good	-42.29444	America/Fortaleza	2018/07/26	-4.24444
Dharmapuri	building	78.15794	Asia/Kolkata	2014/01/09	12.1277
El Achir	building	4.62744	Africa/Algiers	2015/09/12	36.06386
Hoxtolgay	building	86.00214	Asia/Urumqi	03/25/2017, 00:00:00	46.51872
Busia	accep	34.11169	Africa/Nairobi	06 Oct 2021	0.46005
Zgorzelec	average	15.00835	Europe/Warsaw	2016/12/06	51.14942
Honda	excellent	-74.73584	America/Bogota	2013-09-21	5.20856
Saint-Denis	maintenance	55.4504	Indian/Reunion	2015/08/31	-20.88231
Covington	building	-84.50855	America/New_York	20 Mar 2016	39.08367
Casa Blanca	good	-98.11889	America/Mexico_City	01/21/2018, 00:00:00	19.04222
Hongseong	excellent	126.665	Asia/Seoul	13 Nov 2020	36.6009
Yamada	excellent	141.95	Asia/Tokyo	12 Sep 2014	39.46667
Rixensart	building	4.52529	Europe/Brussels	2019-12-14	50.71229
Debre Tabor	average	38.01667	Africa/Addis_Ababa	2018-04-04	11.85
Paracho de Verduzco	excellent	-102.04897	America/Mexico_City	2022/05/18	19.64745
Amreli	accep	71.21169	Asia/Kolkata	2021/02/01	21.59983
Buenaventura	building	-77.03116	America/Bogota	2014/03/08	3.8801
Milagro	average	-79.59415	America/Guayaquil	04/03/2017, 00:00:00	-2.13404
Standerton	good	29.24152	Africa/Johannesburg	06/29/2013, 00:00:00	-26.93366
Ina	average	137.95378	Asia/Tokyo	17 May 2013	35.82756
Danjiangkou	average	111.50861	Asia/Shanghai	26 Jun 2016	32.54278
Lal Bahadur Nagar	building	78.55757	Asia/Kolkata	09/23/2021, 00:00:00	17.34769
Visitacion Valley	average	-122.40433	America/Los_Angeles	2013-04-17	37.71715
Norfolk County	average	-80.38297	America/Toronto	2018/04/14	42.8334
Paoy Paet	building	102.56365	Asia/Phnom_Penh	12/23/2013, 00:00:00	13.65805
el Camp de l'Arpa del Clot	good	2.18247	Europe/Madrid	2018/05/02	41.41204
Laiwu	excellent	117.65694	Asia/Shanghai	06/16/2015, 00:00:00	36.19278
Albufeira	accep	-8.2503	Europe/Lisbon	2016-07-28	37.08819
Iquitos	maintenance	-73.25383	America/Lima	03/31/2017, 00:00:00	-3.74912
Svatove	excellent	38.15035	Europe/Zaporozhye	2018-10-07	49.41029
Aksaray	maintenance	34.02537	Europe/Istanbul	2022/01/11	38.37255
Mudanya	accep	28.88222	Europe/Istanbul	2017/08/05	40.37528
Nowshahr	maintenance	51.49621	Asia/Tehran	04 Feb 2015	36.64852
Caldas Novas	maintenance	-48.62789	America/Sao_Paulo	11/18/2018, 00:00:00	-17.74431
Acaponeta	good	-105.36369	America/Mazatlan	2016-09-05	22.49396
Eisen	excellent	128.63083	Asia/Seoul	03/28/2015, 00:00:00	36.82167
Clacton-on-Sea	good	1.15597	Europe/London	08/05/2017, 00:00:00	51.78967
Gaya	accep	9.0027	Africa/Lagos	27 Nov 2020	11.86064
Thap Than	maintenance	99.89166	Asia/Bangkok	27 Feb 2017	15.46063
Calangute	average	73.7553	Asia/Kolkata	06/27/2017, 00:00:00	15.5439
Phanat Nikhom	average	101.18445	Asia/Bangkok	2020-07-01	13.44581
Far Rockaway	average	-73.75513	America/New_York	19 Aug 2018	40.60538
Albstadt	average	9.02596	Europe/Berlin	03/26/2014, 00:00:00	48.21644
Murray	good	-88.31476	America/Chicago	2015-02-21	36.61033
Jagna	excellent	124.3697	Asia/Manila	2015/04/06	9.6531
Gaziantep	average	37.3825	Europe/Istanbul	2016-04-17	37.05944
Massapequa	building	-73.47429	America/New_York	2017-12-09	40.68066
Exeter	good	-3.52751	Europe/London	16 Aug 2014	50.7236
Debre Tabor	excellent	38.01667	Africa/Addis_Ababa	09 Jun 2022	11.85
Kidodi	accep	37.00438	Africa/Dar_es_Salaam	02/15/2022, 00:00:00	-7.60361
Iron River	excellent	-88.64235	America/Menominee	17 Jan 2015	46.09273
Lino Lakes	average	-93.08883	America/Chicago	2020-04-08	45.16024
Dongfeng	good	125.51176	Asia/Shanghai	18 Jul 2018	42.64031
Polohy	maintenance	36.25361	Europe/Zaporozhye	11/17/2012, 00:00:00	47.48444
Clermont	accep	-81.77285	America/New_York	30 Sep 2013	28.54944
Argungu	maintenance	4.52514	Africa/Lagos	31 Aug 2013	12.74482
Randudongkal	average	109.3243	Asia/Jakarta	2015/12/15	-7.0981
Aberdeen	accep	-2.09814	Europe/London	2018/03/20	57.14369
Keene	good	-72.27814	America/New_York	2016/09/25	42.93369
Maxixe	building	35.34722	Africa/Maputo	2013/07/21	-23.85972
Buenaventura	accep	-77.03116	America/Bogota	09/24/2021, 00:00:00	3.8801
Sharypovo	accep	89.20083	Asia/Krasnoyarsk	05 Jul 2013	55.54028
Utica	average	-75.23266	America/New_York	26 Feb 2021	43.1009
Porto Velho	average	-63.90389	America/Porto_Velho	31 Jul 2021	-8.76194
Balikpapan	average	116.82887	Asia/Makassar	20 Mar 2019	-1.26753
Serinhisar	accep	29.26639	Europe/Istanbul	2022-06-16	37.58105
Honda	average	-74.73584	America/Bogota	11/08/2012, 00:00:00	5.20856
Jizzax	acceptable	67.84222	Asia/Samarkand	2018-10-03	40.11583
Kafanchan	good	8.2926	Africa/Lagos	08/12/2019, 00:00:00	9.58126
Maryborough	excellent	152.70493	Australia/Brisbane	2015/12/05	-25.54073
Montecchio Maggiore-Alte Ceccato	excellent	11.412	Europe/Rome	2019-02-03	45.50369
San Gabriel	average	-118.10583	America/Los_Angeles	2018-10-19	34.09611
Alexandria	average	29.91582	Africa/Cairo	2013/10/22	31.20176
Sharypovo	accep	89.20083	Asia/Krasnoyarsk	03/20/2013, 00:00:00	55.54028
Westchester	accep	-87.882	America/Chicago	2019-01-14	41.85059
Rhosllanerchrugog	accep	-3.05814	Europe/London	25 Nov 2017	53.00974
Jingzhou	accep	112.19028	Asia/Shanghai	07/20/2020, 00:00:00	30.35028
Schwalmtal	maintenance	6.26667	Europe/Berlin	17 Jul 2013	51.21667
Dombivli	excellent	73.08333	Asia/Kolkata	2019/01/16	19.21667
Burgos	excellent	120.57224	Asia/Manila	2021/04/09	15.72892
Maliana	excellent	125.21972	Asia/Dili	2014/02/07	-8.99167
Jalal-Abad	excellent	73	Asia/Bishkek	10/23/2016, 00:00:00	40.93333
San Juan de Aznalfarache	excellent	-6.03731	Europe/Madrid	25 Oct 2021	37.35813
Lakewood	building	-81.79819	America/New_York	08 Sep 2013	41.48199
Pfullingen	average	9.22796	Europe/Berlin	28 May 2020	48.46458
East Jerusalem	accep	35.23388	Asia/Hebron	2015-09-05	31.78336
El Copey	building	-73.9614	America/Bogota	06/27/2022, 00:00:00	10.15031
Mianwali	accep	71.52847	Asia/Karachi	2018-01-29	32.57756
Palm Desert	accep	-116.37697	America/Los_Angeles	30 Jul 2017	33.72255
Gisborne	average	178.00417	Pacific/Auckland	01/07/2018, 00:00:00	-38.65333
Zeist	maintenance	5.23333	Europe/Amsterdam	11/11/2017, 00:00:00	52.09
Taunton	accep	-71.08977	America/New_York	02 Mar 2019	41.9001
Schererville	accep	-87.45476	America/Chicago	2016/05/01	41.47892
Tonga	building	10.7	Africa/Douala	03/31/2022, 00:00:00	4.96667
Mardin	accep	40.74357	Europe/Istanbul	01 Jul 2017	37.31309
Redding	good	-122.39168	America/Los_Angeles	2016/11/07	40.58654
Yakuplu	accep	28.67582	Europe/Istanbul	19 Jan 2022	40.98894
Bar-le-Duc	building	5.16108	Europe/Paris	2017/03/11	48.77275
Paracho de Verduzco	good	-102.04897	America/Mexico_City	17 May 2020	19.64745
Ovalle	accep	-71.19901	America/Santiago	2017-10-04	-30.60106
Novara	excellent	8.62118	Europe/Rome	2016/07/23	45.44694
Ulan Bator	excellent	106.88324	Asia/Ulaanbaatar	2013-04-22	47.90771
Odessa	accep	-102.36764	America/Chicago	2016-09-23	31.84568
Lutz	building	-82.46148	America/New_York	01/28/2015, 00:00:00	28.15112
Lal Bahadur Nagar	average	78.55757	Asia/Kolkata	28 May 2016	17.34769
Ajdabiya	accep	20.22625	Africa/Tripoli	2022/03/18	30.75545
Nowshahr	accep	51.49621	Asia/Tehran	05 Oct 2018	36.64852
Pottstown	maintenance	-75.64963	America/New_York	2018/09/08	40.24537
Binnish	excellent	36.7138	Asia/Damascus	2022-04-18	35.95664
Yonkers	accep	-73.89875	America/New_York	11 May 2017	40.93121
San Jose	average	121.06761	Asia/Manila	2020/06/08	12.35275
Khairpur Mir‚Äôs	excellent	68.75915	Asia/Karachi	2015-08-15	27.52948
Brzeg	average	17.4674	Europe/Warsaw	2015/05/31	50.86079
Artsyz	building	29.41824	Europe/Kiev	2017-07-03	45.99194
Bourbonnais	accep	-87.88754	America/Chicago	2019-07-29	41.15376
Dorval	maintenance	-73.75335	America/Toronto	10 Sep 2018	45.4473
Farafenni	accep	-15.6	Africa/Banjul	2022/09/13	13.56667
Artsyz	accep	29.41824	Europe/Kiev	09 May 2013	45.99194
Severodvinsk	average	39.8302	Europe/Moscow	2016-03-25	64.5635
Arbroath	good	-2.58736	Europe/London	12/08/2017, 00:00:00	56.56317
Cebu City	good	123.89071	Asia/Manila	2017/03/22	10.31672
Chillum	excellent	-76.99081	America/New_York	10/27/2020, 00:00:00	38.96372
Nampa	excellent	-116.56346	America/Boise	09 May 2019	43.54072
Kushtia	accep	89.11943	Asia/Dhaka	2014-06-26	23.9028
Strood	accep	0.47713	Europe/London	22 Aug 2021	51.39323
Sector 6	good	26.01649	Europe/Bucharest	2020-09-21	44.43579
Veracruz	average	-79.62603	America/Panama	25 Jun 2020	8.88988
Taunton	accep	-71.08977	America/New_York	21 Jul 2021	41.9001
Puducherry	accep	79.82979	Asia/Kolkata	2019-03-08	11.93381
El Alia	average	10.03478	Africa/Tunis	2019-03-24	37.16911
Dax	building	-1.05366	Europe/Paris	2017/09/25	43.71032
Guaraciaba do Norte	average	-40.7475	America/Fortaleza	05/19/2022, 00:00:00	-4.16694
Belper	accep	-1.48119	Europe/London	01/10/2017, 00:00:00	53.0233
Portogruaro	average	12.84052	Europe/Rome	02/25/2021, 00:00:00	45.78071
Larkana	average	68.21204	Asia/Karachi	30 Dec 2016	27.55898
Keene	building	-72.27814	America/New_York	2014-01-13	42.93369
Shagamu	good	3.64633	Africa/Lagos	10/05/2019, 00:00:00	6.8485
Zhuangyuan	building	120.82747	Asia/Shanghai	2017/02/16	37.30553
Ghat	excellent	10.18003	Africa/Tripoli	13 Aug 2017	24.96334
Kireyevsk	average	37.92792	Europe/Moscow	19 Apr 2019	53.93361
Glendale	excellent	-118.25508	America/Los_Angeles	03/31/2015, 00:00:00	34.14251
Bogovinje	good	20.91361	Europe/Skopje	2015-10-23	41.92361
Wangon	accep	109.05389	Asia/Jakarta	06/05/2019, 00:00:00	-7.51611
Sheoganj	average	73.06784	Asia/Kolkata	04 Nov 2017	25.13915
Otegen Batyra	accep	77.0202	Asia/Almaty	2019-06-28	43.41949
Coralville	excellent	-91.58045	America/Chicago	07/26/2021, 00:00:00	41.6764
Donggongon	good	116.10146	Asia/Kuching	03/28/2013, 00:00:00	5.90702
Clacton-on-Sea	excellent	1.15597	Europe/London	2015-11-21	51.78967
Palestine	excellent	-95.63079	America/Chicago	2016-08-16	31.76212
Ksar Chellala	excellent	2.31889	Africa/Algiers	2017-12-27	35.21222
Curitiba	accep	-49.27306	America/Sao_Paulo	2019/07/05	-25.42778
Negotin	good	22.53083	Europe/Belgrade	2021/04/29	44.22639
Gaziantep	excellent	37.3825	Europe/Istanbul	2014/08/29	37.05944
Jumilla	average	-1.325	Europe/Madrid	21 Oct 2017	38.47917
Arles	good	4.63031	Europe/Paris	19 Jul 2021	43.67681
Mwandiga	good	29.65806	Africa/Dar_es_Salaam	2017-01-25	-4.83
Aklera	good	76.56719	Asia/Kolkata	03/19/2015, 00:00:00	24.41288
Port of Spain	maintenance	-61.51889	America/Port_of_Spain	10 Feb 2017	10.66668
Santa Catalina	good	122.8637	Asia/Manila	05/22/2016, 00:00:00	9.3337
Reutlingen	good	9.20427	Europe/Berlin	01/11/2020, 00:00:00	48.49144
Vestavia Hills	accep	-86.78777	America/Chicago	2019-03-24	33.44872
Penzance	accep	-5.53715	Europe/London	01/05/2018, 00:00:00	50.11861
Ganei Tikva	accep	34.8732	Asia/Jerusalem	01/27/2017, 00:00:00	32.05971
Msaken	accep	10.58082	Africa/Tunis	2019/06/03	35.72917
Tavda	excellent	65.27258	Asia/Yekaterinburg	27 Apr 2013	58.04254
Neuburg an der Donau	average	11.18709	Europe/Berlin	2015-02-13	48.73218
Nowra	excellent	150.60036	Australia/Sydney	2016-11-12	-34.88422
Artur Nogueira	good	-47.1725	America/Sao_Paulo	2013-01-03	-22.57306
Le Robert	good	-60.94228	America/Martinique	08/29/2018, 00:00:00	14.67751
Patti	accep	74.85849	Asia/Kolkata	05/24/2015, 00:00:00	31.28092
Beaconsfield	good	-73.86586	America/Toronto	2014-02-02	45.43341
Curitiba	average	-49.27306	America/Sao_Paulo	30 Jul 2013	-25.42778
Grand Forks	average	-97.03285	America/Chicago	20 Aug 2017	47.92526
Petrozavodsk	excellent	34.34691	Europe/Moscow	07 Apr 2021	61.78491
Iturama	good	-50.19556	America/Sao_Paulo	07/23/2016, 00:00:00	-19.72806
Rahat	excellent	34.75699	Asia/Jerusalem	07 Oct 2012	31.39547
Hechingen	maintenance	8.96317	Europe/Berlin	03 May 2017	48.35149
Argungu	building	4.52514	Africa/Lagos	06/03/2017, 00:00:00	12.74482
Calauan	excellent	121.3152	Asia/Manila	12 Jan 2017	14.14989
Hartley	good	0.30367	Europe/London	06/18/2017, 00:00:00	51.38673
Jaruco	average	-82.00919	America/Havana	2016/11/22	23.04419
Jiangyan	accep	120.14278	Asia/Shanghai	11/29/2015, 00:00:00	32.50611
Santa Cruz de Barahona	accep	-71.10077	America/Santo_Domingo	08/16/2017, 00:00:00	18.20854
Ngemplak	good	110.71639	Asia/Jakarta	17 Jun 2015	-7.54972
Walton-on-the-Naze	average	1.26738	Europe/London	21 May 2022	51.84819
Carlos Barbosa	excellent	-51.50361	America/Sao_Paulo	2020/03/29	-29.2975
Roseto degli Abruzzi	good	14.01481	Europe/Rome	2018/06/06	42.67164
Winsford	good	-2.52398	Europe/London	01/30/2019, 00:00:00	53.19146
Shaowu	excellent	117.4831	Asia/Shanghai	07/13/2017, 00:00:00	27.34089
Kearns	good	-111.99633	America/Denver	08 Jun 2022	40.65995
Jinotepe	good	-86.19903	America/Managua	16 Feb 2017	11.84962
Okahandja	excellent	16.91667	Africa/Windhoek	01/04/2015, 00:00:00	-21.98333
Memmingen	good	10.18527	Europe/Berlin	2017/02/06	47.98372
Sunnyside	good	-120.00865	America/Los_Angeles	06/10/2021, 00:00:00	46.32374
Poulton-le-Fylde	excellent	-2.98333	Europe/London	2017/09/14	53.83333
Beni	good	29.47306	Africa/Lubumbashi	2017-04-07	0.49113
Markham	excellent	-79.2663	America/Toronto	2022/05/05	43.86682
Simpang	accep	104.09701	Asia/Jakarta	10/23/2016, 00:00:00	-1.26424
Bogoroditsk	average	38.12408	Europe/Moscow	2022/08/18	53.77166
Wevelgem	accep	3.16667	Europe/Brussels	22 Jun 2013	50.8
Sangla Hill	good	73.38333	Asia/Karachi	12/05/2014, 00:00:00	31.71667
Al Jubayl	good	49.62251	Asia/Riyadh	2015-05-02	27.0174
Antipolo	average	121.12251	Asia/Manila	07/01/2016, 00:00:00	14.62578
Lompoc	excellent	-120.45794	America/Los_Angeles	2018-11-28	34.63915
Rolla	building	-91.77127	America/Chicago	2020/11/26	37.95143
Same	excellent	37.73333	Africa/Dar_es_Salaam	2019/10/19	-4.06667
San Juan	average	-98.15529	America/Chicago	2017-05-07	26.18924
Hongseong	accep	126.665	Asia/Seoul	12/14/2016, 00:00:00	36.6009
Masbate	accep	123.62494	Asia/Manila	23 Sep 2015	12.37169
Xinzhou	good	112.73333	Asia/Shanghai	2021-10-25	38.40917
Nonoichi	average	136.61667	Asia/Tokyo	05/23/2021, 00:00:00	36.53333
Pingyi	excellent	117.63083	Asia/Shanghai	2013-02-16	35.50056
Charlottetown	accep	-63.13414	America/Halifax	04/20/2018, 00:00:00	46.23899
Culemborg	excellent	5.22778	Europe/Amsterdam	2020/03/05	51.955
Malaut	excellent	74.4818	Asia/Kolkata	2015/07/19	30.21121
Veracruz	excellent	-79.62603	America/Panama	2019/05/13	8.88988
Kherson	accep	32.6178	Europe/Kiev	2014-08-16	46.65581
Rixensart	excellent	4.52529	Europe/Brussels	04/07/2022, 00:00:00	50.71229
Kashipur	average	78.95693	Asia/Kolkata	2016-12-17	29.21399
Rhosllanerchrugog	average	-3.05814	Europe/London	01/19/2018, 00:00:00	53.00974
Naro-Fominsk	accep	36.73307	Europe/Moscow	12 Mar 2020	55.38752
Clacton-on-Sea	accep	1.15597	Europe/London	05/25/2021, 00:00:00	51.78967
Okahandja	excellent	16.91667	Africa/Windhoek	14 Nov 2014	-21.98333
Ueno-ebisumachi	good	136.13108	Asia/Tokyo	25 Oct 2017	34.75856
Ar Ruseris	excellent	34.3869	Africa/Khartoum	2020/06/27	11.8659
Chapletown	good	-1.47217	Europe/London	15 Jan 2013	53.46506
Curitiba	good	-49.27306	America/Sao_Paulo	23 May 2018	-25.42778
Brenham	accep	-96.39774	America/Chicago	2014/04/14	30.16688
Isfahan	accep	51.67462	Asia/Tehran	30 May 2015	32.65246
Poulton-le-Fylde	accep	-2.98333	Europe/London	06/16/2015, 00:00:00	53.83333
Ken Caryl	good	-105.11221	America/Denver	06/24/2014, 00:00:00	39.57582
Scottsdale	average	-111.89903	America/Phoenix	20 Feb 2015	33.50921
Odessa	good	-102.36764	America/Chicago	29 Oct 2021	31.84568
Shepetivka	average	27.06365	Europe/Kiev	2017/10/25	50.18545
Baza	average	-2.77259	Europe/Madrid	11/25/2021, 00:00:00	37.49073
Mardin	average	40.74357	Europe/Istanbul	13 Jun 2020	37.31309
Lagarto	excellent	-37.65	America/Maceio	2022/04/16	-10.91722
Boumerdas	average	3.47717	Africa/Algiers	2018/07/03	36.76639
Hungund	building	76.0586	Asia/Kolkata	06/27/2020, 00:00:00	16.06213
Mianwali	accep	71.52847	Asia/Karachi	01/10/2020, 00:00:00	32.57756
Valletta	building	14.51472	Europe/Malta	2015/05/14	35.89972
Recodo	accep	121.96361	Asia/Manila	2013/02/18	6.95194
Liaoyang	building	123.17306	Asia/Shanghai	2016-01-16	41.27194
Yakuplu	maintenance	28.67582	Europe/Istanbul	02/24/2014, 00:00:00	40.98894
Canton	average	-83.48216	America/Detroit	09/23/2013, 00:00:00	42.30865
Hlohovec	good	17.8031	Europe/Bratislava	10/26/2012, 00:00:00	48.43174
Ada	accep	-96.67834	America/Chicago	23 Nov 2021	34.77453
Licheng	accep	113.82465	Asia/Shanghai	22 Mar 2013	23.29549
Dax	accep	-1.05366	Europe/Paris	26 Sep 2015	43.71032
Jashpurnagar	accep	84.13864	Asia/Kolkata	2016-05-24	22.88783
Magong	excellent	119.58627	Asia/Taipei	2014/05/03	23.5654
Vienne	accep	4.86667	Europe/Paris	03/24/2022, 00:00:00	45.51667
Hakodate	accep	140.73667	Asia/Tokyo	2020/05/29	41.77583
Tudela	building	-1.60452	Europe/Madrid	01/23/2013, 00:00:00	42.06166
Namerikawa	accep	137.36215	Asia/Tokyo	17 Nov 2020	36.75965
Kireyevsk	accep	37.92792	Europe/Moscow	2022-07-13	53.93361
Chillum	excellent	-76.99081	America/New_York	03/08/2021, 00:00:00	38.96372
Barpeta	accep	91.00632	Asia/Kolkata	2020-05-26	26.32293
Barbil	excellent	85.37752	Asia/Kolkata	2022-04-25	22.10194
Bhuban	average	85.83334	Asia/Kolkata	10 Aug 2015	20.88197
Mouscron	building	3.20639	Europe/Brussels	03/20/2015, 00:00:00	50.74497
Stupino	maintenance	38.07083	Europe/Moscow	2012-10-21	54.90083
Artur Nogueira	good	-47.1725	America/Sao_Paulo	2022/08/25	-22.57306
Efon-Alaaye	maintenance	4.92235	Africa/Lagos	02/06/2015, 00:00:00	7.65649
Recodo	accep	121.96361	Asia/Manila	2018/08/29	6.95194
Denderleeuw	maintenance	4.07601	Europe/Brussels	2021/09/02	50.88506
Cardedeu	accep	2.35739	Europe/Madrid	2015-03-19	41.63976
Zeitz	maintenance	12.1369	Europe/Berlin	2016-07-10	51.04962
Canton	good	-83.48216	America/Detroit	12/05/2018, 00:00:00	42.30865
Dublin	maintenance	-82.90375	America/New_York	07/04/2013, 00:00:00	32.54044
Marau	good	-52.2	America/Sao_Paulo	2021-10-08	-28.44917
Sirsi	excellent	74.83554	Asia/Kolkata	2015/10/08	14.62072
Perugia	accep	12.38878	Europe/Rome	09/24/2022, 00:00:00	43.1122
Ponta Delgada	average	-25.66689	Atlantic/Azores	10/04/2020, 00:00:00	37.74615
Troutdale	average	-122.38731	America/Los_Angeles	2016-05-22	45.53929
Sterling	building	-77.4286	America/New_York	08/17/2019, 00:00:00	39.00622
Esperanza	average	-60.93173	America/Argentina/Cordoba	01 Feb 2022	-31.4488
El Alia	accep	10.03478	Africa/Tunis	2013-09-17	37.16911
Majene	average	118.9707	Asia/Makassar	2015-07-27	-3.5403
Mexborough	average	-1.29243	Europe/London	05 Jun 2017	53.49389
Sydney	accep	-60.1831	America/Glace_Bay	04/03/2018, 00:00:00	46.1351
Toyokawa	excellent	137.4	Asia/Tokyo	2018/08/23	34.81667
Talisay	good	122.9666	Asia/Manila	08 Dec 2020	10.7375
Beveren	accep	4.25633	Europe/Brussels	14 Mar 2022	51.21187
Darreh Shahr	excellent	47.3799	Asia/Tehran	2018-04-22	33.14447
Boo	accep	18.28333	Europe/Stockholm	2022/06/03	59.33333
Rwamagana	accep	30.4347	Africa/Kigali	13 Nov 2015	-1.9487
Valletta	average	14.51472	Europe/Malta	31 May 2014	35.89972
Nowra	average	150.60036	Australia/Sydney	2013/10/17	-34.88422
Brzeg	excellent	17.4674	Europe/Warsaw	2015-05-24	50.86079
Chichicastenango	building	-91.11667	America/Guatemala	25 Jul 2019	14.93333
Mwandiga	average	29.65806	Africa/Dar_es_Salaam	2019/12/19	-4.83
Naga	good	123.758	Asia/Manila	2018/03/23	10.20898
Selby	building	-1.06667	Europe/London	03/24/2020, 00:00:00	53.78333
Mikhaylovka	excellent	43.2379	Europe/Volgograd	23 Mar 2016	50.06
Riverbank	accep	-120.93549	America/Los_Angeles	2020/01/18	37.73604
Palm Valley	good	-81.38758	America/New_York	02 Jan 2021	30.17746
Oberhausen	good	6.8625	Europe/Berlin	2017/12/26	51.47805
Fort Washington	good	-77.02303	America/New_York	2012-12-05	38.70734
Kelowna	good	-119.48568	America/Vancouver	11/04/2014, 00:00:00	49.88307
Shuangcheng	accep	126.28333	Asia/Shanghai	2022-08-10	45.35
Fresno	excellent	-95.44744	America/Chicago	08 Sep 2017	29.53885
Trossingen	average	8.64409	Europe/Berlin	04 May 2019	48.07667
Valday	maitennce	33.2525	Europe/Moscow	09/19/2013, 00:00:00	57.97472
Cabo	maintenance	-35.03333	America/Recife	2017/03/19	-8.28333
Kediri	good	112.01667	Asia/Jakarta	12 Jun 2015	-7.81667
Barmbek-Nord	excellent	10.03988	Europe/Berlin	2018-02-23	53.6052
Malden	maintenance	-71.06616	America/New_York	06/19/2013, 00:00:00	42.4251
Brentwood Estates	good	-86.77917	America/Chicago	04/18/2016, 00:00:00	36.02506
Nowshahr	good	51.49621	Asia/Tehran	20 Jan 2019	36.64852
Wesseling	good	6.9747	Europe/Berlin	04 Sep 2018	50.82709
Villa del Rosario	good	-72.47417	America/Bogota	2013-12-31	7.83389
Binnish	average	36.7138	Asia/Damascus	2019/06/11	35.95664
Lanciano	good	14.39024	Europe/Rome	2016/05/13	42.22718
Yakuplu	maintenance	28.67582	Europe/Istanbul	06 Feb 2018	40.98894
Myawadi	good	98.50893	Asia/Yangon	2020-08-17	16.68911
Saraktash	accep	56.36091	Asia/Yekaterinburg	2013/02/06	51.78771
Schererville	maintenance	-87.45476	America/Chicago	13 Feb 2017	41.47892
Loanda	building	-53.13722	America/Sao_Paulo	2019/08/25	-22.92306
Novopavlovsk	maintenance	43.63417	Europe/Moscow	2012-12-24	43.96222
Socorro	excellent	-73.26022	America/Bogota	2018-07-17	6.46838
Rio Real	building	-37.93278	America/Bahia	2018-12-15	-11.48472
Progreso	accep	-89.66123	America/Merida	2021-10-28	21.28306
Milledgeville	excellent	-83.2321	America/New_York	08 May 2013	33.08014
Denderleeuw	average	4.07601	Europe/Brussels	2018-04-06	50.88506
Sun City Center	accep	-82.35176	America/New_York	02/08/2021, 00:00:00	27.71809
Montana	good	23.225	Europe/Sofia	03 Jun 2021	43.4125
Landshut	excellent	12.16179	Europe/Berlin	2016/05/25	48.52961
Chilibre	building	-79.62098	America/Panama	2016/02/27	9.15093
Covington	accep	-84.50855	America/New_York	2021-11-04	39.08367
Diamond Harbour	good	88.18466	Asia/Kolkata	2021/07/10	22.19303
El Alia	average	10.03478	Africa/Tunis	2018/11/07	37.16911
Yenagoa	good	6.26764	Africa/Lagos	2013-08-30	4.92675
Salima	accep	34.4587	Africa/Blantyre	14 Aug 2013	-13.7804
Kamina	excellent	24.99798	Africa/Lubumbashi	2017/03/16	-8.73508
Catende	good	-35.71667	America/Recife	2022/06/04	-8.66667
Belle Glade	good	-80.66756	America/New_York	2012/12/09	26.68451
Estelle	acceptable	-90.10674	America/Chicago	05/10/2019, 00:00:00	29.84576
Cebu City	maintenance	123.89071	Asia/Manila	26 Jul 2016	10.31672
Myawadi	excellent	98.50893	Asia/Yangon	05/30/2013, 00:00:00	16.68911
Esperanza	excellent	-60.93173	America/Argentina/Cordoba	2017/12/06	-31.4488
Yao	good	135.6	Asia/Tokyo	03/09/2020, 00:00:00	34.61667
Nova Kakhovka	building	33.34864	Europe/Kiev	21 Oct 2020	46.75451
Leteri	building	77.40858	Asia/Kolkata	05/10/2018, 00:00:00	24.05979
Carnaxide	maintenance	-9.24671	Europe/Lisbon	2013-12-06	38.72706
South Lawndale	accep	-87.71255	America/Chicago	2020-09-19	41.84364
Niort	average	-0.45877	Europe/Paris	2018-02-20	46.32313
Barracas	building	-58.38341	America/Argentina/Buenos_Aires	24 Jul 2013	-34.64966
Brzeg	average	17.4674	Europe/Warsaw	11/15/2020, 00:00:00	50.86079
Darreh Shahr	accep	47.3799	Asia/Tehran	06/12/2021, 00:00:00	33.14447
Novopavlovsk	building	43.63417	Europe/Moscow	11/30/2020, 00:00:00	43.96222
La Victoria	accep	-67.33122	America/Caracas	03/10/2020, 00:00:00	10.22677
Larkana	good	68.21204	Asia/Karachi	2014/08/24	27.55898
Kallio	good	24.95034	Europe/Helsinki	14 Apr 2016	60.18427
Aberdeen	good	-2.09814	Europe/London	21 Feb 2015	57.14369
Peabody	excellent	-70.92866	America/New_York	2019/03/09	42.52787
La Garenne-Colombes	accep	2.2469	Europe/Paris	2022-03-13	48.90472
Alytus	maintenance	24.04142	Europe/Vilnius	2021/01/08	54.39635
Aracaju	good	-37.07167	America/Maceio	2015-12-22	-10.91111
Rafaela	average	-61.4867	America/Argentina/Cordoba	2021-07-23	-31.25033
Patnos	good	42.85693	Europe/Istanbul	20 Apr 2020	39.22493
Novosilikatnyy	excellent	83.62389	Asia/Barnaul	2013/07/23	53.30972
Yanliang	accep	109.22921	Asia/Shanghai	2015/12/14	34.65918
Kingston upon Hull	building	-0.33525	Europe/London	07/29/2019, 00:00:00	53.7446
Denderleeuw	good	4.07601	Europe/Brussels	2022/06/07	50.88506
Vienne	accep	4.86667	Europe/Paris	01/18/2013, 00:00:00	45.51667
Reus	good	1.10687	Europe/Madrid	11 Feb 2016	41.15612
Komono	accep	136.51667	Asia/Tokyo	2017/04/26	35
San Rafael	excellent	-84.13722	America/Costa_Rica	2022-04-29	9.92787
Gariadhar	building	71.57737	Asia/Kolkata	24 Jan 2014	21.53889
Fresno	good	-95.44744	America/Chicago	02/20/2014, 00:00:00	29.53885
Granger	accep	-86.11084	America/Indiana/Indianapolis	2022/07/12	41.75338
Oktyabr‚Äôskiy	accep	53.47103	Asia/Yekaterinburg	2015-03-09	54.48147
Nampa	good	-116.56346	America/Boise	2019-05-16	43.54072
Villa del Rosario	accep	-72.47417	America/Bogota	12/30/2016, 00:00:00	7.83389
Olupona	average	4.18333	Africa/Lagos	2016/07/12	7.6
Kheda	accep	72.68533	Asia/Kolkata	2019-06-17	22.75218
Ozersk	building	60.70278	Asia/Yekaterinburg	01/03/2019, 00:00:00	55.75556
Malnate	good	8.88104	Europe/Rome	2022/03/08	45.79377
Kashipur	accep	78.95693	Asia/Kolkata	10/11/2021, 00:00:00	29.21399
South Whittier	excellent	-118.03917	America/Los_Angeles	22 Oct 2013	33.95015
Biu	excellent	12.19458	Africa/Lagos	12/15/2015, 00:00:00	10.61285
Oldenzaal	good	6.92917	Europe/Amsterdam	12/10/2018, 00:00:00	52.31333
Iwade	accep	135.31667	Asia/Tokyo	2020/10/05	34.25
Charlottenburg-Nord	accep	13.29371	Europe/Berlin	2022-09-07	52.53048
Palmeira	excellent	-50.00639	America/Sao_Paulo	23 Apr 2019	-25.42944
Somoto	average	-86.58208	America/Managua	2017-09-08	13.48082
Kyzylorda	excellent	65.50917	Asia/Qyzylorda	05 Oct 2019	44.85278
Pekin	maintenance	-89.64066	America/Chicago	2022-02-22	40.56754
Al Jubayl	good	49.62251	Asia/Riyadh	28 May 2016	27.0174
Darreh Shahr	building	47.3799	Asia/Tehran	2020/03/15	33.14447
Zacoalco de Torres	average	-103.5687	America/Mexico_City	04/03/2016, 00:00:00	20.22816
San Juan de Aznalfarache	accep	-6.03731	Europe/Madrid	24 Jan 2017	37.35813
Rafiganj	maintenance	84.63445	Asia/Kolkata	15 Jul 2021	24.81757
Deltona	good	-81.26367	America/New_York	06 Jun 2020	28.90054
Clermont	accep	-81.77285	America/New_York	05/10/2016, 00:00:00	28.54944
Kelowna	good	-119.48568	America/Vancouver	2020-01-17	49.88307
Alwaye	average	76.35484	Asia/Kolkata	2017/10/29	10.10649
Lodwar	excellent	35.59642	Africa/Nairobi	2021-08-08	3.11988
Independence	excellent	-94.41551	America/Chicago	2019/07/14	39.09112
Puertollano	building	-4.10734	Europe/Madrid	2018-04-01	38.68712
Malnate	good	8.88104	Europe/Rome	10/11/2016, 00:00:00	45.79377
Chilibre	excellent	-79.62098	America/Panama	2015/03/04	9.15093
Vienne	accep	4.86667	Europe/Paris	2019/05/20	45.51667
Roi Et	accep	103.65309	Asia/Bangkok	2013-05-10	16.0567
Paredes	average	-8.33147	Europe/Lisbon	2021/10/19	41.20485
Kolomyagi	excellent	30.28491	Europe/Moscow	2020-05-01	60.02427
Adliswil	average	8.52462	Europe/Zurich	2018-01-20	47.30997
Oberhausen	accep	6.8625	Europe/Berlin	06/19/2019, 00:00:00	51.47805
Tianfu	maintenance	122.05228	Asia/Shanghai	2016-01-21	37.19723
Sirsi	good	74.83554	Asia/Kolkata	23 Feb 2022	14.62072
South Lawndale	building	-87.71255	America/Chicago	07/16/2015, 00:00:00	41.84364
Carlos Barbosa	good	-51.50361	America/Sao_Paulo	25 May 2022	-29.2975
Naga	maintenance	123.758	Asia/Manila	12/19/2013, 00:00:00	10.20898
Ken Caryl	average	-105.11221	America/Denver	03/04/2020, 00:00:00	39.57582
Lesozavodsk	good	133.42825	Asia/Vladivostok	2017/12/27	45.47885
Strzelce Opolskie	maintenance	18.30056	Europe/Warsaw	2017-05-06	50.5107
Longview	excellent	-94.74049	America/Chicago	13 Jun 2019	32.5007
Sukabumi	good	106.92667	Asia/Jakarta	2019/01/11	-6.91806
Sassari	good	8.55552	Europe/Rome	2017-04-25	40.72586
Taunton	good	-71.08977	America/New_York	2014/10/16	41.9001
Niort	accep	-0.45877	Europe/Paris	2022-07-22	46.32313
Sorsogon	average	123.99333	Asia/Manila	2014/06/22	12.97389
Timaru	excellent	171.25364	Pacific/Auckland	2018/12/02	-44.39672
Nova Xavantina	good	-52.35558	America/Cuiaba	11/19/2021, 00:00:00	-14.66463
Qadirpur Ran	accep	71.67164	Asia/Karachi	14 May 2018	30.29184
Antipolo	average	121.12251	Asia/Manila	2020-08-23	14.62578
Ciudad Guayana	building	-62.64102	America/Caracas	19 Dec 2021	8.35122
Dehiwala-Mount Lavinia	excellent	79.87116	Asia/Colombo	2018/01/12	6.84019
Westchester	maintenance	-87.882	America/Chicago	2019-03-18	41.85059
Nowshahr	accep	51.49621	Asia/Tehran	11 Dec 2016	36.64852
Rutherglen	excellent	-4.21376	Europe/London	05/17/2018, 00:00:00	55.82885
Gainesville	good	-82.32483	America/New_York	2022/01/30	29.65163
Boli	average	130.57211	Asia/Shanghai	11/29/2012, 00:00:00	45.75279
El Alia	acceptable	10.03478	Africa/Tunis	01 May 2018	37.16911
Betamcherla	excellent	78.14797	Asia/Kolkata	09/01/2015, 00:00:00	15.45144
Pedro II	good	-41.45861	America/Fortaleza	2014-08-21	-4.42472
Siliana	average	9.37082	Africa/Tunis	05/21/2021, 00:00:00	36.08497
Gero	accep	137.23333	Asia/Tokyo	16 Oct 2019	35.8
Iringa	accep	35.7	Africa/Dar_es_Salaam	2021-04-05	-7.76667
Strathfield	accep	151.07986	Australia/Sydney	01/05/2017, 00:00:00	-33.88096
Saraj	excellent	21.32778	Europe/Skopje	2017/10/04	42
Meizhou	accep	116.11768	Asia/Shanghai	2017-08-13	24.28859
Kantharalak	maintenance	104.64992	Asia/Bangkok	2016-07-15	14.64056
Palm Valley	excellent	-81.38758	America/New_York	2017/09/27	30.17746
Biu	good	12.19458	Africa/Lagos	10/20/2016, 00:00:00	10.61285
Norco	accep	-117.54866	America/Los_Angeles	12/06/2013, 00:00:00	33.93113
Bron	maintenance	4.91667	Europe/Paris	2021-01-19	45.73333
Karatsu	accep	129.96972	Asia/Tokyo	2017-03-01	33.4425
Searcy	building	-91.73625	America/Chicago	2017-07-17	35.25064
Kirchlengern	building	8.63333	Europe/Berlin	13 Jun 2014	52.2
Kediri	good	112.01667	Asia/Jakarta	11/02/2017, 00:00:00	-7.81667
Timaru	accep	171.25364	Pacific/Auckland	2016-01-21	-44.39672
Solntsevo	accep	37.38115	Europe/Moscow	12 Nov 2020	55.63711
Oberhausen	good	6.8625	Europe/Berlin	2021-11-11	51.47805
Glogovac	building	20.89389	Europe/Belgrade	07/13/2022, 00:00:00	42.62833
Norfolk County	building	-80.38297	America/Toronto	2017/08/08	42.8334
Baki	maintenance	43.38531	Africa/Mogadishu	08 Jul 2020	9.89206
Nova Kakhovka	excellent	33.34864	Europe/Kiev	2018/03/16	46.75451
Zeitz	accep	12.1369	Europe/Berlin	2015-10-29	51.04962
Poulton-le-Fylde	accep	-2.98333	Europe/London	23 Sep 2020	53.83333
Yangambi	maintenance	24.43973	Africa/Lubumbashi	2014/08/12	0.76755
Batu Feringgi	accep	100.24529	Asia/Kuala_Lumpur	2018/05/12	5.4709
West Des Moines	good	-93.71133	America/Chicago	02/16/2021, 00:00:00	41.57721
Andijon	average	72.34424	Asia/Tashkent	2018/04/10	40.78206
Tsuen Wan	accep	114.10479	Asia/Hong_Kong	27 Nov 2020	22.37066
Mbalmayo	average	11.5	Africa/Douala	10/31/2013, 00:00:00	3.51667
Martinsburg	good	-77.96389	America/New_York	2014-06-24	39.45621
Bourbonnais	excellent	-87.88754	America/Chicago	2016/11/12	41.15376
Gaziantep	accep	37.3825	Europe/Istanbul	2019/03/01	37.05944
Baulkham Hills	average	150.99292	Australia/Sydney	06/29/2020, 00:00:00	-33.75881
Ehingen	average	9.72749	Europe/Berlin	2014-03-13	48.28259
Malakhovka	good	38.02486	Europe/Moscow	2016/05/01	55.64776
Pekanbaru	average	101.44167	Asia/Jakarta	2018-04-18	0.51667
Lagos	accep	3.39467	Africa/Lagos	13 Sep 2021	6.45407
Yao	excellent	135.6	Asia/Tokyo	2014-08-07	34.61667
Brazzaville	good	15.28318	Africa/Brazzaville	03/05/2014, 00:00:00	-4.26613
Middle River	good	-76.43941	America/New_York	2014/02/07	39.33427
Minokamo	good	137.02166	Asia/Tokyo	10/18/2021, 00:00:00	35.48199
Boli	accep	130.57211	Asia/Shanghai	11 Jan 2017	45.75279
Mouscron	accep	3.20639	Europe/Brussels	10 Nov 2014	50.74497
Nidderau	excellent	8.86704	Europe/Berlin	2014/06/22	50.23805
Santa Gertrudes	accep	-47.53028	America/Sao_Paulo	04/14/2020, 00:00:00	-22.45667
Ehingen	good	9.72749	Europe/Berlin	2014/03/17	48.28259
Volla	good	14.34085	Europe/Rome	2022-03-18	40.87363
New Yekepa	excellent	-8.53778	Africa/Monrovia	2020-05-21	7.57944
Darreh Shahr	accep	47.3799	Asia/Tehran	2014-12-27	33.14447
Lower West Side	building	-87.66561	America/Chicago	09/03/2018, 00:00:00	41.8542
Siegburg	excellent	7.20769	Europe/Berlin	12 Sep 2019	50.80019
Ken Caryl	accep	-105.11221	America/Denver	28 Aug 2022	39.57582
Okahandja	good	16.91667	Africa/Windhoek	2019-08-10	-21.98333
Carindale	accep	153.10236	Australia/Brisbane	2020/02/08	-27.50578
Tarakan	accep	117.59152	Asia/Makassar	11/15/2018, 00:00:00	3.31332
Motomachi	maintenance	144.09638	Asia/Tokyo	18 Mar 2014	43.82634
Sar-e Pul	average	65.93249	Asia/Kabul	10 Dec 2020	36.21544
Norwalk	good	-82.61573	America/New_York	2014-06-22	41.24255
Frenda	good	1.04945	Africa/Algiers	12/27/2012, 00:00:00	35.06544
Maryborough	maintenance	152.70493	Australia/Brisbane	2013/03/27	-25.54073
Mongo	excellent	18.69303	Africa/Ndjamena	2016/10/05	12.18441
Sakaraha	good	44.53333	Indian/Antananarivo	23 Jun 2014	-22.9
La Victoria	good	-67.33122	America/Caracas	2017-10-21	10.22677
Dehiwala-Mount Lavinia	excellent	79.87116	Asia/Colombo	2021-12-15	6.84019
Recife	good	-34.88111	America/Recife	08/25/2014, 00:00:00	-8.05389
Amreli	accep	71.21169	Asia/Kolkata	2017/01/12	21.59983
Griffith	accep	146.05093	Australia/Sydney	07/13/2017, 00:00:00	-34.28853
Busia	maintenance	34.11169	Africa/Nairobi	08 Sep 2015	0.46005
Valday	average	33.2525	Europe/Moscow	2015/04/20	57.97472
Chharra	average	78.40102	Asia/Kolkata	02/09/2016, 00:00:00	27.9247
Gua Musang	good	101.96857	Asia/Kuala_Lumpur	11 Feb 2015	4.88441
Eisen	good	128.63083	Asia/Seoul	2013-01-04	36.82167
Aksaray	accep	34.02537	Europe/Istanbul	26 Jan 2017	38.37255
Madrid	maintenance	-74.26419	America/Bogota	12/31/2017, 00:00:00	4.73245
Gilbert	average	-111.78903	America/Phoenix	04 Feb 2018	33.35283
Dongfeng	excellent	125.51176	Asia/Shanghai	29 Oct 2014	42.64031
Nyahururu	average	36.36339	Africa/Nairobi	18 Jan 2020	0.03813
Houthalen	maintenance	5.37429	Europe/Brussels	08/08/2017, 00:00:00	51.03427
Beveren	average	4.25633	Europe/Brussels	2018-05-27	51.21187
Rutland	excellent	-72.97261	America/New_York	09/21/2015, 00:00:00	43.61062
Lexington	excellent	-81.23621	America/New_York	06/10/2021, 00:00:00	33.98154
Dharmapuri	good	78.15794	Asia/Kolkata	2019-12-05	12.1277
Periyakulam	accep	77.54372	Asia/Kolkata	09/24/2022, 00:00:00	10.12268
Gariadhar	accep	71.57737	Asia/Kolkata	2017-07-03	21.53889
Kantharalak	excellent	104.64992	Asia/Bangkok	02/08/2018, 00:00:00	14.64056
Olanchito	good	-86.57415	America/Tegucigalpa	23 Jun 2022	15.48131
Memmingen	accep	10.18527	Europe/Berlin	2015/05/24	47.98372
Beni	excellent	29.47306	Africa/Lubumbashi	04/04/2016, 00:00:00	0.49113
Chharra	good	78.40102	Asia/Kolkata	05/08/2020, 00:00:00	27.9247
Petrozavodsk	building	34.34691	Europe/Moscow	2018/08/19	61.78491
Viradouro	good	-48.29694	America/Sao_Paulo	10/16/2021, 00:00:00	-20.87306
Port Richmond	excellent	-74.13653	America/New_York	2013/01/17	40.63316
Meerut	good	77.70636	Asia/Kolkata	2014-06-10	28.98002
Clacton-on-Sea	maintenance	1.15597	Europe/London	16 Oct 2019	51.78967
San Gabriel	accep	-118.10583	America/Los_Angeles	2020/04/25	34.09611
Jerada	accep	-2.16	Africa/Casablanca	01/24/2018, 00:00:00	34.31
Aleshtar	good	48.26258	Asia/Tehran	01 Feb 2015	33.86419
Toba	excellent	136.84186	Asia/Tokyo	05 Jun 2017	34.4833
Chichicastenango	accep	-91.11667	America/Guatemala	2020-05-23	14.93333
Selby	good	-1.06667	Europe/London	20 Jun 2016	53.78333
Carindale	building	153.10236	Australia/Brisbane	08/21/2015, 00:00:00	-27.50578
Woodbridge	accep	-74.28459	America/New_York	15 Feb 2014	40.5576
Thetford	good	0.75	Europe/London	08/10/2022, 00:00:00	52.41667
Bushey	good	-0.36053	Europe/London	25 Apr 2014	51.64316
Tianfu	excellent	122.05228	Asia/Shanghai	14 Jan 2017	37.19723
Montana	average	23.225	Europe/Sofia	2020/04/23	43.4125
Kachkanar	accep	59.4839	Asia/Yekaterinburg	10/03/2021, 00:00:00	58.7002
Far Rockaway	excellent	-73.75513	America/New_York	11/18/2018, 00:00:00	40.60538
Madrid	accep	-74.26419	America/Bogota	28 May 2015	4.73245
Rafiganj	building	84.63445	Asia/Kolkata	06/18/2017, 00:00:00	24.81757
Kherson	accep	32.6178	Europe/Kiev	2013/09/26	46.65581
Temara	average	-6.90656	Africa/Casablanca	2017-05-20	33.92866
Selby	accep	-1.06667	Europe/London	14 May 2015	53.78333
Progreso	good	-89.66123	America/Merida	21 Jun 2022	21.28306
Roseto degli Abruzzi	excellent	14.01481	Europe/Rome	2021-10-23	42.67164
Ventimiglia	good	7.60872	Europe/Rome	2022-07-17	43.78956
Abilene	excellent	-99.73314	America/Chicago	2022-05-09	32.44874
Rutherglen	building	-4.21376	Europe/London	2020-08-05	55.82885
Custoias	accep	-7.32097	Europe/Lisbon	03/25/2014, 00:00:00	41.1053
Beaumont	accep	-116.97725	America/Los_Angeles	2013-01-25	33.92946
Bonoua	maintenance	-3.59625	Africa/Abidjan	01/30/2014, 00:00:00	5.27247
Bordj Zemoura	accep	4.85668	Africa/Algiers	2016-12-04	36.27462
Osmanabad	average	76.03889	Asia/Kolkata	14 Jan 2019	18.18158
North Tustin	accep	-117.79394	America/Los_Angeles	11/22/2013, 00:00:00	33.76446
Durazno	excellent	-56.52361	America/Montevideo	2019/01/05	-33.38056
Jingzhou	building	112.19028	Asia/Shanghai	2019/01/15	30.35028
Westchester	good	-87.882	America/Chicago	01/19/2018, 00:00:00	41.85059
Recodo	accep	121.96361	Asia/Manila	02/14/2014, 00:00:00	6.95194
Tortona	building	8.86374	Europe/Rome	2015-06-19	44.89784
Idenao	excellent	9.00472	Africa/Douala	2017-04-22	4.2475
Port of Spain	good	-61.51889	America/Port_of_Spain	21 Dec 2018	10.66668
Puerto Colombia	average	-74.95472	America/Bogota	2012-11-16	10.98778
Shepetivka	excellent	27.06365	Europe/Kiev	2021/05/26	50.18545
Skalica	maintenance	17.22635	Europe/Bratislava	02/19/2016, 00:00:00	48.8449
Eisen	excellent	128.63083	Asia/Seoul	2022/05/22	36.82167
Sakaraha	maintenance	44.53333	Indian/Antananarivo	2015-03-15	-22.9
Taozhuang	maintenance	117.33333	Asia/Shanghai	12/11/2013, 00:00:00	34.85
Balikpapan	excellent	116.82887	Asia/Makassar	08 Dec 2015	-1.26753
Saraj	good	21.32778	Europe/Skopje	2022-07-29	42
Frederiksberg	maintenance	12.53463	Europe/Copenhagen	08 Jul 2014	55.67938
Walsrode	good	9.5926	Europe/Berlin	2014/04/02	52.86147
Chichicastenango	excellent	-91.11667	America/Guatemala	27 Aug 2017	14.93333
Gajendragarh	average	75.96976	Asia/Kolkata	2021-12-13	15.73628
Dehiwala-Mount Lavinia	good	79.87116	Asia/Colombo	16 Nov 2019	6.84019
Uran	accep	72.93924	Asia/Kolkata	2021-11-06	18.87813
Mokopane	good	29.00974	Africa/Johannesburg	2019/06/14	-24.19436
Chichicastenango	good	-91.11667	America/Guatemala	06/10/2016, 00:00:00	14.93333
Yanliang	good	109.22921	Asia/Shanghai	01 Feb 2014	34.65918
Bua Yai	accep	102.42587	Asia/Bangkok	04/30/2021, 00:00:00	15.58552
Cowes	average	-1.29772	Europe/London	2022/01/26	50.76306
Marburg an der Lahn	accep	8.77069	Europe/Berlin	09/08/2021, 00:00:00	50.80904
Pilar	good	120.56528	Asia/Manila	27 Oct 2017	14.66
Santa Cruz de Barahona	maintenance	-71.10077	America/Santo_Domingo	2021-10-20	18.20854
Msaken	average	10.58082	Africa/Tunis	2017/11/05	35.72917
Temse	average	4.21372	Europe/Brussels	2014/10/26	51.12794
Boli	building	130.57211	Asia/Shanghai	10/20/2013, 00:00:00	45.75279
Weimar	average	11.32903	Europe/Berlin	29 Sep 2017	50.9803
Iwade	average	135.31667	Asia/Tokyo	12/10/2018, 00:00:00	34.25
Tupelo	building	-88.70464	America/Chicago	2019-09-15	34.25807
Troutdale	good	-122.38731	America/Los_Angeles	2016/02/03	45.53929
Tongelre	maintenance	5.51978	Europe/Amsterdam	03 Feb 2015	51.44889
Caldas Novas	accep	-48.62789	America/Sao_Paulo	04 Jan 2021	-17.74431
Sydney	accep	-60.1831	America/Glace_Bay	2016/09/17	46.1351
Tyoply Stan	building	37.49338	Europe/Moscow	05 Mar 2013	55.62047
Aytos	average	27.25	Europe/Sofia	2017-01-03	42.7
Curitiba	maintenance	-49.27306	America/Sao_Paulo	2020-01-30	-25.42778
Mouscron	average	3.20639	Europe/Brussels	14 Feb 2020	50.74497
Guli	average	120.03308	Asia/Shanghai	2014/07/18	28.88162
Chosica	good	-76.70944	America/Lima	03/03/2022, 00:00:00	-11.94306
Dahlem	excellent	13.28702	Europe/Berlin	17 Sep 2019	52.4581
Gaziantep	accep	37.3825	Europe/Istanbul	10 Nov 2016	37.05944
Opportunity	excellent	-117.23991	America/Los_Angeles	2021-05-06	47.64995
Thap Than	average	99.89166	Asia/Bangkok	2017/02/04	15.46063
Teziutlan	average	-97.35992	America/Mexico_City	2017-04-15	19.8173
Peabody	excellent	-70.92866	America/New_York	2019/01/21	42.52787
Hardenberg	average	6.61944	Europe/Amsterdam	01/30/2020, 00:00:00	52.57583
Teziutlan	average	-97.35992	America/Mexico_City	11/07/2017, 00:00:00	19.8173
Jaruco	accep	-82.00919	America/Havana	2021/02/05	23.04419
Le Robert	excellent	-60.94228	America/Martinique	2016/03/27	14.67751
Rudolstadt	excellent	11.34046	Europe/Berlin	2014-12-02	50.72043
Kensington	maintenance	-73.97069	America/New_York	2017-06-29	40.64621
Thomazeau	building	-72.09391	America/Port-au-Prince	2021-11-12	18.65297
Messaad	excellent	3.50309	Africa/Algiers	2018/09/14	34.15429
Aytos	average	27.25	Europe/Sofia	2018-01-11	42.7
Thenia	accep	3.55665	Africa/Algiers	22 Jan 2013	36.72544
Naro-Fominsk	accep	36.73307	Europe/Moscow	04/14/2019, 00:00:00	55.38752
Progreso	accep	-89.66123	America/Merida	2017-07-06	21.28306
Custoias	excellent	-7.32097	Europe/Lisbon	16 Dec 2012	41.1053
Aloha	excellent	-122.86705	America/Los_Angeles	09/16/2015, 00:00:00	45.49428
Kuvandyk	excellent	57.3552	Asia/Yekaterinburg	24 Apr 2017	51.4781
South Lawndale	good	-87.71255	America/Chicago	09/29/2016, 00:00:00	41.84364
Wacheng	good	114.51667	Asia/Shanghai	2017/11/09	33.78333
Astara	maintenance	48.87498	Asia/Baku	2014/11/28	38.45598
Deoli	maitennce	75.37991	Asia/Kolkata	28 May 2018	25.75728
Sungurlu	average	34.37389	Europe/Istanbul	28 Apr 2013	40.1675
Yashkino	maintenance	85.4265	Asia/Novokuznetsk	2017-05-08	55.8736
Barnet	good	-0.2	Europe/London	05/23/2022, 00:00:00	51.65
Bobigny	accep	2.45012	Europe/Paris	2020-11-13	48.90982
Strood	good	0.47713	Europe/London	03 Jul 2013	51.39323
Gero	good	137.23333	Asia/Tokyo	01/01/2013, 00:00:00	35.8
Nutley	average	-74.15987	America/New_York	02/26/2015, 00:00:00	40.82232
Kent	good	-122.23484	America/Los_Angeles	20 Mar 2018	47.38093
Azrou	excellent	-5.22126	Africa/Casablanca	2016-12-22	33.43443
Verl	accep	8.51667	Europe/Berlin	15 Oct 2021	51.88333
Pilar	good	120.56528	Asia/Manila	2020-10-10	14.66
Scarsdale	maintenance	-73.78458	America/New_York	2016-04-03	41.0051
Mikhaylovka	maintenance	43.2379	Europe/Volgograd	2021/12/16	50.06
Waverly	excellent	-84.62081	America/Detroit	03 Feb 2019	42.7392
San Carlos	excellent	-75.69947	America/Bogota	2018/11/24	8.79577
Esperanza	accep	-60.93173	America/Argentina/Cordoba	2014/12/23	-31.4488
Port Richmond	accep	-74.13653	America/New_York	08/13/2019, 00:00:00	40.63316
Granger	accep	-86.11084	America/Indiana/Indianapolis	2021/06/21	41.75338
Santa Cruz de Barahona	good	-71.10077	America/Santo_Domingo	2014-08-05	18.20854
Sakaraha	accep	44.53333	Indian/Antananarivo	2014/09/22	-22.9
La Garenne-Colombes	good	2.2469	Europe/Paris	2021/01/22	48.90472
Dumont	good	-73.99681	America/New_York	22 Nov 2021	40.94065
Perugia	good	12.38878	Europe/Rome	2017-02-16	43.1122
Kashira	accep	38.16694	Europe/Moscow	2020-12-17	54.84444
Likhobory	accep	37.56667	Europe/Moscow	15 Feb 2017	55.85
Jackson	building	-88.81395	America/Chicago	07 Jun 2022	35.61452
Tharu Shah	accep	68.11759	Asia/Karachi	2012/12/10	26.9423
Zacoalco de Torres	average	-103.5687	America/Mexico_City	2020/10/02	20.22816
Rwamagana	good	30.4347	Africa/Kigali	25 Oct 2017	-1.9487
Belper	accep	-1.48119	Europe/London	2019/02/02	53.0233
Strzelce Opolskie	maintenance	18.30056	Europe/Warsaw	2018/12/30	50.5107
Fresno	average	-95.44744	America/Chicago	04 Sep 2020	29.53885
Walsrode	maintenance	9.5926	Europe/Berlin	2017-08-22	52.86147
Newburgh	maintenance	-74.01042	America/New_York	2022-08-04	41.50343
Bad Honnef	average	7.2278	Europe/Berlin	2020-08-09	50.64336
Stade	average	9.47629	Europe/Berlin	2016-07-01	53.59337
Hueytown	good	-86.99666	America/Chicago	10/25/2019, 00:00:00	33.45122
Dombivli	good	73.08333	Asia/Kolkata	03/02/2015, 00:00:00	19.21667
South Lawndale	accep	-87.71255	America/Chicago	01 Jan 2017	41.84364
Busia	good	34.11169	Africa/Nairobi	2020-08-13	0.46005
les Escaldes	accep	1.53414	Europe/Andorra	2015-10-05	42.50729
Juhaynah	building	31.4976	Africa/Cairo	21 Jan 2019	26.67319
Rosedale	average	-76.51552	America/New_York	02/28/2018, 00:00:00	39.32011
Mianwali	average	71.52847	Asia/Karachi	2022-03-21	32.57756
Bushey	excellent	-0.36053	Europe/London	2021-09-07	51.64316
Dombivli	accep	73.08333	Asia/Kolkata	2020-03-02	19.21667
Penzance	average	-5.53715	Europe/London	2016-10-23	50.11861
Colomiers	maintenance	1.33467	Europe/Paris	02 Aug 2018	43.61058
Alatyr‚Äô	excellent	46.5813	Europe/Moscow	18 Jun 2021	54.8421
Gates-North Gates	maintenance	-77.70066	America/New_York	2014/06/19	43.16547
Marburg an der Lahn	excellent	8.77069	Europe/Berlin	20 Jan 2022	50.80904
Imbituba	average	-48.67028	America/Sao_Paulo	2018-04-14	-28.24
Punta Gorda Isles	excellent	-82.07842	America/New_York	2019/10/15	26.91756
Lille	accep	4.82313	Europe/Brussels	2018-08-12	51.24197
Kangayam	average	77.5609	Asia/Kolkata	06/07/2019, 00:00:00	11.00599
Yao	average	135.6	Asia/Tokyo	08 Mar 2022	34.61667
Barinas	excellent	-70.20749	America/Caracas	2021/09/27	8.62261
Leyland	good	-2.68758	Europe/London	07 Jun 2016	53.69786
Lal Bahadur Nagar	accep	78.55757	Asia/Kolkata	06 Mar 2019	17.34769
Corralillo	accep	-80.58556	America/Havana	2018/12/26	22.98212
Boo	excellent	18.28333	Europe/Stockholm	05/02/2018, 00:00:00	59.33333
Siliana	good	9.37082	Africa/Tunis	2019-12-12	36.08497
Tupi	maitennce	124.95278	Asia/Manila	2018-04-02	6.33444
Maryborough	building	152.70493	Australia/Brisbane	2016-10-03	-25.54073
Sishui	accep	117.27583	Asia/Shanghai	2018/10/16	35.64889
Yasothon	accep	104.1451	Asia/Bangkok	09 Nov 2012	15.79408
Norco	excellent	-117.54866	America/Los_Angeles	2022-06-18	33.93113
Mvomero	excellent	38.66667	Africa/Dar_es_Salaam	29 Mar 2020	-6.25
Itaperuna	good	-41.88778	America/Sao_Paulo	2020/05/07	-21.205
Fitchburg	excellent	-71.8023	America/New_York	22 Jun 2019	42.58342
Westbury	building	-2.1875	Europe/London	04/18/2015, 00:00:00	51.26
Rudolstadt	average	11.34046	Europe/Berlin	2017-11-14	50.72043
Port of Spain	excellent	-61.51889	America/Port_of_Spain	08/08/2016, 00:00:00	10.66668
Frenda	accep	1.04945	Africa/Algiers	2015/06/22	35.06544
Sinhyeon	excellent	128.62667	Asia/Seoul	01/24/2021, 00:00:00	34.8825
Elbeuf	maintenance	1.00288	Europe/Paris	06/16/2019, 00:00:00	49.28669
Beveren	good	4.25633	Europe/Brussels	2018/05/08	51.21187
Marseille 11	building	5.4384	Europe/Paris	2018-09-14	43.2907
Debre Tabor	excellent	38.01667	Africa/Addis_Ababa	2015/04/01	11.85
Wangon	building	109.05389	Asia/Jakarta	10/27/2018, 00:00:00	-7.51611
Port Richmond	good	-74.13653	America/New_York	2019/09/24	40.63316
Krasyliv	excellent	26.97253	Europe/Kiev	09/18/2020, 00:00:00	49.65186
Verl	building	8.51667	Europe/Berlin	11/02/2019, 00:00:00	51.88333
Dorval	average	-73.75335	America/Toronto	2019/01/03	45.4473
Kent	maintenance	-122.23484	America/Los_Angeles	03/27/2016, 00:00:00	47.38093
Jaruco	building	-82.00919	America/Havana	2013/03/02	23.04419
Clacton-on-Sea	accep	1.15597	Europe/London	11/25/2021, 00:00:00	51.78967
Negotin	excellent	22.53083	Europe/Belgrade	07 Jul 2019	44.22639
Serinhisar	good	29.26639	Europe/Istanbul	07/04/2017, 00:00:00	37.58105
Aguilares	excellent	-65.61427	America/Argentina/Tucuman	2017-09-12	-27.4338
Somoto	average	-86.58208	America/Managua	2020/10/18	13.48082
Scarsdale	excellent	-73.78458	America/New_York	02/25/2017, 00:00:00	41.0051
New City	average	-87.65644	America/Chicago	2016/07/22	41.80753
Villabate	maintenance	13.44275	Europe/Rome	04/20/2022, 00:00:00	38.07789
Ken Caryl	good	-105.11221	America/Denver	07 Jan 2014	39.57582
Rwamagana	building	30.4347	Africa/Kigali	2013/01/28	-1.9487
Izluchinsk	accep	76.92421	Asia/Yekaterinburg	17 Apr 2015	60.97944
Porterville	average	-119.01677	America/Los_Angeles	20 Apr 2022	36.06523
Gorakhpur	good	83.36889	Asia/Kolkata	2014-08-27	26.76628
Puertollano	building	-4.10734	Europe/Madrid	2014-02-24	38.68712
Lagos	excellent	3.39467	Africa/Lagos	03 Feb 2015	6.45407
Maspalomas	good	-15.58602	Atlantic/Canary	06/05/2022, 00:00:00	27.76056
Fairview Heights	good	-89.99038	America/Chicago	2016-07-21	38.58894
San Juan de Aznalfarache	accep	-6.03731	Europe/Madrid	2021/01/30	37.35813
Nowshahr	average	51.49621	Asia/Tehran	2016-06-15	36.64852
Aguadilla	accep	-67.15407	America/Puerto_Rico	03/12/2015, 00:00:00	18.42745
Schwalmtal	good	6.26667	Europe/Berlin	2019/08/19	51.21667
Itacoatiara	average	-58.44417	America/Manaus	28 Nov 2014	-3.14306
Lexington	good	-81.23621	America/New_York	02/20/2017, 00:00:00	33.98154
Vitebsk	accep	30.2049	Europe/Minsk	2018/01/16	55.1904
Lons-le-Saunier	accep	5.55575	Europe/Paris	08/04/2016, 00:00:00	46.67535
Roi Et	accep	103.65309	Asia/Bangkok	01 Sep 2019	16.0567
Bhayandar	good	72.85107	Asia/Kolkata	27 May 2017	19.30157
Jashpurnagar	average	84.13864	Asia/Kolkata	21 Oct 2019	22.88783
Pointe-Claire	excellent	-73.81669	America/Toronto	2012/10/02	45.44868
Glendale	building	-118.25508	America/Los_Angeles	01 Oct 2018	34.14251
Viradouro	building	-48.29694	America/Sao_Paulo	08 Jun 2016	-20.87306
Searcy	average	-91.73625	America/Chicago	2017-07-12	35.25064
Heroica Matamoros	good	-97.50417	America/Matamoros	2012/11/24	25.87972
Buenaventura	maintenance	-77.03116	America/Bogota	12/16/2019, 00:00:00	3.8801
Oaxaca	accep	-96.72365	America/Mexico_City	07/28/2019, 00:00:00	17.06542
Goyang-si	excellent	126.835	Asia/Seoul	2013-10-23	37.65639
Sainte-Catherine	excellent	-73.58248	America/Toronto	2012/11/23	45.40008
Gavrilov-Yam	building	39.85331	Europe/Moscow	2016-04-05	57.30185
Meerut	average	77.70636	Asia/Kolkata	2014/12/13	28.98002
Beaconsfield	good	-73.86586	America/Toronto	2015-12-24	45.43341
Nakhon Pathom	average	100.04427	Asia/Bangkok	09/20/2018, 00:00:00	13.8196
Pingyi	average	117.63083	Asia/Shanghai	21 Apr 2013	35.50056
Hofheim am Taunus	building	8.4493	Europe/Berlin	10 Sep 2022	50.09019
Kolomyagi	accep	30.28491	Europe/Moscow	2018/07/08	60.02427
Glendale	accep	-118.25508	America/Los_Angeles	05/20/2019, 00:00:00	34.14251
Mampong	building	-1.4001	Africa/Accra	2020/10/11	7.06273
La Ligua	excellent	-71.23106	America/Santiago	17 Feb 2015	-32.45242
Uran	good	72.93924	Asia/Kolkata	05/27/2020, 00:00:00	18.87813
Edremit	average	27.02444	Europe/Istanbul	01/07/2018, 00:00:00	39.59611
Hermsdorf	good	13.31783	Europe/Berlin	25 Feb 2015	52.61131
Acaponeta	building	-105.36369	America/Mazatlan	28 May 2019	22.49396
Dax	average	-1.05366	Europe/Paris	08/10/2022, 00:00:00	43.71032
Paoy Paet	average	102.56365	Asia/Phnom_Penh	2014-12-29	13.65805
Columbia Heights	accep	-93.263	America/Chicago	06/02/2017, 00:00:00	45.0408
Kent	good	-122.23484	America/Los_Angeles	04/09/2015, 00:00:00	47.38093
Tharu Shah	excellent	68.11759	Asia/Karachi	2013-12-04	26.9423
La Garenne-Colombes	excellent	2.2469	Europe/Paris	2012/10/09	48.90472
Rosedale	building	-76.51552	America/New_York	2013-12-12	39.32011
Same	excellent	37.73333	Africa/Dar_es_Salaam	20 Feb 2014	-4.06667
Nutley	excellent	-74.15987	America/New_York	2020/06/10	40.82232
Coralville	average	-91.58045	America/Chicago	2017/01/07	41.6764
Standerton	excellent	29.24152	Africa/Johannesburg	2018-10-08	-26.93366
Dehiwala-Mount Lavinia	average	79.87116	Asia/Colombo	12/03/2019, 00:00:00	6.84019
Dyat‚Äôkovo	maintenance	34.33825	Europe/Moscow	2017/10/27	53.59782
Eppingen	average	8.91229	Europe/Berlin	2018-06-21	49.13645
Labuhan Deli	good	98.6738	Asia/Jakarta	2022/01/29	3.7278
Budva	excellent	18.84	Europe/Podgorica	11 Nov 2018	42.28639
Tornio	average	24.14662	Europe/Helsinki	2018/03/19	65.84811
Muskogee	accep	-95.36969	America/Chicago	2012-12-08	35.74788
Aracaju	average	-37.07167	America/Maceio	2018-08-18	-10.91111
Rio Real	acceptable	-37.93278	America/Bahia	02/09/2016, 00:00:00	-11.48472
Kudus	building	110.8405	Asia/Jakarta	07/29/2021, 00:00:00	-6.8048
Zhukovka	excellent	33.72798	Europe/Moscow	19 Mar 2018	53.53395
Chiavari	excellent	9.32241	Europe/Rome	2021-06-15	44.31771
Elbeuf	good	1.00288	Europe/Paris	05/29/2021, 00:00:00	49.28669
Barracas	maintenance	-58.38341	America/Argentina/Buenos_Aires	2016-12-06	-34.64966
Villabate	average	13.44275	Europe/Rome	06/26/2017, 00:00:00	38.07789
Pontevedra	excellent	-58.70072	America/Argentina/Buenos_Aires	2017-11-05	-34.74785
Tharu Shah	good	68.11759	Asia/Karachi	31 Jul 2014	26.9423
Tsuen Wan	building	114.10479	Asia/Hong_Kong	2014-06-14	22.37066
Colomiers	good	1.33467	Europe/Paris	11/23/2020, 00:00:00	43.61058
Kaukauna	average	-88.27205	America/Chicago	05/29/2021, 00:00:00	44.27804
Jersey City	excellent	-74.07764	America/New_York	2014/09/28	40.72816
Lesnoy	average	59.80222	Asia/Yekaterinburg	07/20/2016, 00:00:00	58.63667
Talavera de la Reina	excellent	-4.83076	Europe/Madrid	2018/09/22	39.96348
Bensheim	good	8.61839	Europe/Berlin	2019-05-19	49.68369
Mount Hagen	maintenance	144.23058	Pacific/Port_Moresby	2015/12/25	-5.85746
Minas de Marcona	accep	-75.11028	America/Lima	2022/01/06	-15.21194
Onex	excellent	6.10237	Europe/Zurich	02/17/2013, 00:00:00	46.18396
Labuhan Deli	building	98.6738	Asia/Jakarta	09/26/2017, 00:00:00	3.7278
Cebu City	excellent	123.89071	Asia/Manila	15 Dec 2016	10.31672
Igbara-Odo	building	5.06258	Africa/Lagos	2017/01/17	7.50251
Larkana	excellent	68.21204	Asia/Karachi	2017-04-14	27.55898
Kalavoor	maintenance	76.32756	Asia/Kolkata	14 Aug 2014	9.57046
Memmingen	good	10.18527	Europe/Berlin	2021/04/03	47.98372
Floridsdorf	average	16.4	Europe/Vienna	01 Oct 2021	48.25
Alwaye	good	76.35484	Asia/Kolkata	09/10/2019, 00:00:00	10.10649
Toledo	excellent	-83.55521	America/New_York	2018-01-18	41.66394
Ukmerge	building	24.75	Europe/Vilnius	02 Apr 2018	55.25
Changzhi	average	111.73861	Asia/Shanghai	29 Oct 2021	35.20889
Denderleeuw	good	4.07601	Europe/Brussels	09/08/2022, 00:00:00	50.88506
Novosilikatnyy	maintenance	83.62389	Asia/Barnaul	27 Jun 2018	53.30972
Surbiton	average	-0.29825	Europe/London	07/06/2017, 00:00:00	51.39148
Lancing	building	-0.32247	Europe/London	23 Dec 2018	50.82882
Ar Ruseris	accep	34.3869	Africa/Khartoum	04/26/2019, 00:00:00	11.8659
Leland	accep	-78.04471	America/New_York	11/29/2018, 00:00:00	34.25628
Hlukhiv	building	33.9162	Europe/Kiev	2016-12-24	51.67822
Burgos	average	120.57224	Asia/Manila	02/08/2018, 00:00:00	15.72892
Wittenau	average	13.32127	Europe/Berlin	07/18/2018, 00:00:00	52.59319
Wacheng	excellent	114.51667	Asia/Shanghai	2019-07-20	33.78333
Shinshiro	excellent	137.5	Asia/Tokyo	2018/01/04	34.9
Memmingen	good	10.18527	Europe/Berlin	11 Apr 2016	47.98372
Polohy	excellent	36.25361	Europe/Zaporozhye	11/03/2015, 00:00:00	47.48444
Villa del Rosario	good	-72.47417	America/Bogota	29 Mar 2022	7.83389
Bon Air	accep	-77.55777	America/New_York	15 Aug 2018	37.52487
Madhipura	maintenance	86.79271	Asia/Kolkata	28 Jan 2013	25.92127
Carlos Barbosa	building	-51.50361	America/Sao_Paulo	2018/02/04	-29.2975
Huntley	good	-88.42814	America/Chicago	2013-12-24	42.16808
Wangon	excellent	109.05389	Asia/Jakarta	22 Jul 2021	-7.51611
Mokopane	excellent	29.00974	Africa/Johannesburg	10/11/2013, 00:00:00	-24.19436
Alfenas	maintenance	-45.94722	America/Sao_Paulo	13 Nov 2016	-21.42917
San Fernando de Henares	good	-3.53261	Europe/Madrid	2013/08/04	40.42386
Namerikawa	maintenance	137.36215	Asia/Tokyo	2019-07-06	36.75965
Zgorzelec	accep	15.00835	Europe/Warsaw	09/09/2015, 00:00:00	51.14942
Jerada	good	-2.16	Africa/Casablanca	2020-06-14	34.31
Tavda	average	65.27258	Asia/Yekaterinburg	2018/07/25	58.04254
Cypress Hills	average	-73.89125	America/New_York	15 Mar 2020	40.67705
Shaowu	average	117.4831	Asia/Shanghai	01/06/2013, 00:00:00	27.34089
Woodlawn	average	-76.72803	America/New_York	10 Jan 2021	39.32288
Volla	excellent	14.34085	Europe/Rome	06/17/2016, 00:00:00	40.87363
Dorval	good	-73.75335	America/Toronto	07 Sep 2020	45.4473
Waverly	excellent	-84.62081	America/Detroit	03/14/2013, 00:00:00	42.7392
Tyler	maintenance	-95.30106	America/Chicago	07/30/2017, 00:00:00	32.35126
Tinaquillo	building	-68.30472	America/Caracas	05/12/2015, 00:00:00	9.91861
Efon-Alaaye	accep	4.92235	Africa/Lagos	2019-04-01	7.65649
Baulkham Hills	accep	150.99292	Australia/Sydney	2019-10-03	-33.75881
Guapimirim	average	-42.98194	America/Sao_Paulo	09/20/2017, 00:00:00	-22.53722
Aksaray	building	34.02537	Europe/Istanbul	2022/02/03	38.37255
Friedberg	average	10.98461	Europe/Berlin	01 Apr 2018	48.35693
Ovalle	maintenance	-71.19901	America/Santiago	2019/05/23	-30.60106
Santa Catalina	building	122.8637	Asia/Manila	04/02/2022, 00:00:00	9.3337
Venice	maintenance	-82.45426	America/New_York	08/06/2021, 00:00:00	27.09978
Taozhuang	good	117.33333	Asia/Shanghai	2013/09/26	34.85
Barinas	average	-70.20749	America/Caracas	24 Apr 2018	8.62261
Krymsk	average	37.99117	Europe/Moscow	2013/02/22	44.92934
Far Rockaway	maintenance	-73.75513	America/New_York	01/26/2018, 00:00:00	40.60538
Elbeuf	excellent	1.00288	Europe/Paris	27 Nov 2020	49.28669
Lesnoy	excellent	59.80222	Asia/Yekaterinburg	2017/09/21	58.63667
El Alia	good	10.03478	Africa/Tunis	2021-04-16	37.16911
Solntsevo	average	37.38115	Europe/Moscow	2018-12-05	55.63711
Randudongkal	building	109.3243	Asia/Jakarta	07/23/2019, 00:00:00	-7.0981
South Lawndale	accep	-87.71255	America/Chicago	03 Nov 2012	41.84364
Perugia	good	12.38878	Europe/Rome	05/07/2021, 00:00:00	43.1122
Watsonville	excellent	-121.75689	America/Los_Angeles	03/18/2018, 00:00:00	36.91023
Kyaikto	building	97.01124	Asia/Yangon	12/25/2017, 00:00:00	17.30858
Nova Kakhovka	excellent	33.34864	Europe/Kiev	03 Mar 2019	46.75451
Cardedeu	excellent	2.35739	Europe/Madrid	24 Feb 2020	41.63976
Mardin	accep	40.74357	Europe/Istanbul	2019-11-26	37.31309
Ajdabiya	good	20.22625	Africa/Tripoli	13 Oct 2014	30.75545
Alatyr‚Äô	good	46.5813	Europe/Moscow	2020-10-07	54.8421
Schererville	good	-87.45476	America/Chicago	2013/05/20	41.47892
Jizzax	accep	67.84222	Asia/Samarkand	2013/10/08	40.11583
Tchaourou	average	2.59753	Africa/Porto-Novo	2021-08-11	8.88649
Kalavoor	average	76.32756	Asia/Kolkata	31 May 2021	9.57046
Albufeira	building	-8.2503	Europe/Lisbon	15 Feb 2022	37.08819
Haicheng	excellent	122.74754	Asia/Shanghai	10/12/2020, 00:00:00	40.85158
Shaowu	accep	117.4831	Asia/Shanghai	2019/05/12	27.34089
Indio	maintenance	-116.21677	America/Los_Angeles	2019/02/22	33.7207
Carlos Barbosa	average	-51.50361	America/Sao_Paulo	12 Feb 2019	-29.2975
Losser	average	7.00417	Europe/Amsterdam	23 Aug 2022	52.26083
Larkana	maintenance	68.21204	Asia/Karachi	2013-09-03	27.55898
Nova Kakhovka	good	33.34864	Europe/Kiev	18 Jun 2014	46.75451
Gaya	good	9.0027	Africa/Lagos	2016/11/10	11.86064
Kafanchan	excellent	8.2926	Africa/Lagos	12 Sep 2022	9.58126
Surbiton	good	-0.29825	Europe/London	21 Nov 2019	51.39148
Coralville	average	-91.58045	America/Chicago	24 Apr 2019	41.6764
Betamcherla	excellent	78.14797	Asia/Kolkata	14 Dec 2018	15.45144
Hungund	average	76.0586	Asia/Kolkata	04/03/2017, 00:00:00	16.06213
Chosica	accep	-76.70944	America/Lima	2019/11/25	-11.94306
Antipolo	average	121.12251	Asia/Manila	2020/12/08	14.62578
Barinas	accep	-70.20749	America/Caracas	26 Dec 2016	8.62261
Tucano	average	-38.79084	America/Bahia	2021/05/14	-10.95817
Ovalle	excellent	-71.19901	America/Santiago	16 Feb 2017	-30.60106
San Lorenzo Acopilco	excellent	-99.32556	America/Mexico_City	2013-07-22	19.32889
Milagro	building	-79.59415	America/Guayaquil	07 Aug 2018	-2.13404
Nova Kakhovka	average	33.34864	Europe/Kiev	03 Mar 2016	46.75451
Ganei Tikva	building	34.8732	Asia/Jerusalem	12/17/2013, 00:00:00	32.05971
Opportunity	average	-117.23991	America/Los_Angeles	30 Oct 2021	47.64995
Ramla	excellent	34.86563	Asia/Jerusalem	17 Feb 2021	31.92923
Soroca	good	28.28489	Europe/Chisinau	02/11/2014, 00:00:00	48.15659
Kasangulu	average	15.16554	Africa/Kinshasa	13 Jan 2019	-4.5833
Port-Vila	maintenance	168.31366	Pacific/Efate	16 Mar 2014	-17.73648
Fitchburg	excellent	-71.8023	America/New_York	2022-01-06	42.58342
Roslavl‚Äô	excellent	32.86389	Europe/Moscow	2014/09/30	53.95278
Tupelo	maintenance	-88.70464	America/Chicago	04/08/2016, 00:00:00	34.25807
Kirchlengern	accep	8.63333	Europe/Berlin	28 Feb 2018	52.2
Progreso	maintenance	-89.66123	America/Merida	17 Dec 2017	21.28306
Friedberg	good	10.98461	Europe/Berlin	06 Mar 2015	48.35693
Mirriah	building	9.15013	Africa/Niamey	04/29/2021, 00:00:00	13.70727
Nonsan	accep	127.08472	Asia/Seoul	2017-10-01	36.20389
Krymsk	good	37.99117	Europe/Moscow	06/22/2021, 00:00:00	44.92934
Beryozovsky	good	60.8019	Asia/Yekaterinburg	07/17/2015, 00:00:00	56.9083
Casa Blanca	excellent	-98.11889	America/Mexico_City	2018-12-30	19.04222
Mardin	accep	40.74357	Europe/Istanbul	11/26/2018, 00:00:00	37.31309
Tebingtinggi	maintenance	99.1625	Asia/Jakarta	2013/02/10	3.3285
Liaoyang	average	123.17306	Asia/Shanghai	16 Oct 2018	41.27194
Hongseong	building	126.665	Asia/Seoul	11/15/2016, 00:00:00	36.6009
Frankston South	good	145.13643	Australia/Melbourne	06/07/2019, 00:00:00	-38.16604
Kahului	good	-156.47432	Pacific/Honolulu	09/18/2014, 00:00:00	20.88953
Most	accep	13.63617	Europe/Prague	03 Dec 2019	50.50301
El Copey	accep	-73.9614	America/Bogota	2016/02/09	10.15031
Resplendor	excellent	-41.25528	America/Sao_Paulo	09/19/2018, 00:00:00	-19.32556
Culemborg	good	5.22778	Europe/Amsterdam	12/03/2014, 00:00:00	51.955
Tavda	average	65.27258	Asia/Yekaterinburg	2016-04-21	58.04254
Contla	excellent	-98.1664	America/Mexico_City	2022-07-02	19.32932
Reutlingen	maintenance	9.20427	Europe/Berlin	2017/11/01	48.49144
Alwaye	excellent	76.35484	Asia/Kolkata	01/02/2014, 00:00:00	10.10649
Donggongon	accep	116.10146	Asia/Kuching	20 Dec 2015	5.90702
Le Chesnay	accep	2.12213	Europe/Paris	08/15/2016, 00:00:00	48.8222
Gingee	good	79.41727	Asia/Kolkata	14 Sep 2021	12.25282
Gifhorn	accep	10.5511	Europe/Berlin	12 Apr 2015	52.47774
Hardenberg	good	6.61944	Europe/Amsterdam	2019/10/04	52.57583
Supaul	maintenance	86.59509	Asia/Kolkata	07/13/2014, 00:00:00	26.11527
Newbury	excellent	-1.32471	Europe/London	2017/02/08	51.40148
Korschenbroich	good	6.51352	Europe/Berlin	25 Jul 2019	51.19139
Karbala	accep	44.02488	Asia/Baghdad	2022/04/14	32.61603
Ulu Tiram	good	103.81667	Asia/Kuala_Lumpur	2021-03-19	1.6
Marly-le-Roi	average	2.08333	Europe/Paris	2016-10-20	48.86667
Ariccia	building	12.6723	Europe/Rome	06/30/2022, 00:00:00	41.72063
Saint-Denis	maintenance	55.4504	Indian/Reunion	2016/11/09	-20.88231
Arbroath	excellent	-2.58736	Europe/London	29 Dec 2017	56.56317
Jingzhou	average	112.19028	Asia/Shanghai	08/08/2019, 00:00:00	30.35028
Maxixe	accep	35.34722	Africa/Maputo	02/06/2022, 00:00:00	-23.85972
Volokolamsk	building	35.96944	Europe/Moscow	2014-12-12	56.03361
