location	QoS	longitude	station	latitude	revision
America/New_York	accep	-73.89875	Yonkers	40.93121	11/23/2013, 00:00:00
Asia/Kolkata	good	75.37991	Deoli	25.75728	08/31/2018, 00:00:00
Europe/Prague	good	13.63617	Most	50.50301	06/02/2019, 00:00:00
Europe/Paris	accep	5.55575	Lons-le-Saunier	46.67535	07/11/2018, 00:00:00
Africa/Mogadishu	accep	42.54536	Kismayo	-0.35817	2014/05/08
Africa/Dar_es_Salaam	good	35.7	Iringa	-7.76667	2021/04/01
Africa/Bangui	accep	15.87735	Carnot	4.94273	12/23/2014, 00:00:00
Indian/Antananarivo	good	47.31667	Antanifotsy	-19.65	2016-04-15
America/Martinique	good	-60.94228	Le Robert	14.67751	2013/01/21
America/New_York	excellent	-84.23381	Stockbridge	33.54428	06/22/2017, 00:00:00
Europe/London	good	0.47713	Strood	51.39323	2020-06-08
Asia/Karachi	excellent	72.54566	Hasilpur	29.69221	2019/06/22
Africa/Bangui	accep	15.87735	Carnot	4.94273	2016/11/22
Asia/Baku	good	45.36561	Qazax	41.09246	17 Mar 2014
Asia/Tokyo	accep	136.13108	Ueno-ebisumachi	34.75856	2013-04-29
Asia/Kolkata	building	76.03889	Osmanabad	18.18158	15 Dec 2020
Europe/London	building	0.93333	East Dereham	52.68333	02/02/2013, 00:00:00
America/Sao_Paulo	average	-50.19556	Iturama	-19.72806	2018-08-29
Asia/Manila	accep	124.84472	Maasin	10.13361	01/04/2014, 00:00:00
America/Sao_Paulo	excellent	-51.87389	Sarandi	-23.44361	01/24/2013, 00:00:00
Asia/Kolkata	maintenance	88.1453	Pujali	22.4711	2016-04-05
America/Sao_Paulo	building	-43.80139	Itabirito	-20.25333	2020-06-07
Asia/Jerusalem	good	34.86563	Ramla	31.92923	14 Sep 2019
America/New_York	maintenance	-81.23621	Lexington	33.98154	2017-08-20
Europe/Moscow	good	37.56667	Likhobory	55.85	2019-08-14
Asia/Shanghai	excellent	120.74221	Changshu City	31.64615	10/02/2013, 00:00:00
Asia/Makassar	good	116.82887	Balikpapan	-1.26753	2017-03-03
America/Guatemala	excellent	-91.11667	Chichicastenango	14.93333	2020/05/16
Asia/Shanghai	good	117.33333	Taozhuang	34.85	07/21/2021, 00:00:00
America/Recife	good	-35.03333	Cabo	-8.28333	09/11/2021, 00:00:00
Asia/Qyzylorda	good	65.50917	Kyzylorda	44.85278	2014/12/15
Europe/Dublin	good	-7.95	Athlone	53.43333	06/13/2013, 00:00:00
Europe/Paris	good	5.55575	Lons-le-Saunier	46.67535	02/13/2014, 00:00:00
Europe/Paris	excellent	4.91667	Bron	45.73333	2016/12/12
Asia/Kolkata	accep	76.35484	Alwaye	10.10649	2022/07/10
America/New_York	average	-73.49484	New Canaan	41.14676	03/29/2021, 00:00:00
America/Los_Angeles	excellent	-120.93549	Riverbank	37.73604	2014/09/25
America/Edmonton	average	-113.3187	Sherwood Park	53.51684	06/03/2022, 00:00:00
Africa/Nairobi	average	34.11169	Busia	0.46005	2016/08/14
Europe/Kiev	accep	25.34244	Lutsk	50.75932	2014-09-16
Asia/Kuching	good	116.10146	Donggongon	5.90702	2019-03-30
Europe/Paris	accep	1.33467	Colomiers	43.61058	05/03/2015, 00:00:00
Asia/Colombo	good	79.883	Hendala	6.9909	29 Apr 2015
Europe/Paris	excellent	2.45012	Bobigny	48.90982	2022-09-06
Africa/Dar_es_Salaam	excellent	39.25	Magomeni	-6.8	2013/07/21
America/Porto_Velho	average	-63.90389	Porto Velho	-8.76194	2016-10-27
America/Chicago	building	-93.75018	Shreveport	32.52515	08/25/2017, 00:00:00
Europe/Moscow	accep	33.2525	Valday	57.97472	11 Sep 2013
Asia/Shanghai	maintenance	122.05228	Tianfu	37.19723	27 Oct 2012
America/Chicago	average	-96.67834	Ada	34.77453	2021-08-12
Europe/Zurich	good	6.10237	Onex	46.18396	29 Jun 2017
Asia/Karachi	average	70.96699	Kot Addu	30.46907	2022/05/17
America/Chicago	accep	-89.99038	Fairview Heights	38.58894	2019/02/25
America/New_York	good	-78.19444	Front Royal	38.91817	06/15/2016, 00:00:00
Asia/Kolkata	average	82.85749	Elamanchili	17.54907	30 Dec 2019
America/Chicago	excellent	-94.41551	Independence	39.09112	2017-12-07
America/Managua	excellent	-86.58208	Somoto	13.48082	2014/08/15
Europe/Kiev	maintenance	25.34244	Lutsk	50.75932	2013-01-15
America/Havana	building	-81.24441	Varadero	23.15678	15 Dec 2017
Asia/Manila	excellent	120.56528	Pilar	14.66	12/18/2016, 00:00:00
Europe/Rome	accep	12.70038	Cordenons	45.9836	16 Jul 2018
America/Maceio	good	-37.03861	Barra dos Coqueiros	-10.90889	2015/03/06
America/Chicago	good	-97.90308	Copperas Cove	31.12406	24 Sep 2015
Europe/London	good	-2.1875	Westbury	51.26	12/06/2013, 00:00:00
Europe/Moscow	good	35.90057	Tver	56.85836	2015/06/01
Asia/Tokyo	good	136.13108	Ueno-ebisumachi	34.75856	2014/04/23
Asia/Tokyo	maintenance	136.61667	Nonoichi	36.53333	2022-02-24
America/Mexico_City	accep	-97.35992	Teziutlan	19.8173	16 Feb 2020
Europe/Dublin	good	-7.35	An Muileann gCearr	53.53333	11/29/2015, 00:00:00
Asia/Bangkok	maintenance	102.05461	Tak Bai	6.25947	2019/12/21
Europe/Rome	accep	9.32241	Chiavari	44.31771	2018/12/09
America/Chicago	good	-89.64066	Pekin	40.56754	2016-06-27
Asia/Manila	good	123.33471	Dipolog	8.56697	17 Jul 2016
Asia/Kolkata	maintenance	81.54855	Jais	26.2649	10 Jan 2014
Asia/Jerusalem	accep	34.8732	Ganei Tikva	32.05971	2016-03-24
Asia/Ho_Chi_Minh	excellent	105.75635	Sa Dec	10.29085	29 Oct 2019
Europe/London	good	-2.68758	Leyland	53.69786	12/10/2014, 00:00:00
Asia/Kolkata	good	74.4818	Malaut	30.21121	25 Jan 2017
Asia/Vladivostok	maintenance	133.42825	Lesozavodsk	45.47885	2021/09/21
Europe/Chisinau	good	28.28489	Soroca	48.15659	12/28/2012, 00:00:00
America/New_York	average	-81.56929	Collinwood	41.55838	2014-06-24
America/New_York	good	-73.99681	Dumont	40.94065	2020/08/15
Asia/Damascus	good	38.28402	Tadmur	34.5624	11/14/2015, 00:00:00
Europe/Paris	good	8.73812	Ajaccio	41.91886	05/31/2014, 00:00:00
Europe/Minsk	excellent	31.3237	Dobrush	52.4089	17 Jun 2017
Asia/Bangkok	good	104.1451	Yasothon	15.79408	14 Jan 2018
Asia/Shanghai	average	111.73861	Changzhi	35.20889	2015/07/22
Europe/Rome	good	12.6723	Ariccia	41.72063	2016-04-02
Asia/Dhaka	excellent	91.84128	Manikchari	22.83957	2016-07-16
America/Los_Angeles	excellent	-122.2054	Bothell	47.76232	2013-06-14
Asia/Shanghai	building	122.22833	Yingkou	40.66482	10/13/2019, 00:00:00
Asia/Manila	maintenance	123.89071	Cebu City	10.31672	03/03/2020, 00:00:00
Australia/Sydney	accep	150.60036	Nowra	-34.88422	05 Oct 2013
Europe/Rome	excellent	9.32241	Chiavari	44.31771	10/13/2016, 00:00:00
America/Sao_Paulo	maintenance	-44.31389	Esmeraldas	-19.7625	2017/12/12
Europe/Berlin	accep	8.51667	Verl	51.88333	07/10/2021, 00:00:00
Europe/Berlin	maintenance	6.26667	Schwalmtal	51.21667	2021-05-13
America/Chicago	good	-91.73625	Searcy	35.25064	2020/12/10
Asia/Tehran	good	51.0193	Shahre Jadide Andisheh	35.6803	2021-07-23
America/Los_Angeles	excellent	-120.00865	Sunnyside	46.32374	2021-10-12
Asia/Shanghai	excellent	125.51176	Dongfeng	42.64031	28 Dec 2017
America/New_York	average	-73.9625	Morningside Heights	40.81	03 Mar 2021
America/Los_Angeles	good	-122.2608	American Canyon	38.17492	2016-03-07
Asia/Tokyo	accep	138.31667	Suzaka	36.65	2013/08/04
Europe/Chisinau	excellent	28.28489	Soroca	48.15659	2019-12-08
Europe/Berlin	accep	11.18709	Neuburg an der Donau	48.73218	01/16/2018, 00:00:00
Europe/Kiev	accep	33.9162	Hlukhiv	51.67822	19 Jun 2017
America/Edmonton	accep	-113.3187	Sherwood Park	53.51684	01/28/2019, 00:00:00
Asia/Shanghai	accep	120.33063	Longgang	37.65181	2016/11/13
Europe/Paris	good	5.03586	Cavaillon	43.83125	2016/03/20
America/Los_Angeles	good	-117.54866	Norco	33.93113	2019-05-25
America/Glace_Bay	good	-60.1831	Sydney	46.1351	01/11/2015, 00:00:00
Asia/Shanghai	excellent	114.68333	Heyuan	23.73333	2013/04/14
America/New_York	excellent	-77.70066	Gates-North Gates	43.16547	12/10/2019, 00:00:00
America/Sao_Paulo	average	-42.19667	Miracema	-21.41222	24 Sep 2020
Asia/Bangkok	excellent	99.89166	Thap Than	15.46063	2021/01/19
Africa/Algiers	average	3.55665	Thenia	36.72544	2021-07-21
America/Port-au-Prince	good	-72.22625	Croix-des-Bouquets	18.57677	2022-05-12
Europe/Brussels	excellent	3.20639	Mouscron	50.74497	2018/02/02
Europe/Brussels	excellent	4.52529	Rixensart	50.71229	20 Nov 2017
Asia/Kolkata	average	88.1453	Pujali	22.4711	10/08/2020, 00:00:00
Europe/Rome	good	14.30935	Afragola	40.92298	03/10/2017, 00:00:00
America/Denver	average	-104.83192	Aurora	39.72943	18 Jul 2022
America/New_York	accep	-78.87836	Fayetteville	35.05266	2019-07-25
Asia/Tokyo	good	137.4	Toyokawa	34.81667	05/10/2015, 00:00:00
Europe/Berlin	average	9.15214	Aschaffenburg	49.97704	07/12/2015, 00:00:00
America/Chicago	average	-97.90308	Copperas Cove	31.12406	21 Mar 2019
Asia/Tehran	good	51.0193	Shahre Jadide Andisheh	35.6803	07/24/2014, 00:00:00
Asia/Karachi	good	71.67164	Qadirpur Ran	30.29184	19 May 2018
America/New_York	building	-74.13653	Port Richmond	40.63316	2020/07/26
Asia/Kolkata	average	76.35484	Alwaye	10.10649	21 Dec 2018
Europe/Brussels	maintenance	4.82313	Lille	51.24197	2014/08/24
America/Santiago	accep	-71.23106	La Ligua	-32.45242	2019/07/14
Europe/Paris	average	1.00288	Elbeuf	49.28669	2013-11-05
Asia/Shanghai	average	122.74754	Haicheng	40.85158	07/08/2013, 00:00:00
America/Recife	good	-34.88111	Recife	-8.05389	2014-09-17
Europe/Belgrade	average	19.61222	Sremska Mitrovica	44.97639	05 Sep 2015
Europe/Sofia	good	24.71204	Smolyan	41.57439	03 Nov 2012
America/Recife	excellent	-35.71667	Catende	-8.66667	31 Mar 2019
America/Chicago	maintenance	-91.77127	Rolla	37.95143	26 Feb 2013
America/Costa_Rica	good	-85.43772	Liberia	10.63504	2022-08-14
America/Phoenix	average	-111.89903	Scottsdale	33.50921	02 Mar 2013
Asia/Tehran	good	48.26258	Aleshtar	33.86419	22 May 2015
Europe/Amsterdam	building	5.51978	Tongelre	51.44889	09 Feb 2020
Asia/Karachi	average	71.57118	Daud Khel	32.87533	11/30/2015, 00:00:00
Europe/Zaporozhye	good	38.15035	Svatove	49.41029	05/04/2014, 00:00:00
Asia/Kolkata	maintenance	78.25795	Tiruppuvanam	9.82564	23 Feb 2022
America/Chicago	good	-87.70172	Evergreen Park	41.72059	05/17/2020, 00:00:00
Asia/Manila	average	122.8637	Santa Catalina	9.3337	14 May 2020
Europe/Paris	building	2.08333	Marly-le-Roi	48.86667	27 Jun 2020
Europe/Rome	accep	11.04979	Castelfranco Emilia	44.59445	16 Jun 2014
Asia/Kolkata	excellent	78.25795	Tiruppuvanam	9.82564	08 Dec 2020
Europe/Tallinn	excellent	28.19028	Narva	59.37722	2020-01-06
Europe/Moscow	good	37.49338	Tyoply Stan	55.62047	11 Jun 2021
Europe/Berlin	excellent	9.02596	Albstadt	48.21644	09/11/2019, 00:00:00
America/Chicago	building	-88.31476	Murray	36.61033	08/25/2017, 00:00:00
Europe/Amsterdam	excellent	5.74861	Emmeloord	52.71083	2020/11/02
Europe/Rome	excellent	17.80774	Mesagne	40.55851	10/27/2013, 00:00:00
America/Los_Angeles	excellent	-117.23991	Opportunity	47.64995	2020/12/14
America/Bogota	average	-73.26022	Socorro	6.46838	17 May 2017
Europe/Berlin	accep	11.32903	Weimar	50.9803	2013-01-26
Asia/Kolkata	average	88.1453	Pujali	22.4711	01 Sep 2022
America/Los_Angeles	good	-117.14392	Mira Mesa	32.9156	2013-10-14
America/Santiago	accep	-70.6996	San Bernardo	-33.59217	2014/08/21
Africa/Dar_es_Salaam	excellent	33	Usagara	-2.68333	15 Apr 2015
Pacific/Auckland	average	171.25364	Timaru	-44.39672	2021/02/07
America/Sao_Paulo	maintenance	-45.94722	Alfenas	-21.42917	10/29/2020, 00:00:00
America/Sao_Paulo	maintenance	-43.80139	Itabirito	-20.25333	2016/03/17
Europe/Paris	excellent	2.45012	Bobigny	48.90982	07/16/2020, 00:00:00
Asia/Manila	average	120.57224	Burgos	15.72892	2014/05/08
Europe/Amsterdam	accep	5.23333	Zeist	52.09	2014/11/07
Africa/Cairo	maintenance	29.91582	Alexandria	31.20176	2017/04/18
America/Chicago	average	-93.08883	Lino Lakes	45.16024	10/08/2014, 00:00:00
America/Chicago	average	-90.10674	Estelle	29.84576	12 May 2022
Europe/London	good	-0.33525	Kingston upon Hull	53.7446	2021/05/17
Europe/Madrid	accep	-5.55835	Villaquilambre	42.64685	2015-09-22
America/New_York	average	-84.20299	Lebanon	39.43534	2015/06/14
Asia/Seoul	accep	128.9889	T‚Äôaebaek	37.1759	2017/07/27
America/Mexico_City	good	-100.44843	Santa Rosa Jauregui	20.74122	11/23/2014, 00:00:00
Europe/Brussels	maintenance	3.16667	Wevelgem	50.8	2020/11/30
Europe/Berlin	accep	8.77155	Karben	50.23019	04/22/2019, 00:00:00
America/Detroit	average	-82.42491	Port Huron	42.97086	11/05/2020, 00:00:00
Europe/Berlin	good	13.10984	Oschatz	51.30001	06/01/2016, 00:00:00
America/New_York	building	-73.89875	Yonkers	40.93121	2015/01/27
Europe/Brussels	excellent	4.69889	Gembloux	50.56149	2018/07/26
America/Merida	excellent	-89.66123	Progreso	21.28306	2017/07/16
Africa/Tunis	excellent	10.78222	Beni Khiar	36.46917	07 Sep 2019
Africa/Algiers	excellent	3.47717	Boumerdas	36.76639	2021-01-13
Asia/Manila	maintenance	120.56528	Pilar	14.66	12/04/2012, 00:00:00
Asia/Bangkok	excellent	99.95469	Damnoen Saduak	13.51825	2019/11/16
America/Chicago	average	-97.03285	Grand Forks	47.92526	2018-09-09
Asia/Manila	accep	123.758	Naga	10.20898	2016-03-23
Asia/Jakarta	excellent	109.3243	Randudongkal	-7.0981	2018/05/11
Asia/Kolkata	accep	76.0586	Hungund	16.06213	16 Jun 2021
Europe/Moscow	building	53.26023	Bavly	54.39304	10/08/2019, 00:00:00
Europe/London	excellent	-1.06667	Selby	53.78333	2018/01/04
Europe/Istanbul	maintenance	41.00817	Silvan	38.13708	26 Feb 2020
America/New_York	excellent	-71.06616	Malden	42.4251	04/01/2017, 00:00:00
Europe/Madrid	building	-2.77259	Baza	37.49073	09/22/2013, 00:00:00
America/Argentina/Ushuaia	excellent	-68.3	Ushuaia	-54.8	22 Oct 2012
Asia/Jakarta	accep	110.71639	Ngemplak	-7.54972	04/18/2014, 00:00:00
Europe/Rome	accep	14.39024	Lanciano	42.22718	08 Sep 2014
America/Chicago	excellent	-87.88754	Bourbonnais	41.15376	28 Feb 2014
Asia/Seoul	accep	128.62667	Sinhyeon	34.8825	09/17/2022, 00:00:00
America/Detroit	accep	-84.62081	Waverly	42.7392	2016-05-23
Europe/Sarajevo	average	19.21437	Bijeljina	44.75874	02/19/2017, 00:00:00
Asia/Karachi	accep	73.38333	Sangla Hill	31.71667	06 Sep 2018
Asia/Shanghai	excellent	122.74754	Haicheng	40.85158	2019-05-06
Europe/Bucharest	good	26.01649	Sector 6	44.43579	2013-10-17
Africa/Dar_es_Salaam	good	39.25	Magomeni	-6.8	2019/03/31
Asia/Shanghai	excellent	117.27583	Sishui	35.64889	2014-06-20
Europe/Moscow	accep	38.16694	Kashira	54.84444	2015-04-18
Europe/Helsinki	excellent	24.95034	Kallio	60.18427	2015/08/03
Asia/Shanghai	good	120.33063	Longgang	37.65181	31 Dec 2013
Asia/Kolkata	building	71.30633	Kundla	21.34222	09/04/2022, 00:00:00
America/Havana	building	-81.24441	Varadero	23.15678	17 Nov 2020
America/Chicago	excellent	-93.71133	West Des Moines	41.57721	12 Oct 2019
Europe/London	average	-0.36053	Bushey	51.64316	07/15/2021, 00:00:00
Europe/London	accep	-0.74934	High Wycombe	51.62907	08/16/2013, 00:00:00
Asia/Kolkata	average	73.06784	Sheoganj	25.13915	2017-03-07
Asia/Kolkata	accep	79.5286	Haldwani	29.22254	2018-12-12
Asia/Manila	excellent	124.84472	Maasin	10.13361	2014/04/22
Asia/Tehran	building	47.3799	Darreh Shahr	33.14447	10/12/2015, 00:00:00
Africa/Lagos	accep	3.39467	Lagos	6.45407	2013/03/22
America/Sao_Paulo	good	-41.88778	Itaperuna	-21.205	2018-03-16
Europe/London	average	-2.58736	Arbroath	56.56317	07/10/2016, 00:00:00
Asia/Manila	accep	123.33471	Dipolog	8.56697	2021-11-12
Europe/Berlin	excellent	13.10984	Oschatz	51.30001	2015-08-28
Asia/Shanghai	average	112.9	Xiangtan	27.85	08/22/2017, 00:00:00
Europe/Paris	good	2.61667	Mitry-Mory	48.98333	07/01/2018, 00:00:00
Asia/Tokyo	accep	137.36215	Namerikawa	36.75965	2016/12/13
Asia/Kolkata	maintenance	84.13864	Jashpurnagar	22.88783	11 Jun 2014
Europe/Madrid	good	3.1631	Palafrugell	41.91738	11/06/2013, 00:00:00
Asia/Damascus	accep	36.7138	Binnish	35.95664	2020-03-19
Europe/Rome	accep	13.57661	Agrigento	37.31065	27 Jun 2020
America/New_York	excellent	-81.79819	Lakewood	41.48199	16 Dec 2014
Australia/Sydney	average	151.07986	Strathfield	-33.88096	2013-09-09
Asia/Phnom_Penh	good	102.56365	Paoy Paet	13.65805	24 Aug 2013
Asia/Tokyo	average	141.95	Yamada	39.46667	01/11/2021, 00:00:00
Europe/Rome	accep	13.44275	Villabate	38.07789	02/22/2021, 00:00:00
Asia/Yekaterinburg	average	60.70278	Ozersk	55.75556	12/23/2021, 00:00:00
America/New_York	excellent	-73.97069	Kensington	40.64621	06 Jan 2015
Europe/Moscow	excellent	37.49338	Tyoply Stan	55.62047	31 May 2022
Africa/Porto-Novo	accep	2.59753	Tchaourou	8.88649	2015-07-01
Europe/Berlin	accep	6.9747	Wesseling	50.82709	15 Apr 2022
America/Phoenix	accep	-111.78903	Gilbert	33.35283	2016/10/22
Asia/Seoul	average	128.9889	T‚Äôaebaek	37.1759	2015-10-23
Europe/Rome	excellent	12.38878	Perugia	43.1122	2019/07/22
Europe/Berlin	accep	11.18709	Neuburg an der Donau	48.73218	2012-11-01
Asia/Shanghai	good	113.13148	Foshan	23.02677	10 Mar 2014
America/Costa_Rica	excellent	-85.43772	Liberia	10.63504	2017-06-21
Asia/Kolkata	good	78.27539	Robertsonpet	12.95629	2021/11/23
America/Chicago	building	-87.65644	New City	41.80753	10/08/2015, 00:00:00
America/Argentina/Buenos_Aires	building	-60.47389	Chacabuco	-34.64167	2020/06/04
Australia/Sydney	excellent	150.99292	Baulkham Hills	-33.75881	2016/09/23
Europe/Moscow	accep	53.26023	Bavly	54.39304	2013-04-19
Europe/Paris	accep	1.33467	Colomiers	43.61058	2015/05/18
Africa/Algiers	excellent	3.47717	Boumerdas	36.76639	2021-07-22
Europe/Amsterdam	maintenance	6.76111	Hoogezand	53.16167	2019/11/21
Asia/Kuala_Lumpur	maintenance	100.24529	Batu Feringgi	5.4709	2018/02/01
Europe/Berlin	excellent	11.32903	Weimar	50.9803	2017-09-14
Pacific/Auckland	excellent	171.25364	Timaru	-44.39672	2018-09-13
America/Chicago	building	-88.3162	Crystal Lake	42.24113	2016/03/09
Europe/Berlin	good	9.02596	Albstadt	48.21644	2016-06-26
Africa/Algiers	average	4.85668	Bordj Zemoura	36.27462	04 Mar 2022
Europe/Berlin	maintenance	8.96317	Hechingen	48.35149	2016-04-14
Africa/Accra	excellent	-2.31938	Bibiani	6.46346	2016-03-28
America/Chicago	accep	-86.99666	Hueytown	33.45122	2013-02-05
Asia/Kolkata	accep	84.13864	Jashpurnagar	22.88783	09 Sep 2015
America/Recife	excellent	-35.03333	Cabo	-8.28333	2021-08-23
Australia/Sydney	accep	151.08057	Eastwood	-33.79176	2012/10/31
Asia/Kolkata	good	76.03889	Osmanabad	18.18158	2019-11-03
Europe/Copenhagen	accep	12.53463	Frederiksberg	55.67938	06/02/2019, 00:00:00
America/Caracas	maintenance	-62.64102	Ciudad Guayana	8.35122	2018-02-23
America/Port_of_Spain	excellent	-61.51889	Port of Spain	10.66668	2013/11/01
America/Chicago	excellent	-87.45476	Schererville	41.47892	04 Oct 2018
America/New_York	maintenance	-81.26367	Deltona	28.90054	10 Sep 2019
America/Sao_Paulo	average	-50.00639	Palmeira	-25.42944	11/19/2016, 00:00:00
Europe/Amsterdam	accep	6.76111	Hoogezand	53.16167	2020/01/13
America/Puerto_Rico	good	-67.15407	Aguadilla	18.42745	2018/02/04
Asia/Shanghai	accep	112.73333	Xinzhou	38.40917	03/11/2015, 00:00:00
Europe/Berlin	building	10.30215	Bad Segeberg	53.94313	26 Jun 2017
Indian/Antananarivo	accep	46.58333	Ikalamavony	-21.15	03/23/2021, 00:00:00
Europe/Stockholm	excellent	17.10558	Hudiksvall	61.72744	29 Mar 2016
America/Sao_Paulo	building	-53.13722	Loanda	-22.92306	02 Nov 2019
Europe/Madrid	accep	-6.03731	San Juan de Aznalfarache	37.35813	2019-01-25
Africa/Lagos	good	4.18333	Olupona	7.6	09 May 2022
Asia/Kolkata	accep	85.37752	Barbil	22.10194	2021-02-01
America/New_York	maintenance	-69.96533	Brunswick	43.91452	11 Aug 2017
Asia/Tokyo	excellent	135.21667	Sasayama	35.06667	10/15/2014, 00:00:00
Europe/Berlin	building	8.63333	Kirchlengern	52.2	13 May 2015
Asia/Kolkata	accep	78.23456	Bachhraon	28.92694	28 Sep 2019
Asia/Karachi	excellent	71.67164	Qadirpur Ran	30.29184	02 Apr 2016
Africa/Freetown	excellent	-13.2356	Freetown	8.48714	2022-04-10
America/Havana	excellent	-77.43532	Media Luna	20.14298	03 Apr 2015
Europe/London	excellent	-2.52398	Winsford	53.19146	2013-04-28
America/Chicago	good	-97.54667	Hutto	30.5427	06/16/2021, 00:00:00
America/Los_Angeles	building	-122.24064	Bothell West	47.80527	05/30/2015, 00:00:00
Europe/Kiev	average	26.97253	Krasyliv	49.65186	18 Mar 2014
Europe/Paris	good	2.44892	Gonesse	48.98693	30 May 2017
Europe/Berlin	average	9.02596	Albstadt	48.21644	2020/11/22
Africa/Bangui	excellent	15.87735	Carnot	4.94273	11/24/2018, 00:00:00
Europe/Kiev	good	27.06365	Shepetivka	50.18545	12/07/2014, 00:00:00
Europe/Berlin	building	8.70745	Bretten	49.03685	10/19/2013, 00:00:00
Asia/Bangkok	maintenance	103.65309	Roi Et	16.0567	19 Jun 2022
Europe/London	average	-0.74934	High Wycombe	51.62907	08/08/2014, 00:00:00
America/Mexico_City	good	-96.72365	Oaxaca	17.06542	25 Mar 2016
Asia/Jakarta	maintenance	99.1625	Tebingtinggi	3.3285	2012/10/08
America/New_York	maintenance	-73.75513	Far Rockaway	40.60538	18 Jul 2013
Europe/Moscow	maintenance	53.26023	Bavly	54.39304	27 May 2017
Asia/Baghdad	building	44.02488	Karbala	32.61603	28 Sep 2016
Asia/Tokyo	excellent	135.21667	Sasayama	35.06667	05 Feb 2015
Africa/Bangui	maintenance	15.87735	Carnot	4.94273	10/24/2012, 00:00:00
America/Chicago	excellent	-88.31476	Murray	36.61033	2016-09-13
America/Port_of_Spain	average	-61.51889	Port of Spain	10.66668	01 Apr 2016
Africa/Douala	maintenance	11.5	Mbalmayo	3.51667	2012-12-08
Asia/Tashkent	excellent	72.34424	Andijon	40.78206	17 Jan 2021
Australia/Perth	accep	115.88782	Willetton	-32.05251	11/06/2012, 00:00:00
Asia/Jakarta	excellent	110.8405	Kudus	-6.8048	09/16/2013, 00:00:00
Africa/Algiers	average	4.62744	El Achir	36.06386	2020/07/29
Asia/Kolkata	good	86.59509	Supaul	26.11527	17 Dec 2012
Africa/Dar_es_Salaam	good	35.7	Iringa	-7.76667	10/25/2012, 00:00:00
America/Sao_Paulo	average	-47.1725	Artur Nogueira	-22.57306	2021/03/18
America/Bogota	accep	-73.26022	Socorro	6.46838	2016/07/27
Asia/Kolkata	average	83.36889	Gorakhpur	26.76628	05 Jul 2014
Europe/Berlin	building	6.74549	Losheim	49.5099	2013/05/01
Asia/Manila	accep	121.96361	Recodo	6.95194	08 Nov 2019
Asia/Shanghai	average	122.74754	Haicheng	40.85158	26 Jan 2015
Europe/London	good	-3.05	Blackpool	53.81667	28 Feb 2016
Australia/Perth	average	115.8614	Perth	-31.95224	06/18/2016, 00:00:00
Asia/Kolkata	building	76.11996	Manjeri	11.12018	2014/09/29
America/Los_Angeles	good	-116.97725	Beaumont	33.92946	2016/06/16
Indian/Reunion	maintenance	55.4504	Saint-Denis	-20.88231	21 Sep 2016
Africa/Bangui	excellent	15.87735	Carnot	4.94273	11/01/2019, 00:00:00
Europe/Warsaw	building	19.27498	Jaworzno	50.20528	2020/08/19
Asia/Shanghai	excellent	111.73861	Changzhi	35.20889	2020-09-18
Asia/Tokyo	average	144.09638	Motomachi	43.82634	03/17/2015, 00:00:00
Asia/Kolkata	maintenance	91.61356	Rangia	26.44931	2016/07/08
Europe/Volgograd	average	43.2379	Mikhaylovka	50.06	17 May 2021
America/Chicago	accep	-96.39774	Brenham	30.16688	12 Aug 2013
Asia/Tehran	good	51.49621	Nowshahr	36.64852	2019-10-05
Africa/Lagos	excellent	3.64633	Shagamu	6.8485	2019-11-14
Europe/Brussels	average	5.37429	Houthalen	51.03427	2016-10-13
Africa/Algiers	average	4.08282	Beni Douala	36.61954	2016/12/15
Asia/Bangkok	good	102.05461	Tak Bai	6.25947	05/15/2017, 00:00:00
Asia/Karachi	maintenance	68.21204	Larkana	27.55898	2012-10-24
America/Mexico_City	excellent	-98.11889	Casa Blanca	19.04222	2021-03-19
Europe/London	accep	-1.29772	Cowes	50.76306	2013/10/17
Asia/Karachi	building	72.54064	Sillanwali	31.82539	2018/06/25
Europe/Copenhagen	maintenance	12.53463	Frederiksberg	55.67938	2021-08-09
Asia/Kolkata	average	88.28637	Pandua	23.07492	2020/03/14
Asia/Jakarta	maintenance	113.69785	Besuki	-7.73379	04/25/2017, 00:00:00
America/New_York	average	-73.0515	Waterbury	41.55815	2019-01-26
America/Chicago	maintenance	-87.65644	New City	41.80753	08/31/2020, 00:00:00
Europe/Paris	good	2.44892	Gonesse	48.98693	18 Sep 2015
Europe/London	accep	0.75	Thetford	52.41667	31 Dec 2019
Europe/Paris	average	3.87723	Montpellier	43.61092	2020/04/22
America/New_York	excellent	-71.8023	Fitchburg	42.58342	2021-03-03
Asia/Kolkata	maintenance	72.68533	Kheda	22.75218	2022-01-27
America/New_York	maintenance	-74.13653	Port Richmond	40.63316	04/03/2017, 00:00:00
Asia/Manila	maintenance	122.8637	Santa Catalina	9.3337	2017-08-04
Asia/Almaty	excellent	77.0202	Otegen Batyra	43.41949	08/20/2020, 00:00:00
Asia/Karachi	excellent	73.38333	Sangla Hill	31.71667	2015-08-31
America/Chicago	average	-94.74049	Longview	32.5007	2013-01-10
Europe/Berlin	excellent	7.973	Finnentrop	51.168	01/15/2022, 00:00:00
Africa/Lubumbashi	accep	29.47306	Beni	0.49113	2021/10/18
Asia/Kolkata	maintenance	75.35927	Talipparamba	12.04161	04 Mar 2014
Europe/Kiev	maintenance	33.34864	Nova Kakhovka	46.75451	10 Jun 2022
America/Los_Angeles	average	-117.14392	Mira Mesa	32.9156	2013/04/27
America/El_Salvador	excellent	-89.71472	Sonzacate	13.73417	26 Dec 2012
America/Mexico_City	good	-101.2591	Guanajuato	21.01858	2018/08/22
America/Sao_Paulo	good	-42.98194	Guapimirim	-22.53722	20 Nov 2015
Asia/Tokyo	accep	136.61667	Nonoichi	36.53333	2022/05/13
Europe/London	building	0.93333	East Dereham	52.68333	08/14/2022, 00:00:00
Europe/Berlin	accep	13.32127	Wittenau	52.59319	05/12/2020, 00:00:00
Asia/Kabul	accep	65.93249	Sar-e Pul	36.21544	2014-08-05
Africa/Abidjan	average	-5.682	Lakota	5.84752	2017/06/20
America/Boise	accep	-116.56346	Nampa	43.54072	06/13/2020, 00:00:00
Europe/Volgograd	excellent	43.2379	Mikhaylovka	50.06	2015-09-16
Europe/Berlin	excellent	8.91229	Eppingen	49.13645	2018/11/29
Europe/London	accep	-1.99421	Devizes	51.35084	07/03/2016, 00:00:00
America/Caracas	excellent	-62.64102	Ciudad Guayana	8.35122	2016/03/25
Europe/Vienna	excellent	16.4	Floridsdorf	48.25	2018-04-28
Europe/Vilnius	building	24.75	Ukmerge	55.25	2022/04/04
Europe/Paris	building	2.12213	Le Chesnay	48.8222	18 Jul 2018
America/New_York	excellent	-78.19444	Front Royal	38.91817	2019/10/22
Asia/Jakarta	excellent	98.6738	Labuhan Deli	3.7278	07/09/2021, 00:00:00
Europe/Moscow	accep	35.96944	Volokolamsk	56.03361	2017/06/09
America/Chicago	good	-88.27205	Kaukauna	44.27804	18 Sep 2018
Atlantic/Azores	average	-25.66689	Ponta Delgada	37.74615	03 Nov 2020
Asia/Makassar	accep	117.59152	Tarakan	3.31332	11 Jan 2018
Africa/Monrovia	average	-8.53778	New Yekepa	7.57944	03/24/2016, 00:00:00
Europe/Andorra	accep	1.53414	les Escaldes	42.50729	12/19/2013, 00:00:00
Europe/Berlin	accep	9.5586	Schleswig	54.52156	08 Sep 2013
Africa/Banjul	good	-15.6	Farafenni	13.56667	24 May 2014
America/Bahia	good	-38.79084	Tucano	-10.95817	2019/07/31
America/Chicago	average	-97.03285	Grand Forks	47.92526	2017-04-06
Africa/Kigali	maintenance	30.4347	Rwamagana	-1.9487	12/29/2015, 00:00:00
America/Chicago	accep	-93.263	Columbia Heights	45.0408	11/02/2015, 00:00:00
Africa/Tunis	accep	10.58082	Msaken	35.72917	20 Nov 2012
Europe/Madrid	good	-1.60452	Tudela	42.06166	06/25/2017, 00:00:00
America/New_York	building	-77.4286	Sterling	39.00622	2013/06/11
Europe/Skopje	good	21.32778	Saraj	42	11/22/2019, 00:00:00
America/Los_Angeles	good	-120.43572	Santa Maria	34.95303	06/19/2014, 00:00:00
America/Los_Angeles	accep	-122.24092	Bryn Mawr-Skyway	47.4943	17 Mar 2019
Africa/Abidjan	building	-3.59625	Bonoua	5.27247	2018-05-18
Europe/Bucharest	excellent	26.01649	Sector 6	44.43579	2015/11/26
America/Mexico_City	average	-100.88023	Salvatierra	20.21322	2022-01-31
America/Caracas	average	-68.30472	Tinaquillo	9.91861	2013-04-19
Europe/Paris	building	1.00288	Elbeuf	49.28669	2012/10/15
Africa/Algiers	average	2.31889	Ksar Chellala	35.21222	2016/03/11
Asia/Tokyo	accep	130.94098	Hita	33.3213	24 Sep 2019
Europe/London	building	-3.05814	Rhosllanerchrugog	53.00974	23 Mar 2014
Africa/Lagos	maintenance	4.92235	Efon-Alaaye	7.65649	2014/09/14
Asia/Tokyo	maintenance	140.11667	Inawashiro	37.56667	2015-02-21
Asia/Kolkata	accep	86.59611	Saharsa	25.87498	2020/01/06
Europe/Berlin	excellent	7.973	Finnentrop	51.168	29 Nov 2014
Asia/Shanghai	excellent	118.53333	Pucheng	27.92333	2012/10/18
America/Chicago	maintenance	-97.90308	Copperas Cove	31.12406	22 Apr 2014
Asia/Phnom_Penh	accep	102.56365	Paoy Paet	13.65805	21 Jan 2017
America/New_York	average	-77.4286	Sterling	39.00622	12/31/2021, 00:00:00
Europe/Moscow	excellent	38.02486	Malakhovka	55.64776	17 Jul 2018
America/Chicago	excellent	-90.10674	Estelle	29.84576	2017/03/13
Europe/Kiev	average	26.97253	Krasyliv	49.65186	09/24/2021, 00:00:00
Asia/Karachi	average	73.38333	Sangla Hill	31.71667	09 Jun 2016
Asia/Kolkata	building	73.08333	Dombivli	19.21667	2020/01/30
Europe/Zaporozhye	good	38.15035	Svatove	49.41029	2020-05-30
Pacific/Port_Moresby	accep	144.23058	Mount Hagen	-5.85746	05/04/2017, 00:00:00
Europe/Paris	average	5.55575	Lons-le-Saunier	46.67535	20 Oct 2015
Asia/Kolkata	maintenance	76.32756	Kalavoor	9.57046	06/01/2022, 00:00:00
America/Chicago	average	-89.64066	Pekin	40.56754	09 Oct 2019
America/Mexico_City	accep	-103.42897	Jocotepec	20.28527	18 Oct 2016
Europe/Berlin	average	9.02596	Albstadt	48.21644	12 Feb 2020
America/Chicago	excellent	-97.03285	Grand Forks	47.92526	02/28/2013, 00:00:00
America/Chicago	excellent	-88.42814	Huntley	42.16808	04/16/2020, 00:00:00
Australia/Sydney	average	151.07986	Strathfield	-33.88096	2014-05-11
Asia/Shanghai	good	122.20488	Zhoushan	29.98869	2019/01/23
Asia/Kuala_Lumpur	maintenance	100.24529	Batu Feringgi	5.4709	02 Jun 2013
America/New_York	building	-74.28459	Woodbridge	40.5576	2019/02/25
Europe/Moscow	good	37.92792	Kireyevsk	53.93361	2018-10-16
Europe/London	excellent	-2.1875	Westbury	51.26	2016/02/18
Asia/Yangon	accep	98.50893	Myawadi	16.68911	09 Jul 2017
Europe/Zurich	accep	6.10237	Onex	46.18396	2013-11-27
America/New_York	good	-82.07842	Punta Gorda Isles	26.91756	05/30/2017, 00:00:00
Europe/Copenhagen	excellent	12.53463	Frederiksberg	55.67938	2016-03-02
Europe/Istanbul	maitennce	29.26639	Serinhisar	37.58105	2022/06/14
Asia/Jakarta	average	104.09701	Simpang	-1.26424	2020/07/17
Atlantic/Azores	accep	-25.66689	Ponta Delgada	37.74615	08/18/2014, 00:00:00
Asia/Jerusalem	good	34.86563	Ramla	31.92923	01/14/2014, 00:00:00
America/Mexico_City	excellent	-102.04897	Paracho de Verduzco	19.64745	04 Feb 2013
America/Mexico_City	excellent	-100.44843	Santa Rosa Jauregui	20.74122	12/22/2016, 00:00:00
Africa/Lubumbashi	average	24.99798	Kamina	-8.73508	2021-11-09
Europe/Zaporozhye	building	38.15035	Svatove	49.41029	2018-06-26
Asia/Jerusalem	average	34.8732	Ganei Tikva	32.05971	18 Aug 2021
Asia/Manila	average	120.89694	Baliuag	14.95472	02 Jul 2015
Asia/Kolkata	average	91.61356	Rangia	26.44931	2020-01-13
Asia/Tokyo	accep	142.45778	Nayoro	44.35056	08/04/2020, 00:00:00
America/Sao_Paulo	maintenance	-45.94722	Alfenas	-21.42917	2022-05-29
America/Caracas	average	-67.33122	La Victoria	10.22677	21 Oct 2016
Pacific/Efate	average	168.31366	Port-Vila	-17.73648	2021-12-18
Africa/Douala	excellent	9.00472	Idenao	4.2475	2022-08-25
Asia/Dhaka	average	89.11943	Kushtia	23.9028	2017-06-21
America/Mexico_City	accep	-102.04897	Paracho de Verduzco	19.64745	2021/10/22
Europe/Amsterdam	good	7.00417	Losser	52.26083	2021/10/07
Africa/Addis_Ababa	building	38.01667	Debre Tabor	11.85	2020/06/03
Europe/Berlin	good	6.74549	Losheim	49.5099	2012-11-13
Asia/Shanghai	maintenance	122.08333	Ulanhot	46.08333	02/25/2018, 00:00:00
Europe/Amsterdam	average	5.74861	Emmeloord	52.71083	26 May 2019
America/Chicago	maintenance	-102.36764	Odessa	31.84568	11/11/2016, 00:00:00
Africa/Lagos	good	4.52514	Argungu	12.74482	20 Jun 2019
Asia/Kolkata	good	72.93924	Uran	18.87813	31 Dec 2019
America/New_York	accep	-83.55521	Toledo	41.66394	2020/06/07
Asia/Kolkata	accep	78.55757	Lal Bahadur Nagar	17.34769	2013/10/31
Asia/Tokyo	excellent	138.31667	Suzaka	36.65	03/06/2017, 00:00:00
Europe/Stockholm	maintenance	17.10558	Hudiksvall	61.72744	04 Jun 2019
Asia/Kolkata	accep	72.85107	Bhayandar	19.30157	02/29/2016, 00:00:00
America/Sao_Paulo	average	-53.13722	Loanda	-22.92306	07 May 2016
Asia/Seoul	excellent	126.665	Hongseong	36.6009	10/20/2020, 00:00:00
Asia/Colombo	good	79.883	Hendala	6.9909	2016-07-04
Europe/Rome	excellent	8.62118	Novara	45.44694	2016/06/16
America/Santiago	good	-71.19901	Ovalle	-30.60106	08/19/2021, 00:00:00
America/Lima	accep	-69.08333	Yunguyo	-16.25	12 Aug 2016
Europe/London	acceptable	-1.99421	Devizes	51.35084	15 Jun 2016
Asia/Tokyo	good	139.55028	Kamakura	35.30889	2019/07/22
Europe/Istanbul	accep	41.00817	Silvan	38.13708	12/17/2015, 00:00:00
Asia/Tokyo	accep	138.89585	Annaka	36.33011	17 Jun 2017
America/Chicago	average	-88.81395	Jackson	35.61452	03/01/2015, 00:00:00
America/New_York	good	-73.78458	Scarsdale	41.0051	2014/11/25
Asia/Seoul	average	126.835	Goyang-si	37.65639	27 Feb 2017
Asia/Tbilisi	good	41.77921	Kobuleti	41.82143	2020/08/09
Europe/Madrid	accep	3.1631	Palafrugell	41.91738	10/13/2016, 00:00:00
America/Los_Angeles	average	-122.40433	Visitacion Valley	37.71715	2014/04/26
Asia/Kolkata	building	75.35927	Talipparamba	12.04161	03/05/2016, 00:00:00
Asia/Yerevan	accep	44.7662	Hrazdan	40.49748	2015/12/06
Europe/Moscow	average	37.99117	Krymsk	44.92934	12/18/2015, 00:00:00
Europe/Moscow	accep	38.16694	Kashira	54.84444	10 Mar 2020
Asia/Yekaterinburg	excellent	60.8019	Beryozovsky	56.9083	02 Nov 2014
Africa/Lagos	accep	3.64633	Shagamu	6.8485	12/25/2014, 00:00:00
Asia/Karachi	excellent	72.54566	Hasilpur	29.69221	28 Sep 2016
Europe/Amsterdam	average	7.00417	Losser	52.26083	05/21/2013, 00:00:00
America/New_York	average	-84.67837	Acworth	34.06635	08 Dec 2019
Australia/Sydney	excellent	146.05093	Griffith	-34.28853	09/04/2016, 00:00:00
Asia/Shanghai	average	116.11768	Meizhou	24.28859	07/16/2021, 00:00:00
Asia/Shanghai	excellent	120.82747	Zhuangyuan	37.30553	2019-03-10
America/New_York	accep	-77.37331	Mechanicsville	37.60876	2022/04/12
Europe/Madrid	good	-0.18333	Gandia	38.96667	2020-09-05
Europe/Paris	accep	-0.59543	Talence	44.80477	2020-05-09
Europe/Madrid	average	-3.67029	Las Gabias	37.13548	2015/09/03
Asia/Kolkata	excellent	71.21169	Amreli	21.59983	05/29/2020, 00:00:00
Asia/Shanghai	good	109.22921	Yanliang	34.65918	12/07/2019, 00:00:00
Asia/Kolkata	accep	73.06784	Sheoganj	25.13915	15 Jan 2016
America/Argentina/Buenos_Aires	good	-58.38341	Barracas	-34.64966	09 Jan 2021
America/New_York	accep	-75.23266	Utica	43.1009	2018/06/05
Africa/Conakry	average	-13.68778	Camayenne	9.535	2018/11/15
America/New_York	average	-82.45426	Venice	27.09978	30 Dec 2019
Asia/Karachi	accep	68.49143	Bhit Shah	25.80565	27 Sep 2014
Asia/Manila	average	120.5875	La Trinidad	16.455	31 Jul 2021
Asia/Jerusalem	excellent	34.75699	Rahat	31.39547	2014/05/16
Asia/Karachi	accep	70.96699	Kot Addu	30.46907	11 Mar 2017
Europe/Berlin	average	8.96317	Hechingen	48.35149	2015/03/13
America/Los_Angeles	maintenance	-116.21677	Indio	33.7207	2019/01/15
Asia/Kolkata	excellent	82.85749	Elamanchili	17.54907	2022-09-01
America/Havana	excellent	-82.4017	Boyeros	23.0072	2022/08/16
Africa/Lagos	accep	9.0027	Gaya	11.86064	12/08/2016, 00:00:00
Asia/Kolkata	good	75.37991	Deoli	25.75728	2020-04-16
Europe/Madrid	maintenance	-0.76773	Novelda	38.38479	2017/01/20
America/New_York	accep	-82.07842	Punta Gorda Isles	26.91756	08/28/2015, 00:00:00
America/Los_Angeles	accep	-119.0376	Camarillo	34.21639	22 Oct 2016
Asia/Kolkata	average	88.18466	Diamond Harbour	22.19303	08/27/2013, 00:00:00
Asia/Yekaterinburg	average	53.47103	Oktyabr‚Äôskiy	54.48147	05/11/2016, 00:00:00
Africa/Algiers	excellent	2.95924	Cheraga	36.76775	2018/09/14
Pacific/Port_Moresby	good	144.23058	Mount Hagen	-5.85746	31 Oct 2019
Asia/Tokyo	average	139.55028	Kamakura	35.30889	11 Nov 2019
Asia/Shanghai	accep	111.73861	Changzhi	35.20889	2016/05/18
America/Chicago	excellent	-93.263	Columbia Heights	45.0408	09 Nov 2021
Asia/Shanghai	excellent	123.17306	Liaoyang	41.27194	05/12/2019, 00:00:00
Asia/Colombo	excellent	79.87116	Dehiwala-Mount Lavinia	6.84019	14 Oct 2019
Asia/Shanghai	accep	117.55417	Zaozhuang	34.86472	08 Aug 2020
Asia/Kolkata	excellent	77.23826	Sathyamangalam	11.50526	2018-04-11
Europe/Moscow	accep	36.73307	Naro-Fominsk	55.38752	07 Sep 2017
Europe/Berlin	average	13.28702	Dahlem	52.4581	2020/10/29
America/Chicago	accep	-97.90308	Copperas Cove	31.12406	29 Aug 2021
Africa/Johannesburg	accep	29.00974	Mokopane	-24.19436	2014-02-15
Asia/Bangkok	excellent	101.18445	Phanat Nikhom	13.44581	04/27/2016, 00:00:00
Africa/Lubumbashi	average	24.99798	Kamina	-8.73508	24 Jan 2021
Europe/Volgograd	excellent	43.2379	Mikhaylovka	50.06	2015/08/28
Africa/Bamako	average	-8.07257	Kati	12.74409	13 Nov 2019
America/New_York	average	-69.96533	Brunswick	43.91452	13 Sep 2014
America/Chicago	good	-88.70464	Tupelo	34.25807	2016-02-05
America/Toronto	accep	-79.2663	Markham	43.86682	2018/04/07
Asia/Tokyo	accep	135.31667	Iwade	34.25	09/10/2019, 00:00:00
Europe/Andorra	good	1.53414	les Escaldes	42.50729	2022-06-11
America/New_York	maintenance	-70.92866	Peabody	42.52787	2012/12/02
Europe/Vienna	good	15.46667	Sankt Peter	47.05	2015-02-18
Europe/Amsterdam	maintenance	6.76111	Hoogezand	53.16167	2015/05/01
Asia/Karachi	building	71.52847	Mianwali	32.57756	16 Feb 2018
Africa/Casablanca	good	-2.16	Jerada	34.31	2015/01/11
Europe/Amsterdam	good	7.00417	Losser	52.26083	01/05/2021, 00:00:00
America/Havana	good	-82.00919	Jaruco	23.04419	2013-11-16
Europe/London	building	-3.05	Blackpool	53.81667	07/13/2014, 00:00:00
Asia/Taipei	excellent	119.58627	Magong	23.5654	10/18/2017, 00:00:00
Asia/Kolkata	good	78.27539	Robertsonpet	12.95629	2020/12/14
Africa/Abidjan	maintenance	-5.682	Lakota	5.84752	15 Feb 2017
Europe/Paris	accep	5.4384	Marseille 11	43.2907	25 Jul 2015
Africa/Luanda	excellent	19.91667	Luena	-11.78333	2018/03/09
Europe/Rome	excellent	12.38878	Perugia	43.1122	2020-12-15
Asia/Karachi	average	68.21204	Larkana	27.55898	06/02/2018, 00:00:00
America/Chicago	building	-87.66561	Lower West Side	41.8542	18 Feb 2016
Europe/Amsterdam	building	7.00417	Losser	52.26083	2017/05/06
Europe/Berlin	good	9.47629	Stade	53.59337	11/24/2018, 00:00:00
Europe/London	accep	-1.5443	Lymington	50.75767	2021-08-24
Pacific/Auckland	accep	178.00417	Gisborne	-38.65333	01 Jan 2021
Europe/Paris	accep	5.4584	Les Olives	43.32393	02/09/2015, 00:00:00
Asia/Damascus	average	36.7138	Binnish	35.95664	02/25/2018, 00:00:00
Asia/Vladivostok	average	133.42825	Lesozavodsk	45.47885	2022-06-29
Asia/Karachi	average	72.54566	Hasilpur	29.69221	2022-03-28
America/New_York	accep	-81.38758	Palm Valley	30.17746	2016-07-29
America/Edmonton	building	-113.3187	Sherwood Park	53.51684	05/24/2018, 00:00:00
America/Sao_Paulo	maintenance	-50.00639	Palmeira	-25.42944	2015-04-15
America/New_York	excellent	-74.01042	Newburgh	41.50343	2015-05-04
America/New_York	good	-76.99081	Chillum	38.96372	02/26/2014, 00:00:00
America/New_York	building	-81.26367	Deltona	28.90054	01/08/2014, 00:00:00
Europe/Paris	average	1.00288	Elbeuf	49.28669	05/02/2018, 00:00:00
America/New_York	excellent	-73.95097	Greenpoint	40.72371	2014-04-19
Asia/Kolkata	good	81.54855	Jais	26.2649	09/02/2022, 00:00:00
America/New_York	maintenance	-73.20483	Bridgeport	41.16704	10/18/2014, 00:00:00
Asia/Kuala_Lumpur	accep	100.24529	Batu Feringgi	5.4709	09 Dec 2012
Asia/Manila	good	124.84472	Maasin	10.13361	08/09/2014, 00:00:00
Pacific/Auckland	average	178.00417	Gisborne	-38.65333	20 May 2018
America/Argentina/Tucuman	building	-65.61427	Aguilares	-27.4338	01/05/2019, 00:00:00
Europe/Berlin	average	11.32903	Weimar	50.9803	02 Jan 2013
America/Mexico_City	average	-97.35992	Teziutlan	19.8173	05/16/2016, 00:00:00
Asia/Kolkata	good	83.97573	Sambalpur	21.46527	04 Jun 2017
Africa/Kampala	accep	30.98551	Paidha	2.41669	2020-03-24
Asia/Makassar	average	117.59152	Tarakan	3.31332	12/07/2016, 00:00:00
Africa/Johannesburg	average	29.00974	Mokopane	-24.19436	03/09/2018, 00:00:00
Europe/London	average	-2.98333	Poulton-le-Fylde	53.83333	2016/06/27
Europe/Rome	building	15.00913	Misterbianco	37.51803	01/29/2015, 00:00:00
America/Caracas	good	-70.20749	Barinas	8.62261	2020/11/22
Asia/Kolkata	good	79.41727	Gingee	12.25282	2015-04-28
America/Sao_Paulo	accep	-47.1725	Artur Nogueira	-22.57306	2015/03/26
America/Los_Angeles	good	-117.71978	Claremont	34.09668	06 Mar 2014
America/Sao_Paulo	average	-52.2	Marau	-28.44917	06/14/2018, 00:00:00
America/Los_Angeles	maintenance	-122.24064	Bothell West	47.80527	06/02/2016, 00:00:00
America/Sao_Paulo	average	-51.87389	Sarandi	-23.44361	10 Aug 2019
America/Los_Angeles	maintenance	-118.03917	South Whittier	33.95015	2015/06/03
Europe/Berlin	excellent	10.30215	Bad Segeberg	53.94313	2022/08/09
Europe/Kiev	building	33.34864	Nova Kakhovka	46.75451	2016-01-21
Asia/Kolkata	accep	78.27539	Robertsonpet	12.95629	11 Dec 2021
Europe/Paris	accep	2.29275	Fontenay-aux-Roses	48.79325	03/24/2021, 00:00:00
Europe/Berlin	excellent	9.15214	Aschaffenburg	49.97704	09/14/2016, 00:00:00
America/Havana	good	-81.24441	Varadero	23.15678	2020-10-15
America/New_York	average	-82.61573	Norwalk	41.24255	2016/12/09
Asia/Shanghai	excellent	120.14278	Jiangyan	32.50611	2021-10-30
Australia/Sydney	accep	151.08057	Eastwood	-33.79176	2014/08/17
Asia/Jakarta	average	107.60389	Pameungpeuk	-7.01833	2021/08/05
Europe/Paris	excellent	2.61667	Mitry-Mory	48.98333	2017-05-22
Asia/Taipei	average	119.58627	Magong	23.5654	2021-06-09
Asia/Manila	good	123.33471	Dipolog	8.56697	2013/07/29
America/New_York	building	-71.05977	Boston	42.35843	01 Dec 2019
America/New_York	accep	-74.01042	Newburgh	41.50343	27 Dec 2018
Asia/Jakarta	maintenance	109.3243	Randudongkal	-7.0981	10 Feb 2020
America/Los_Angeles	good	-122.23484	Kent	47.38093	08/07/2018, 00:00:00
Africa/Algiers	good	1.04945	Frenda	35.06544	04/24/2013, 00:00:00
Europe/Berlin	accep	10.18527	Memmingen	47.98372	2017/03/28
America/Bogota	average	-73.9614	El Copey	10.15031	2021/08/20
Europe/Amsterdam	average	5.23333	Zeist	52.09	02/02/2021, 00:00:00
Australia/Sydney	accep	151.07986	Strathfield	-33.88096	21 May 2014
Asia/Jakarta	good	98.6738	Labuhan Deli	3.7278	06 Jun 2015
America/New_York	excellent	-82.46148	Lutz	28.15112	2019/06/05
Asia/Bangkok	accep	102.05461	Tak Bai	6.25947	20 Jun 2022
Europe/Warsaw	accep	18.34717	Reda	54.60528	2021/05/21
Europe/Minsk	average	30.2049	Vitebsk	55.1904	27 Dec 2017
Asia/Vladivostok	excellent	133.42825	Lesozavodsk	45.47885	16 Jun 2019
Asia/Kuala_Lumpur	good	102.3278	Kampung Ayer Molek	2.2139	24 Apr 2013
Europe/Paris	building	4.63031	Arles	43.67681	2015/08/03
America/New_York	building	-77.55777	Bon Air	37.52487	07 Feb 2013
Africa/Douala	average	9.00472	Idenao	4.2475	2016/08/12
America/Bahia	good	-39.25	Muritiba	-12.91667	2016-11-02
America/New_York	good	-72.97261	Rutland	43.61062	03 Mar 2022
Europe/Bratislava	excellent	17.8031	Hlohovec	48.43174	23 Oct 2016
Asia/Phnom_Penh	accep	102.56365	Paoy Paet	13.65805	2019-03-11
America/Argentina/Tucuman	excellent	-65.61427	Aguilares	-27.4338	2022-01-27
America/Chicago	maintenance	-90.10674	Estelle	29.84576	23 Apr 2021
Asia/Barnaul	good	83.62389	Novosilikatnyy	53.30972	07/22/2021, 00:00:00
Asia/Kolkata	building	85.83636	Dalsingh Sarai	25.66795	2019/03/17
Europe/Istanbul	accep	29.26639	Serinhisar	37.58105	2015-08-10
Europe/Vilnius	average	24.04142	Alytus	54.39635	2015-10-30
Asia/Kolkata	good	76.56719	Aklera	24.41288	2018-11-26
America/Menominee	average	-88.64235	Iron River	46.09273	05/27/2015, 00:00:00
Africa/Dar_es_Salaam	building	39.28333	Nyangao	-10.33333	23 Mar 2017
Europe/Paris	accep	2.1699	Herblay	48.98994	09 Jan 2022
America/Los_Angeles	building	-122.86705	Aloha	45.49428	2022/07/13
Asia/Shanghai	good	115.70111	Hengshui	37.73222	2019-11-23
Asia/Kolkata	building	74.3092	Rajaori	33.37526	04/08/2019, 00:00:00
Pacific/Port_Moresby	good	144.23058	Mount Hagen	-5.85746	2022/08/25
America/Los_Angeles	maintenance	-118.25508	Glendale	34.14251	2013-02-09
America/Denver	average	-111.99633	Kearns	40.65995	2018-08-30
Europe/Zaporozhye	accep	38.15035	Svatove	49.41029	20 Jun 2021
Asia/Manila	accep	121.06761	San Jose	12.35275	2017-06-05
America/New_York	excellent	-73.20483	Bridgeport	41.16704	2022-01-23
Africa/Algiers	building	4.62744	El Achir	36.06386	08/08/2016, 00:00:00
Europe/Warsaw	good	18.34717	Reda	54.60528	16 Jan 2019
America/Los_Angeles	good	-116.37697	Palm Desert	33.72255	2013/06/26
Europe/Kiev	average	27.06365	Shepetivka	50.18545	2020-08-23
America/Bahia	average	-37.93278	Rio Real	-11.48472	06/22/2022, 00:00:00
Africa/Johannesburg	accep	29.24152	Standerton	-26.93366	06/03/2016, 00:00:00
Europe/Lisbon	building	-8.2503	Albufeira	37.08819	2018/08/12
Asia/Karachi	excellent	68.11759	Tharu Shah	26.9423	2021-12-24
Europe/Amsterdam	maintenance	6.76111	Hoogezand	53.16167	03/10/2017, 00:00:00
Asia/Shanghai	average	120.74221	Changshu City	31.64615	05/04/2018, 00:00:00
Europe/Brussels	average	4.52529	Rixensart	50.71229	28 Aug 2016
America/New_York	building	-71.8023	Fitchburg	42.58342	08/17/2020, 00:00:00
America/Sao_Paulo	average	-51.50361	Carlos Barbosa	-29.2975	2016-08-04
Europe/Berlin	average	7.973	Finnentrop	51.168	07/01/2020, 00:00:00
Europe/Warsaw	excellent	15.00835	Zgorzelec	51.14942	20 Jun 2014
America/New_York	accep	-77.70066	Gates-North Gates	43.16547	2017-01-13
Africa/Dar_es_Salaam	maintenance	38.66667	Mvomero	-6.25	2014/01/08
America/Panama	building	-79.62603	Veracruz	8.88988	11/07/2014, 00:00:00
Europe/Moscow	excellent	35.96944	Volokolamsk	56.03361	11 Sep 2019
Europe/Berlin	maintenance	7.2278	Bad Honnef	50.64336	03/27/2017, 00:00:00
Asia/Kolkata	good	88.28637	Pandua	23.07492	31 May 2022
Asia/Karachi	good	72.54064	Sillanwali	31.82539	12/23/2012, 00:00:00
Asia/Shanghai	maintenance	115.70111	Hengshui	37.73222	09/20/2022, 00:00:00
Asia/Manila	accep	124.3697	Jagna	9.6531	08/12/2019, 00:00:00
America/Phoenix	good	-111.78903	Gilbert	33.35283	09 Aug 2014
Asia/Baghdad	maintenance	44.02488	Karbala	32.61603	11 Oct 2020
Europe/Istanbul	average	34.02537	Aksaray	38.37255	09 Mar 2017
Asia/Tokyo	building	137.4	Toyokawa	34.81667	2022/03/24
America/New_York	good	-73.97069	Kensington	40.64621	2012-11-24
America/Chicago	excellent	-95.30106	Tyler	32.35126	2017/12/31
Europe/Brussels	accep	4.21372	Temse	51.12794	17 Jun 2018
Asia/Yerevan	excellent	44.7662	Hrazdan	40.49748	2018/03/23
Asia/Manila	good	120.56528	Pilar	14.66	02/16/2016, 00:00:00
Atlantic/Canary	good	-15.58602	Maspalomas	27.76056	04/20/2022, 00:00:00
Asia/Manila	maintenance	121.96361	Recodo	6.95194	09/11/2016, 00:00:00
America/New_York	accep	-73.78458	Scarsdale	41.0051	02/20/2020, 00:00:00
America/Martinique	excellent	-60.94228	Le Robert	14.67751	03/28/2018, 00:00:00
Africa/Porto-Novo	accep	2.59753	Tchaourou	8.88649	2019/01/26
Africa/Ndjamena	average	18.69303	Mongo	12.18441	2020-06-04
Europe/Moscow	average	37.56667	Likhobory	55.85	2012/10/14
Asia/Novokuznetsk	accep	85.4265	Yashkino	55.8736	2019/01/15
America/Toronto	good	-73.86586	Beaconsfield	45.43341	01/30/2013, 00:00:00
America/Sao_Paulo	acceptable	-42.98194	Guapimirim	-22.53722	14 May 2015
Europe/Madrid	building	-0.76773	Novelda	38.38479	04/13/2017, 00:00:00
America/Vancouver	maintenance	-119.48568	Kelowna	49.88307	2020/05/23
America/Chicago	accep	-93.12577	Rosemount	44.73941	2018/07/10
Europe/Berlin	building	8.51667	Verl	51.88333	2012-09-30
Asia/Kolkata	accep	79.41727	Gingee	12.25282	2022/05/18
Africa/Abidjan	building	-3.59625	Bonoua	5.27247	01 Apr 2017
America/Chicago	good	-93.12577	Rosemount	44.73941	2015-06-18
Europe/Zaporozhye	average	36.25361	Polohy	47.48444	22 Jul 2017
Europe/Berlin	maitennce	9.02596	Albstadt	48.21644	2018/06/21
Asia/Kolkata	excellent	78.27539	Robertsonpet	12.95629	05 Dec 2013
America/Los_Angeles	average	-116.21677	Indio	33.7207	2016-09-07
Europe/Paris	good	1.33467	Colomiers	43.61058	14 Aug 2018
America/Fortaleza	accep	-40.7475	Guaraciaba do Norte	-4.16694	03/03/2018, 00:00:00
America/Maceio	building	-37.03861	Barra dos Coqueiros	-10.90889	2019/01/12
Asia/Kolkata	excellent	85.94001	Teghra	25.49043	19 Sep 2021
Asia/Kolkata	average	75.92694	Davangere	14.46693	2022-04-26
Africa/Kigali	average	30.4347	Rwamagana	-1.9487	2022/03/04
America/Chicago	good	-87.45476	Schererville	41.47892	2018/01/26
Asia/Tehran	maintenance	51.0193	Shahre Jadide Andisheh	35.6803	22 Jun 2014
America/Chicago	building	-99.73314	Abilene	32.44874	2021-02-07
Europe/London	accep	-4.21376	Rutherglen	55.82885	2013/07/29
America/New_York	average	-72.27814	Keene	42.93369	28 Sep 2014
America/Mexico_City	maintenance	-101.2591	Guanajuato	21.01858	2013-09-30
Asia/Bangkok	average	99.95469	Damnoen Saduak	13.51825	2021-11-26
Europe/Brussels	maintenance	4.07601	Denderleeuw	50.88506	20 Jan 2021
Asia/Kuala_Lumpur	average	103.6032	Kulai	1.6561	2017/03/02
America/Sao_Paulo	excellent	-41.25528	Resplendor	-19.32556	22 Nov 2012
Asia/Shanghai	excellent	117.7	Dongdu	35.85	16 Jun 2018
Africa/Casablanca	excellent	-6.90656	Temara	33.92866	08/18/2015, 00:00:00
Europe/Belgrade	excellent	19.61222	Sremska Mitrovica	44.97639	2018/08/03
Asia/Shanghai	good	122.20488	Zhoushan	29.98869	2015-05-15
America/Mexico_City	accep	-99.32556	San Lorenzo Acopilco	19.32889	13 Apr 2014
America/New_York	excellent	-82.90375	Dublin	32.54044	2012/11/06
Asia/Jakarta	building	112.23109	Diwek	-7.57897	2016-11-25
America/Chicago	good	-87.66561	Lower West Side	41.8542	2015-12-16
America/Sao_Paulo	excellent	-52.67056	Pato Branco	-26.22861	04/18/2018, 00:00:00
Europe/Rome	excellent	11.412	Montecchio Maggiore-Alte Ceccato	45.50369	09/18/2021, 00:00:00
America/Los_Angeles	accep	-118.10583	San Gabriel	34.09611	09/09/2017, 00:00:00
Indian/Reunion	good	55.4504	Saint-Denis	-20.88231	09/14/2020, 00:00:00
Europe/Amsterdam	excellent	7.00417	Losser	52.26083	2013-12-22
America/Mexico_City	excellent	-98.1664	Contla	19.32932	2018/08/21
Asia/Shanghai	building	117.81667	Zhoucun	36.81667	12/12/2020, 00:00:00
America/Mexico_City	good	-94.91386	Acayucan	17.94979	19 Jun 2014
America/New_York	accep	-77.37331	Mechanicsville	37.60876	04/22/2019, 00:00:00
Asia/Karachi	good	68.21204	Larkana	27.55898	2018-04-13
Asia/Kolkata	accep	84.13864	Jashpurnagar	22.88783	2017-04-28
America/Maceio	excellent	-37.07167	Aracaju	-10.91111	15 Jun 2020
Europe/Istanbul	excellent	34.02537	Aksaray	38.37255	2017/03/23
Asia/Ulaanbaatar	average	106.88324	Ulan Bator	47.90771	2020/08/01
Europe/Rome	building	12.84052	Portogruaro	45.78071	02/25/2016, 00:00:00
Asia/Kolkata	average	83.97573	Sambalpur	21.46527	20 Jul 2020
Asia/Kolkata	average	85.37752	Barbil	22.10194	16 Sep 2018
Asia/Kolkata	excellent	78.40102	Chharra	27.9247	2012/12/16
Europe/Dublin	building	-7.95	Athlone	53.43333	2015-03-10
Asia/Shanghai	good	112.73333	Xinzhou	38.40917	2013/07/25
Africa/Nairobi	maintenance	35.59642	Lodwar	3.11988	08/25/2013, 00:00:00
Asia/Baku	accep	48.87498	Astara	38.45598	11 Oct 2013
America/New_York	accep	-84.67837	Acworth	34.06635	2018-05-05
Asia/Manila	average	123.99333	Sorsogon	12.97389	04 Oct 2012
Asia/Manila	building	123.89071	Cebu City	10.31672	11/05/2012, 00:00:00
Europe/Helsinki	good	24.6522	Espoo	60.2052	2015-05-16
America/New_York	good	-76.43941	Middle River	39.33427	2016-01-10
America/New_York	accep	-80.22588	North Lauderdale	26.2173	08 Mar 2022
Asia/Almaty	good	77.0202	Otegen Batyra	43.41949	2019-11-11
Asia/Kolkata	maintenance	83.36889	Gorakhpur	26.76628	04/04/2022, 00:00:00
Asia/Shanghai	excellent	120.33063	Longgang	37.65181	2016/12/18
America/Los_Angeles	excellent	-117.71978	Claremont	34.09668	17 May 2014
Europe/London	accep	-0.2	Barnet	51.65	08/11/2014, 00:00:00
America/Sao_Paulo	good	-46.99583	Valinhos	-22.97056	2017/08/03
Asia/Tokyo	excellent	138.89585	Annaka	36.33011	08/15/2019, 00:00:00
Europe/Helsinki	building	24.6522	Espoo	60.2052	09/21/2020, 00:00:00
Asia/Seoul	good	126.665	Hongseong	36.6009	02/04/2017, 00:00:00
Europe/Sofia	excellent	23.225	Montana	43.4125	03/13/2017, 00:00:00
Africa/Lagos	good	8.2926	Kafanchan	9.58126	2017-11-16
America/Sao_Paulo	building	-48.29694	Viradouro	-20.87306	15 Apr 2015
Europe/Moscow	excellent	38.02486	Malakhovka	55.64776	12 May 2014
Asia/Kolkata	accep	86.59611	Saharsa	25.87498	2016/05/01
America/Chicago	good	-93.75018	Shreveport	32.52515	04/17/2019, 00:00:00
America/Phoenix	excellent	-111.78903	Gilbert	33.35283	16 Oct 2020
America/Mexico_City	excellent	-93.11308	Tuxtla	16.75973	06/22/2014, 00:00:00
Asia/Kolkata	excellent	84.63445	Rafiganj	24.81757	02 May 2015
Asia/Samarkand	building	67.84222	Jizzax	40.11583	10 Jan 2015
Europe/Istanbul	good	41.00817	Silvan	38.13708	2017-09-19
Europe/Lisbon	accep	-9.24671	Carnaxide	38.72706	12/21/2018, 00:00:00
America/New_York	average	-76.88442	Harrisburg	40.2737	26 May 2019
America/Los_Angeles	excellent	-117.71978	Claremont	34.09668	04/12/2022, 00:00:00
Europe/London	maintenance	1.15597	Clacton-on-Sea	51.78967	02 Jul 2021
America/New_York	excellent	-76.51552	Rosedale	39.32011	2016-11-27
America/Los_Angeles	accep	-117.23991	Opportunity	47.64995	2020/05/20
Asia/Seoul	excellent	126.835	Goyang-si	37.65639	2015-12-24
Asia/Bangkok	accep	103.65309	Roi Et	16.0567	2020-08-15
Europe/Brussels	accep	4.52529	Rixensart	50.71229	2022/06/19
Europe/Moscow	average	38.94324	Yablonovskiy	44.98901	2013/03/27
Asia/Riyadh	accep	49.62251	Al Jubayl	27.0174	2018/02/25
Europe/London	good	-2.98333	Poulton-le-Fylde	53.83333	2014/06/11
America/Port-au-Prince	good	-72.09391	Thomazeau	18.65297	25 Jun 2020
Asia/Tehran	average	51.0193	Shahre Jadide Andisheh	35.6803	07 Nov 2017
America/Chicago	building	-95.30106	Tyler	32.35126	12 Jan 2018
Africa/Gaborone	average	27.46153	Tonota	-21.44236	26 May 2015
Africa/Kampala	good	30.98551	Paidha	2.41669	2019/08/05
Asia/Manila	average	120.89694	Baliuag	14.95472	09 Apr 2014
America/Chicago	building	-87.93341	Pleasant Prairie	42.55308	2017-03-26
Asia/Tokyo	good	137.95378	Ina	35.82756	2020-06-23
America/Chicago	good	-93.263	Columbia Heights	45.0408	2019-07-08
Europe/London	average	-1.06667	Selby	53.78333	06/06/2015, 00:00:00
America/Los_Angeles	good	-116.97725	Beaumont	33.92946	2014-11-16
Asia/Jerusalem	excellent	34.86563	Ramla	31.92923	2018/01/02
America/Mexico_City	maintenance	-100.44843	Santa Rosa Jauregui	20.74122	06/09/2014, 00:00:00
Asia/Tokyo	excellent	136.13108	Ueno-ebisumachi	34.75856	2021/07/31
America/Argentina/Buenos_Aires	maintenance	-59.13316	Tandil	-37.32167	2017-02-10
Europe/Amsterdam	average	6.61944	Hardenberg	52.57583	2015/07/16
America/Panama	excellent	-79.62098	Chilibre	9.15093	03/16/2018, 00:00:00
America/Bogota	maintenance	-73.26022	Socorro	6.46838	06/19/2016, 00:00:00
Asia/Kuala_Lumpur	maintenance	103.81667	Ulu Tiram	1.6	2013/04/09
Asia/Tehran	excellent	51.67462	Isfahan	32.65246	2017-04-16
Asia/Tokyo	average	138.89585	Annaka	36.33011	24 Oct 2017
America/New_York	building	-73.75513	Far Rockaway	40.60538	2015-03-17
Europe/Moscow	accep	46.10925	Gudermes	43.35071	18 Jul 2021
America/New_York	excellent	-73.78458	Scarsdale	41.0051	2017-12-04
America/Chicago	average	-88.42814	Huntley	42.16808	2016/07/23
Asia/Kolkata	average	71.30633	Kundla	21.34222	2013-03-08
Africa/Johannesburg	accep	29.00974	Mokopane	-24.19436	2016/09/13
Asia/Tokyo	excellent	137.95378	Ina	35.82756	2021/07/09
Africa/Casablanca	building	-5.22126	Azrou	33.43443	11 Sep 2013
America/Sao_Paulo	good	-52.2	Marau	-28.44917	04 Oct 2014
Europe/London	accep	0.47713	Strood	51.39323	03/07/2022, 00:00:00
Europe/Rome	maintenance	8.88104	Malnate	45.79377	07/10/2015, 00:00:00
Europe/Amsterdam	building	6.61944	Hardenberg	52.57583	2016-11-20
Africa/Windhoek	average	16.91667	Okahandja	-21.98333	10 Mar 2015
America/Guatemala	accep	-91.11667	Chichicastenango	14.93333	07/01/2018, 00:00:00
America/Lima	good	-73.25383	Iquitos	-3.74912	2021-06-16
Asia/Shanghai	good	116.11768	Meizhou	24.28859	08 Feb 2014
Africa/Casablanca	maintenance	-6.00137	Oulmes	33.42585	04 May 2016
Europe/Amsterdam	accep	5.51978	Tongelre	51.44889	07/05/2014, 00:00:00
America/Detroit	building	-83.48216	Canton	42.30865	2013-05-13
America/Guatemala	average	-91.11667	Chichicastenango	14.93333	11/10/2013, 00:00:00
America/Chicago	maintenance	-86.77917	Brentwood Estates	36.02506	01 May 2022
Europe/Madrid	accep	2.35739	Cardedeu	41.63976	07 Jan 2019
Europe/Paris	building	2.18967	Rueil-Malmaison	48.8765	24 Mar 2014
Asia/Makassar	average	116.82887	Balikpapan	-1.26753	2018/08/12
Asia/Karachi	maintenance	72.54566	Hasilpur	29.69221	2013/05/25
America/Lima	accep	-73.25383	Iquitos	-3.74912	04/04/2014, 00:00:00
Asia/Kolkata	average	84.63445	Rafiganj	24.81757	2015-10-21
Europe/Paris	excellent	2.12213	Le Chesnay	48.8222	2020-12-07
Europe/Paris	accep	3.87723	Montpellier	43.61092	2017/07/31
America/Chicago	average	-95.44744	Fresno	29.53885	09/14/2014, 00:00:00
Europe/Berlin	good	8.4493	Hofheim am Taunus	50.09019	2013/08/07
Asia/Kuala_Lumpur	average	100.24529	Batu Feringgi	5.4709	2018/09/14
America/Santiago	good	-73.02841	Chiguayante	-36.9256	2021-05-17
Asia/Kolkata	accep	72.85107	Bhayandar	19.30157	29 Oct 2018
Europe/Amsterdam	excellent	6.76111	Hoogezand	53.16167	05 Feb 2022
Asia/Samarkand	accep	67.84222	Jizzax	40.11583	2020/09/07
Europe/Amsterdam	excellent	5.74861	Emmeloord	52.71083	20 Mar 2018
Asia/Yekaterinburg	average	56.36091	Saraktash	51.78771	03 Jul 2022
Asia/Dushanbe	accep	69.01354	Vahdat	38.55632	2013-09-16
Africa/Algiers	average	2.95924	Cheraga	36.76775	28 Jun 2017
Europe/Amsterdam	maintenance	7.00417	Losser	52.26083	2017/06/20
America/Mexico_City	average	-103.42897	Jocotepec	20.28527	2013/05/09
Europe/Warsaw	excellent	17.4674	Brzeg	50.86079	09/08/2015, 00:00:00
Asia/Tokyo	accep	136.61667	Nonoichi	36.53333	29 Nov 2018
Asia/Manila	good	120.56528	Pilar	14.66	08 May 2019
America/New_York	excellent	-75.23266	Utica	43.1009	2013-07-25
Africa/Douala	good	9.00472	Idenao	4.2475	2020/04/27
Europe/Madrid	maintenance	2.18247	el Camp de l'Arpa del Clot	41.41204	17 Jan 2021
Europe/Berlin	accep	7.02238	Gronau	52.21099	06/16/2022, 00:00:00
Europe/Rome	maintenance	11.04979	Castelfranco Emilia	44.59445	04/22/2016, 00:00:00
Asia/Tbilisi	building	41.77921	Kobuleti	41.82143	11/21/2018, 00:00:00
America/New_York	good	-75.60804	West Chester	39.96097	2021-05-21
Europe/Paris	excellent	-0.45877	Niort	46.32313	16 Dec 2016
Europe/London	good	0.75	Thetford	52.41667	23 Dec 2012
America/Argentina/Buenos_Aires	excellent	-59.13316	Tandil	-37.32167	2012/11/29
Africa/Kampala	accep	30.91105	Arua	3.02013	02/11/2014, 00:00:00
America/New_York	average	-80.31727	Kendall	25.67927	06/27/2020, 00:00:00
Asia/Makassar	good	117.59152	Tarakan	3.31332	2017/08/10
Europe/Moscow	excellent	46.5813	Alatyr‚Äô	54.8421	07/11/2014, 00:00:00
America/New_York	excellent	-82.45426	Venice	27.09978	2018-09-01
Europe/Stockholm	average	18.28333	Boo	59.33333	11 Oct 2020
Europe/Minsk	good	31.3237	Dobrush	52.4089	26 May 2020
Europe/London	average	-4.22398	Inverness	57.47908	18 Feb 2016
Asia/Tokyo	accep	137.95378	Ina	35.82756	2019-10-07
Europe/Rome	building	7.60872	Ventimiglia	43.78956	16 Oct 2018
America/Costa_Rica	good	-84.13722	San Rafael	9.92787	05 Mar 2017
Asia/Damascus	good	38.28402	Tadmur	34.5624	06 May 2021
Asia/Karachi	accep	71.52847	Mianwali	32.57756	2022-08-05
Africa/Lubumbashi	good	24.99798	Kamina	-8.73508	01/03/2015, 00:00:00
America/Maceio	maintenance	-37.65	Lagarto	-10.91722	2018/05/25
America/Mexico_City	building	-97.35992	Teziutlan	19.8173	2022-08-17
Indian/Antananarivo	average	44.53333	Sakaraha	-22.9	13 Apr 2020
Europe/Helsinki	excellent	24.95034	Kallio	60.18427	2018/07/24
Europe/Istanbul	excellent	28.88222	Mudanya	40.37528	21 Apr 2019
America/Caracas	good	-62.64102	Ciudad Guayana	8.35122	2021-05-15
Asia/Tokyo	average	138.31667	Suzaka	36.65	2013-09-09
Europe/Rome	accep	13.39954	Falconara Marittima	43.62558	20 Feb 2022
Europe/Berlin	average	7.2278	Bad Honnef	50.64336	04/20/2016, 00:00:00
Asia/Kolkata	accep	71.57737	Gariadhar	21.53889	05/02/2016, 00:00:00
Asia/Damascus	excellent	36.7138	Binnish	35.95664	2017/05/24
America/New_York	good	-74.07764	Jersey City	40.72816	15 May 2021
Europe/Madrid	accep	-2.68333	Gernika-Lumo	43.31667	2019-05-17
Asia/Kolkata	accep	91.61356	Rangia	26.44931	09/01/2014, 00:00:00
Asia/Karachi	maintenance	70.96699	Kot Addu	30.46907	2019-08-14
America/New_York	accep	-73.99681	Dumont	40.94065	2022-07-16
America/Fortaleza	good	-41.45861	Pedro II	-4.42472	2014-10-10
Europe/London	good	-0.2	Barnet	51.65	2017-08-16
Europe/Warsaw	excellent	18.30056	Strzelce Opolskie	50.5107	20 Jul 2020
America/New_York	accep	-83.2321	Milledgeville	33.08014	02/28/2013, 00:00:00
America/Port-au-Prince	average	-72.09391	Thomazeau	18.65297	2014-10-21
America/New_York	accep	-81.77285	Clermont	28.54944	2014/02/05
Europe/Moscow	accep	43.91385	Kovylkino	54.03876	2022-06-19
Asia/Kolkata	good	77.70636	Meerut	28.98002	24 Feb 2022
Asia/Shanghai	maintenance	115.04814	Huangshi	30.24706	2021/08/26
Europe/Berlin	excellent	8.51667	Verl	51.88333	2017-07-07
Asia/Urumqi	maintenance	86.00214	Hoxtolgay	46.51872	2019/09/26
Asia/Tokyo	good	139.6853	Shimotoda	35.815	17 Jan 2017
Europe/London	good	-0.29825	Surbiton	51.39148	07/17/2017, 00:00:00
Asia/Shanghai	good	115.70111	Hengshui	37.73222	12/08/2018, 00:00:00
America/Chicago	building	-90.10674	Estelle	29.84576	2015/11/13
America/Los_Angeles	average	-121.75689	Watsonville	36.91023	2013/05/13
Asia/Karachi	excellent	68.11759	Tharu Shah	26.9423	2015-08-15
Asia/Bangkok	maintenance	103.65309	Roi Et	16.0567	2015/11/20
Asia/Manila	average	123.33471	Dipolog	8.56697	18 Aug 2015
Africa/Casablanca	excellent	-5.22126	Azrou	33.43443	2014-12-06
America/New_York	good	-81.56929	Collinwood	41.55838	2017-11-19
America/Havana	maintenance	-77.43532	Media Luna	20.14298	2013-08-14
America/Denver	maintenance	-111.90466	Saratoga Springs	40.34912	2016-10-12
Asia/Hebron	accep	35.23388	East Jerusalem	31.78336	26 Sep 2019
Europe/Lisbon	accep	-8.2503	Albufeira	37.08819	02 Jun 2016
Asia/Colombo	maintenance	79.87116	Dehiwala-Mount Lavinia	6.84019	2020-09-13
Europe/Rome	average	12.6723	Ariccia	41.72063	2020/11/26
America/Costa_Rica	accep	-85.43772	Liberia	10.63504	11/02/2014, 00:00:00
Asia/Jakarta	average	113.69785	Besuki	-7.73379	2021-01-12
Asia/Tehran	average	51.0193	Shahre Jadide Andisheh	35.6803	2016/01/08
America/Bogota	maintenance	-75.69947	San Carlos	8.79577	12/22/2019, 00:00:00
Europe/Paris	maintenance	8.73812	Ajaccio	41.91886	11/18/2016, 00:00:00
Europe/Moscow	average	33.2525	Valday	57.97472	2018-04-15
America/Detroit	average	-82.42491	Port Huron	42.97086	29 Oct 2014
America/Chicago	accep	-97.54667	Hutto	30.5427	12/29/2013, 00:00:00
Indian/Reunion	good	55.4504	Saint-Denis	-20.88231	2022-04-24
Asia/Manila	average	122.9666	Talisay	10.7375	22 Nov 2017
Asia/Kolkata	good	83.36889	Gorakhpur	26.76628	2015/10/30
Asia/Manila	excellent	124.3697	Jagna	9.6531	08/14/2022, 00:00:00
Pacific/Efate	excellent	168.31366	Port-Vila	-17.73648	2022-02-17
Europe/Berlin	excellent	10.5511	Gifhorn	52.47774	06/16/2017, 00:00:00
America/New_York	good	-82.46148	Lutz	28.15112	10/05/2013, 00:00:00
Africa/Dar_es_Salaam	accep	39.25	Magomeni	-6.8	2013/12/26
Australia/Sydney	excellent	150.60036	Nowra	-34.88422	2014/11/09
Africa/Johannesburg	accep	30.79165	Vryheid	-27.76952	2022-08-22
America/Chicago	excellent	-93.263	Columbia Heights	45.0408	14 Apr 2015
Europe/Zaporozhye	excellent	36.25361	Polohy	47.48444	2019/02/24
Europe/Berlin	average	11.34046	Rudolstadt	50.72043	02/20/2016, 00:00:00
America/Denver	excellent	-104.22884	Carlsbad	32.42067	2020-12-14
Asia/Tbilisi	maintenance	41.77921	Kobuleti	41.82143	2021/05/10
Europe/Moscow	average	43.91385	Kovylkino	54.03876	2021/03/18
Europe/London	accep	-0.36053	Bushey	51.64316	10/12/2021, 00:00:00
Africa/Algiers	average	1.04945	Frenda	35.06544	2018/10/07
Europe/Amsterdam	good	4.47124	Schiebroek	51.95838	2013/03/08
Asia/Seoul	average	126.665	Hongseong	36.6009	08 Dec 2017
Asia/Dhaka	accep	89.11943	Kushtia	23.9028	09/02/2020, 00:00:00
Europe/Rome	accep	9.29109	San Giuliano Milanese	45.39402	2017-01-29
Asia/Yangon	average	98.50893	Myawadi	16.68911	2019/07/27
Europe/Bratislava	good	17.8031	Hlohovec	48.43174	2016/02/14
Africa/Douala	maintenance	9.00472	Idenao	4.2475	2014/02/15
America/New_York	accep	-82.32483	Gainesville	29.65163	10/06/2014, 00:00:00
America/Lima	average	-76.70944	Chosica	-11.94306	16 Aug 2013
Asia/Manila	good	120.97844	Guyong	14.8361	2016/09/04
Asia/Karachi	average	75.06583	Fazilpur	32.17629	2019/02/15
Asia/Bangkok	accep	104.1451	Yasothon	15.79408	12/20/2016, 00:00:00
America/Havana	building	-77.43532	Media Luna	20.14298	25 Sep 2020
Europe/Berlin	average	13.28702	Dahlem	52.4581	01/03/2021, 00:00:00
Europe/Madrid	accep	-4.83076	Talavera de la Reina	39.96348	2017-12-25
Europe/Rome	building	13.39954	Falconara Marittima	43.62558	2014/06/04
Africa/Monrovia	good	-8.53778	New Yekepa	7.57944	06/06/2015, 00:00:00
Asia/Baghdad	average	44.02488	Karbala	32.61603	07/28/2021, 00:00:00
Asia/Kolkata	accep	72.93924	Uran	18.87813	2016/04/27
Europe/Istanbul	good	40.74357	Mardin	37.31309	2019-11-27
Asia/Kolkata	average	76.12647	Chamba	32.55531	01/06/2019, 00:00:00
Europe/Berlin	good	7.2278	Bad Honnef	50.64336	2015/04/02
America/New_York	average	-69.96533	Brunswick	43.91452	09 Jul 2021
America/New_York	excellent	-73.9625	Morningside Heights	40.81	08 May 2022
America/New_York	average	-77.55777	Bon Air	37.52487	2021-04-12
Europe/Copenhagen	average	12.53463	Frederiksberg	55.67938	01/20/2022, 00:00:00
America/Chicago	good	-98.15529	San Juan	26.18924	2015-02-27
Asia/Tokyo	excellent	136.13108	Ueno-ebisumachi	34.75856	2020-10-28
Asia/Yangon	average	98.19151	Dawei	14.0823	2021/06/19
Africa/Bangui	excellent	15.87735	Carnot	4.94273	03/05/2017, 00:00:00
Africa/Algiers	accep	4.85668	Bordj Zemoura	36.27462	01 Feb 2014
America/Chicago	accep	-86.99666	Hueytown	33.45122	2013-09-15
Africa/Djibouti	good	42.7125	'Ali Sabieh	11.15583	07/26/2022, 00:00:00
Asia/Tehran	good	51.67462	Isfahan	32.65246	2022/02/28
Europe/Istanbul	good	41.00817	Silvan	38.13708	2017-11-29
Asia/Urumqi	good	86.00214	Hoxtolgay	46.51872	2022-01-02
Europe/Rome	excellent	11.04979	Castelfranco Emilia	44.59445	2017-02-12
Europe/Paris	maintenance	2.18967	Rueil-Malmaison	48.8765	2014-12-26
America/Argentina/Cordoba	excellent	-60.93173	Esperanza	-31.4488	2021/02/08
Europe/Rome	good	11.04979	Castelfranco Emilia	44.59445	03/29/2020, 00:00:00
Europe/Madrid	excellent	-3.53261	San Fernando de Henares	40.42386	04/07/2013, 00:00:00
Europe/Istanbul	accep	42.85693	Patnos	39.22493	07 May 2019
Asia/Vladivostok	average	133.42825	Lesozavodsk	45.47885	21 Apr 2019
Europe/Paris	building	5.03586	Cavaillon	43.83125	11/26/2014, 00:00:00
America/Phoenix	accep	-111.78903	Gilbert	33.35283	03/25/2017, 00:00:00
Europe/Zaporozhye	accep	38.15035	Svatove	49.41029	2019/06/11
Asia/Shanghai	excellent	123.17306	Liaoyang	41.27194	2015-11-02
Asia/Kuala_Lumpur	accep	103.6032	Kulai	1.6561	05 Jun 2019
Asia/Tokyo	maintenance	137.36215	Namerikawa	36.75965	03/13/2015, 00:00:00
America/Bogota	good	-75.87877	Andes	5.6561	20 Dec 2013
Asia/Bangkok	good	104.1451	Yasothon	15.79408	25 May 2013
Europe/Paris	accep	1.6	Pamiers	43.11667	2012/11/17
Europe/Madrid	good	-0.76773	Novelda	38.38479	2021/12/04
Europe/London	average	-4.21376	Rutherglen	55.82885	03 Sep 2018
Asia/Jakarta	good	106.85417	Cibinong	-6.48167	2014/12/12
Australia/Sydney	building	150.60036	Nowra	-34.88422	01/11/2017, 00:00:00
Asia/Manila	maintenance	120.57224	Burgos	15.72892	09 Jun 2014
Asia/Kuala_Lumpur	accep	101.02083	Teluk Intan	4.02219	2022/01/21
America/Los_Angeles	accep	-116.97725	Beaumont	33.92946	2020-04-09
Asia/Shanghai	accep	125.51176	Dongfeng	42.64031	2022-01-11
Asia/Baghdad	excellent	44.02488	Karbala	32.61603	2017/03/15
Europe/Madrid	maintenance	-4.83076	Talavera de la Reina	39.96348	05 Jan 2021
America/Bogota	average	-72.47417	Villa del Rosario	7.83389	2019/02/19
America/Los_Angeles	accep	-117.71978	Claremont	34.09668	2020/01/08
Asia/Tokyo	maintenance	137.02166	Minokamo	35.48199	01/01/2017, 00:00:00
Asia/Kuala_Lumpur	excellent	100.24529	Batu Feringgi	5.4709	02/10/2018, 00:00:00
America/Denver	maintenance	-104.22884	Carlsbad	32.42067	2022/06/26
America/New_York	accep	-82.35176	Sun City Center	27.71809	24 Nov 2015
America/Chicago	accep	-86.78777	Vestavia Hills	33.44872	2020-02-27
America/Chicago	average	-87.65644	New City	41.80753	2019/04/03
Europe/Minsk	good	30.2049	Vitebsk	55.1904	2017/04/20
America/Panama	good	-79.62603	Veracruz	8.88988	08/29/2015, 00:00:00
America/Los_Angeles	maintenance	-122.2054	Bothell	47.76232	08/19/2015, 00:00:00
Asia/Kolkata	excellent	77.23826	Sathyamangalam	11.50526	2018-06-23
America/Costa_Rica	good	-85.43772	Liberia	10.63504	01/03/2013, 00:00:00
Europe/Moscow	accep	37.99117	Krymsk	44.92934	2014-02-09
Pacific/Honolulu	building	-156.47432	Kahului	20.88953	11/17/2019, 00:00:00
America/Havana	average	-80.58556	Corralillo	22.98212	2018-01-05
America/New_York	building	-75.60804	West Chester	39.96097	2021/01/04
America/New_York	excellent	-77.96389	Martinsburg	39.45621	24 Jun 2015
Asia/Phnom_Penh	maintenance	102.56365	Paoy Paet	13.65805	18 Mar 2022
America/Caracas	average	-68.30472	Tinaquillo	9.91861	2015-04-12
America/New_York	good	-78.19444	Front Royal	38.91817	01 Dec 2018
Europe/Bratislava	good	17.8031	Hlohovec	48.43174	2019/08/06
Asia/Kolkata	accep	75.37991	Deoli	25.75728	11/19/2019, 00:00:00
America/Los_Angeles	building	-122.40433	Visitacion Valley	37.71715	02/01/2017, 00:00:00
Asia/Karachi	accep	70.96699	Kot Addu	30.46907	2013/08/13
Europe/Berlin	average	8.4493	Hofheim am Taunus	50.09019	2022-01-09
America/Sao_Paulo	excellent	-52.51028	Soledade	-28.81833	10 Sep 2017
Africa/Lagos	maintenance	9.0027	Gaya	11.86064	04 Oct 2013
Europe/Rome	acceptable	13.39954	Falconara Marittima	43.62558	2018/12/12
Asia/Kolkata	building	82.85749	Elamanchili	17.54907	04 Nov 2013
Europe/London	good	-0.29825	Surbiton	51.39148	03 Dec 2020
Australia/Melbourne	excellent	145.13643	Frankston South	-38.16604	2020-02-26
Asia/Tokyo	average	138.31667	Suzaka	36.65	18 Jul 2015
Europe/Paris	accep	4.7934	Saint-Genis-Laval	45.69558	2015/07/13
Asia/Kolkata	good	77.54372	Periyakulam	10.12268	01 Feb 2019
Asia/Kuala_Lumpur	good	102.3278	Kampung Ayer Molek	2.2139	08/26/2015, 00:00:00
Asia/Kolkata	good	86.79271	Madhipura	25.92127	2015-04-02
America/Toronto	excellent	-79.2663	Markham	43.86682	2018-07-23
America/Panama	average	-79.62603	Veracruz	8.88988	06/06/2014, 00:00:00
America/Vancouver	excellent	-119.48568	Kelowna	49.88307	05/16/2021, 00:00:00
America/Sao_Paulo	accep	-48.67028	Imbituba	-28.24	08 Dec 2015
Europe/Berlin	excellent	13.29371	Charlottenburg-Nord	52.53048	2020-03-18
Asia/Bangkok	average	99.96667	Nakhon Si Thammarat	8.43333	10/21/2017, 00:00:00
Asia/Manila	excellent	123.758	Naga	10.20898	03/24/2019, 00:00:00
Asia/Manila	good	123.99333	Sorsogon	12.97389	08/04/2021, 00:00:00
Asia/Shanghai	excellent	111.50861	Danjiangkou	32.54278	2021-06-08
Africa/Lagos	building	3.39467	Lagos	6.45407	2019/12/20
Europe/Berlin	building	13.28702	Dahlem	52.4581	31 Aug 2013
America/New_York	excellent	-70.92866	Peabody	42.52787	26 Sep 2016
America/Chicago	building	-87.66561	Lower West Side	41.8542	05/31/2015, 00:00:00
Europe/Kiev	good	31.33078	Voznesensk	47.56494	08 Apr 2021
Europe/Moscow	maintenance	46.5813	Alatyr‚Äô	54.8421	2020-08-19
Asia/Tokyo	average	139.6853	Shimotoda	35.815	12/16/2018, 00:00:00
Asia/Kolkata	accep	78.14797	Betamcherla	15.45144	25 Sep 2013
America/Mexico_City	excellent	-103.5687	Zacoalco de Torres	20.22816	10/08/2013, 00:00:00
Africa/Ndjamena	maintenance	18.69303	Mongo	12.18441	03/30/2022, 00:00:00
Asia/Ho_Chi_Minh	building	105.75635	Sa Dec	10.29085	2015-01-10
Europe/Vilnius	average	24.04142	Alytus	54.39635	2021/09/02
Asia/Taipei	good	119.58627	Magong	23.5654	2016-12-12
Europe/Madrid	good	-0.18333	Gandia	38.96667	01/14/2013, 00:00:00
Africa/Lubumbashi	average	24.99798	Kamina	-8.73508	03/29/2019, 00:00:00
Africa/Algiers	excellent	4.62744	El Achir	36.06386	2022/01/10
America/New_York	building	-78.19444	Front Royal	38.91817	2014/07/27
Asia/Shanghai	good	122.74754	Haicheng	40.85158	2016-05-31
Asia/Karachi	building	71.67164	Qadirpur Ran	30.29184	2018-03-27
Europe/Amsterdam	average	4.47124	Schiebroek	51.95838	10 Oct 2013
America/Maceio	excellent	-37.07167	Aracaju	-10.91111	21 Dec 2017
Europe/Paris	excellent	1.00288	Elbeuf	49.28669	2012-11-27
Asia/Kolkata	good	78.23456	Bachhraon	28.92694	20 Aug 2021
America/Chicago	building	-87.93341	Pleasant Prairie	42.55308	2014-04-14
Europe/Madrid	building	-2.98884	Leioa	43.32686	11/03/2019, 00:00:00
Europe/London	excellent	-1.06667	Selby	53.78333	2022/02/09
Europe/Lisbon	building	-9.24671	Carnaxide	38.72706	2019/02/10
America/Mexico_City	maintenance	-98.1664	Contla	19.32932	2021/07/14
Asia/Shanghai	good	117.55417	Zaozhuang	34.86472	21 Feb 2013
Europe/London	good	-1.99421	Devizes	51.35084	2018/12/08
America/Tegucigalpa	accep	-86.57415	Olanchito	15.48131	12/25/2019, 00:00:00
Asia/Karachi	building	68.88871	Jhol	25.95533	2018/10/07
America/Chicago	accep	-88.3162	Crystal Lake	42.24113	09 Feb 2021
Africa/Kigali	good	30.4347	Rwamagana	-1.9487	30 Aug 2016
America/Indiana/Indianapolis	accep	-85.76942	Greenfield	39.78504	2013/12/31
Africa/Algiers	average	2.31889	Ksar Chellala	35.21222	08/31/2016, 00:00:00
Europe/Moscow	accep	38.07083	Stupino	54.90083	14 Jun 2019
Africa/Windhoek	good	16.91667	Okahandja	-21.98333	2015-06-28
America/New_York	excellent	-75.23266	Utica	43.1009	05 Aug 2018
America/Chicago	accep	-90.10674	Estelle	29.84576	12 Apr 2016
Europe/Brussels	average	3.16667	Wevelgem	50.8	21 Jun 2013
Europe/Amsterdam	building	5.22778	Culemborg	51.955	2019-08-01
