code	revision	latitude	station	longitude	QoS
RU	2021/12/07	60.02427	Kolomyagi	30.28491	excellent
MT	11/02/2015, 00:00:00	35.89972	Valletta	14.51472	excellent
IN	07 Feb 2014	17.54907	Elamanchili	82.85749	accep
US	20 May 2022	47.64995	Opportunity	-117.23991	building
ID	24 Aug 2016	-7.51611	Wangon	109.05389	good
US	09/08/2021, 00:00:00	33.44872	Vestavia Hills	-86.78777	average
MX	04/05/2015, 00:00:00	20.28527	Jocotepec	-103.42897	building
CD	15 Apr 2018	0.49113	Beni	29.47306	good
SE	2021/02/15	61.72744	Hudiksvall	17.10558	building
ET	2015/05/25	6.03333	Arba Minch	37.55	average
JP	10/13/2016, 00:00:00	43.82634	Motomachi	144.09638	excellent
US	06 Feb 2015	33.52253	Laguna Niguel	-117.70755	excellent
DZ	2022-05-12	36.27462	Bordj Zemoura	4.85668	accep
PS	2017/05/06	31.78336	East Jerusalem	35.23388	excellent
DK	2017-01-28	55.67938	Frederiksberg	12.53463	accep
VU	2014/02/07	-17.73648	Port-Vila	168.31366	average
IT	2022-07-26	42.22718	Lanciano	14.39024	average
DE	07/26/2019, 00:00:00	48.49144	Reutlingen	9.20427	maintenance
ES	06/11/2020, 00:00:00	40.70995	Amposta	0.57856	excellent
FR	2014/11/09	43.61058	Colomiers	1.33467	average
NL	08/26/2021, 00:00:00	51.955	Culemborg	5.22778	good
ES	2015-02-27	41.15612	Reus	1.10687	good
TR	2017/09/05	38.13708	Silvan	41.00817	building
US	2014-01-17	41.55815	Waterbury	-73.0515	accep
KH	27 Oct 2019	13.65805	Paoy Paet	102.56365	excellent
DJ	06/26/2018, 00:00:00	11.15583	'Ali Sabieh	42.7125	excellent
CO	2021/11/01	5.6561	Andes	-75.87877	accep
DE	30 Dec 2019	48.35693	Friedberg	10.98461	average
SK	2013/02/03	48.8449	Skalica	17.22635	accep
GB	24 Jul 2019	53.78333	Selby	-1.06667	accep
IR	04/21/2021, 00:00:00	36.64852	Nowshahr	51.49621	excellent
US	31 Mar 2021	40.82232	Nutley	-74.15987	good
IT	2020/08/29	38.07789	Villabate	13.44275	accep
FR	11/29/2019, 00:00:00	48.77275	Bar-le-Duc	5.16108	average
CO	06/01/2017, 00:00:00	3.8801	Buenaventura	-77.03116	average
US	2013/10/12	33.41012	Greenville	-91.06177	good
GB	2020-02-14	53.00974	Rhosllanerchrugog	-3.05814	good
ID	2021/03/28	-6.8048	Kudus	110.8405	maintenance
IN	2013-09-30	9.82564	Tiruppuvanam	78.25795	maintenance
DE	2020/08/04	47.98372	Memmingen	10.18527	maitennce
IL	25 Aug 2016	32.05971	Ganei Tikva	34.8732	average
IT	03/18/2020, 00:00:00	45.53069	Gorgonzola	9.40531	excellent
FR	20 Mar 2017	48.77644	Sceaux	2.29026	excellent
MX	2013-06-25	21.01858	Guanajuato	-101.2591	average
DE	2022/02/19	50.80019	Siegburg	7.20769	accep
CZ	03/16/2017, 00:00:00	50.23271	Karlovy Vary	12.87117	excellent
CN	02 Feb 2019	40.66482	Yingkou	122.22833	good
IT	08 Feb 2021	44.89784	Tortona	8.86374	accep
AZ	06/10/2013, 00:00:00	41.09246	Qazax	45.36561	good
US	12 Feb 2017	32.52515	Shreveport	-93.75018	good
US	2019-05-23	40.72371	Greenpoint	-73.95097	good
PK	2018-10-23	27.52948	Khairpur Mir‚Äôs	68.75915	good
FR	06/28/2021, 00:00:00	48	Quimper	-4.1	accep
GB	12/01/2016, 00:00:00	51.62907	High Wycombe	-0.74934	building
CA	12/13/2013, 00:00:00	45.44868	Pointe-Claire	-73.81669	good
PH	2021-06-25	15.72892	Burgos	120.57224	good
RE	09/03/2020, 00:00:00	-20.88231	Saint-Denis	55.4504	average
IN	12 May 2017	34.08565	Srinagar	74.80555	average
PK	01/16/2016, 00:00:00	25.80565	Bhit Shah	68.49143	accep
BR	2019/07/27	-10.91722	Lagarto	-37.65	average
IT	2022-05-29	41.24264	Bisceglie	16.50104	excellent
SO	09 Feb 2013	9.89206	Baki	43.38531	building
FR	2020-09-30	46.67535	Lons-le-Saunier	5.55575	excellent
DE	2020-06-04	48.35149	Hechingen	8.96317	good
US	05/14/2013, 00:00:00	40.58654	Redding	-122.39168	average
GB	10/13/2012, 00:00:00	51.39148	Surbiton	-0.29825	average
US	27 Aug 2016	39.96097	West Chester	-75.60804	good
TJ	12 Apr 2015	38.55632	Vahdat	69.01354	accep
JP	18 Feb 2015	35	Komono	136.51667	excellent
GT	19 Jan 2013	14.93333	Chichicastenango	-91.11667	good
BR	08 Oct 2020	-19.72806	Iturama	-50.19556	good
BR	02 Oct 2015	-19.72806	Iturama	-50.19556	maintenance
CI	05/05/2014, 00:00:00	5.84752	Lakota	-5.682	accep
RU	24 Jul 2020	54.90083	Stupino	38.07083	excellent
US	2017/11/27	25.67927	Kendall	-80.31727	average
IN	14 May 2013	12.1277	Dharmapuri	78.15794	good
DE	2020-03-28	52.4581	Dahlem	13.28702	accep
US	09/02/2019, 00:00:00	33.54428	Stockbridge	-84.23381	excellent
RU	26 May 2015	46.7055	Yeysk	38.2739	accep
US	2021-12-09	42.35843	Boston	-71.05977	excellent
FR	2020-05-05	45.69558	Saint-Genis-Laval	4.7934	average
KZ	02 Feb 2020	47.83333	Shalqar	59.6	good
ID	2017/07/30	3.31332	Tarakan	117.59152	accep
CN	2020-01-27	35.50056	Pingyi	117.63083	accep
UA	22 May 2017	46.75451	Nova Kakhovka	33.34864	accep
MX	2015-04-10	20.22816	Zacoalco de Torres	-103.5687	good
US	2020-06-03	40.81	Morningside Heights	-73.9625	accep
PK	2015-03-22	30.29184	Qadirpur Ran	71.67164	excellent
IR	10/10/2014, 00:00:00	32.65246	Isfahan	51.67462	good
GB	11 Dec 2016	51.62907	High Wycombe	-0.74934	average
AR	2013-01-17	-37.32167	Tandil	-59.13316	accep
TL	2015-10-06	-8.99167	Maliana	125.21972	average
RU	01/17/2019, 00:00:00	51.40944	Privolzhskiy	46.04833	building
DE	11 Mar 2022	50.72043	Rudolstadt	11.34046	accep
TH	12/30/2017, 00:00:00	6.25947	Tak Bai	102.05461	excellent
DE	17 Jun 2015	48.28259	Ehingen	9.72749	average
IN	2014/02/18	23.1959	Kenda	86.51499	building
IN	11 Jan 2015	23.18	Aistala	88.58	accep
US	2022-07-08	39.78504	Greenfield	-85.76942	excellent
NL	02/20/2014, 00:00:00	52.09	Zeist	5.23333	good
PH	2016-07-11	12.37169	Masbate	123.62494	good
IN	06 Jun 2014	25.49043	Teghra	85.94001	good
US	08/23/2018, 00:00:00	47.4943	Bryn Mawr-Skyway	-122.24092	accep
KE	2020/06/23	0.03813	Nyahururu	36.36339	building
TH	2014-07-20	13.8196	Nakhon Pathom	100.04427	maintenance
AU	2018/06/25	-31.95224	Perth	115.8614	excellent
IT	2014/09/16	41.55947	Campobasso	14.66737	maintenance
CO	2016-07-31	5.20856	Honda	-74.73584	building
US	2019-02-02	34.95303	Santa Maria	-120.43572	maintenance
US	2013-05-14	40.34912	Saratoga Springs	-111.90466	accep
ID	13 Sep 2017	-7.01833	Pameungpeuk	107.60389	accep
NL	2021-08-23	52.26083	Losser	7.00417	maintenance
AR	2016/10/11	-34.74785	Pontevedra	-58.70072	accep
JP	05/21/2018, 00:00:00	34.9	Shinshiro	137.5	excellent
NI	2018-10-18	11.84962	Jinotepe	-86.19903	accep
US	2020-01-14	38.17492	American Canyon	-122.2608	maintenance
TW	15 May 2014	23.5654	Magong	119.58627	good
UZ	2017-02-24	41.29444	Parkent	69.67639	average
CD	22 Aug 2018	0.49113	Beni	29.47306	accep
US	01 Mar 2018	33.45122	Hueytown	-86.99666	excellent
LK	2016-02-18	6.9909	Hendala	79.883	excellent
IN	07 Oct 2018	9.57046	Kalavoor	76.32756	building
CN	2016/04/10	40.66482	Yingkou	122.22833	accep
US	06/28/2015, 00:00:00	41.9001	Taunton	-71.08977	average
US	30 Jul 2013	33.92946	Beaumont	-116.97725	maintenance
NG	06 Dec 2017	6.45407	Lagos	3.39467	excellent
GB	2014/12/09	52.48173	Brierley Hill	-2.12139	excellent
UZ	2018-05-01	41.29444	Parkent	69.67639	good
IT	08 Jan 2020	40.87329	Somma Vesuviana	14.43865	good
IN	30 Apr 2014	15.73628	Gajendragarh	75.96976	maintenance
US	12/05/2013, 00:00:00	38.54491	Davis	-121.74052	excellent
CA	01 Apr 2017	46.23899	Charlottetown	-63.13414	good
GB	2019-04-09	51.26	Westbury	-2.1875	excellent
US	2017-03-28	41.15376	Bourbonnais	-87.88754	good
US	2019-02-03	40.5576	Woodbridge	-74.28459	good
GB	2016/12/08	51.39148	Surbiton	-0.29825	average
BR	2022-04-17	-8.66667	Catende	-35.71667	excellent
US	2020-04-23	33.35283	Gilbert	-111.78903	excellent
IT	2013-08-20	44.89784	Tortona	8.86374	accep
PH	01/24/2016, 00:00:00	16.455	La Trinidad	120.5875	average
TR	2018/01/22	39.59611	Edremit	27.02444	accep
DE	2013/11/13	48.28259	Ehingen	9.72749	average
RU	27 Jun 2017	57.30185	Gavrilov-Yam	39.85331	good
RU	2022/03/03	55.39485	Arzamas	43.83992	average
US	22 Jul 2016	28.54944	Clermont	-81.77285	accep
RU	2018/09/30	58.1908	Danilov	40.17171	good
IT	02/13/2019, 00:00:00	41.55947	Campobasso	14.66737	excellent
ES	28 Jul 2022	38.38479	Novelda	-0.76773	accep
BR	20 May 2018	-8.05389	Recife	-34.88111	accep
CI	2019-04-23	5.84752	Lakota	-5.682	accep
JP	2013/06/07	36	Okegawa	139.55722	good
IT	2015-09-26	40.87363	Volla	14.34085	average
RS	03 Jul 2021	44.22639	Negotin	22.53083	excellent
FR	2014-07-14	46.67535	Lons-le-Saunier	5.55575	average
JP	04/23/2014, 00:00:00	43.82634	Motomachi	144.09638	excellent
NG	12/22/2013, 00:00:00	7.65649	Efon-Alaaye	4.92235	accep
GB	2020/11/23	50.79205	Southsea	-1.08593	average
BR	2022-04-10	-23.44361	Sarandi	-51.87389	good
TH	04/18/2021, 00:00:00	13.44581	Phanat Nikhom	101.18445	excellent
IN	09 Jul 2020	11.50526	Sathyamangalam	77.23826	good
AO	2020-07-31	-11.78333	Luena	19.91667	average
GB	04/06/2016, 00:00:00	50.75767	Lymington	-1.5443	excellent
US	2017-09-07	33.08014	Milledgeville	-83.2321	building
IL	2015-02-06	32.05971	Ganei Tikva	34.8732	accep
CN	2014/07/28	35.20889	Changzhi	111.73861	excellent
JP	2014/01/31	34.81667	Toyokawa	137.4	average
US	2019/03/06	30.16688	Brenham	-96.39774	accep
DE	2021/03/22	52.61131	Hermsdorf	13.31783	average
NL	2014-12-24	53.16167	Hoogezand	6.76111	average
PH	2021/08/23	10.31672	Cebu City	123.89071	average
PH	2012-10-12	10.31672	Cebu City	123.89071	average
NL	2018-11-26	52.71083	Emmeloord	5.74861	average
DE	2013-01-24	48.52961	Landshut	12.16179	average
IN	11/09/2013, 00:00:00	26.11527	Supaul	86.59509	excellent
GB	02/13/2019, 00:00:00	50.11861	Penzance	-5.53715	average
ES	2013/02/09	40.42386	San Fernando de Henares	-3.53261	excellent
AU	05 Jun 2017	-37.9	Wheelers Hill	145.18333	accep
IN	2018-02-09	26.76628	Gorakhpur	83.36889	maintenance
US	2017-08-11	47.92526	Grand Forks	-97.03285	accep
RU	03/03/2021, 00:00:00	54.48147	Oktyabr‚Äôskiy	53.47103	excellent
RU	2016/03/08	50.06	Mikhaylovka	43.2379	average
KZ	09 Dec 2013	44.85278	Kyzylorda	65.50917	accep
VN	11 Jan 2021	10.29085	Sa Dec	105.75635	good
AR	2018/01/27	-27.4338	Aguilares	-65.61427	accep
RU	2014-11-20	55.62047	Tyoply Stan	37.49338	accep
CN	07/11/2021, 00:00:00	23.02677	Foshan	113.13148	accep
US	2013-06-25	43.54072	Nampa	-116.56346	average
GB	05/10/2015, 00:00:00	51.84819	Walton-on-the-Naze	1.26738	excellent
US	29 Feb 2016	43.54072	Nampa	-116.56346	building
CO	18 Nov 2012	4.73245	Madrid	-74.26419	good
JP	07/04/2015, 00:00:00	41.77583	Hakodate	140.73667	accep
PH	2022/07/03	14.62578	Antipolo	121.12251	accep
US	2017/08/16	36.91023	Watsonville	-121.75689	excellent
ES	24 Nov 2017	42.8139	Segundo Ensanche	-1.64295	average
US	2020-12-23	33.92946	Beaumont	-116.97725	good
JP	2019-07-24	37.56667	Inawashiro	140.11667	excellent
AF	2021-11-22	36.21544	Sar-e Pul	65.93249	building
CN	03/26/2013, 00:00:00	24.28859	Meizhou	116.11768	maintenance
BE	2021-03-13	50.56149	Gembloux	4.69889	excellent
IT	24 Dec 2016	41.24264	Bisceglie	16.50104	excellent
GB	2022-02-15	52.41667	Thetford	0.75	average
PA	29 Jan 2013	9.15093	Chilibre	-79.62098	good
DZ	2020-07-30	36.61954	Beni Douala	4.08282	maintenance
BR	07/18/2013, 00:00:00	-26.22861	Pato Branco	-52.67056	excellent
CD	07/01/2013, 00:00:00	0.76755	Yangambi	24.43973	average
MN	30 Jun 2013	47.90771	Ulan Bator	106.88324	accep
US	27 Jan 2021	29.53885	Fresno	-95.44744	maintenance
JM	06 Aug 2018	18.00747	New Kingston	-76.78319	maintenance
US	07/23/2017, 00:00:00	41.55815	Waterbury	-73.0515	maitennce
KR	25 Oct 2018	36.82167	Eisen	128.63083	excellent
IN	12/17/2013, 00:00:00	25.66795	Dalsingh Sarai	85.83636	excellent
FR	07/22/2018, 00:00:00	48.79325	Fontenay-aux-Roses	2.29275	accep
US	11 Nov 2017	38.58894	Fairview Heights	-89.99038	building
CN	04/25/2014, 00:00:00	45.75279	Boli	130.57211	accep
GM	2022-05-17	13.56667	Farafenni	-15.6	excellent
US	2013/12/11	40.60538	Far Rockaway	-73.75513	maintenance
ID	10/02/2014, 00:00:00	-7.57897	Diwek	112.23109	excellent
US	2022/03/26	42.97086	Port Huron	-82.42491	accep
IN	2019-09-16	22.10194	Barbil	85.37752	building
HR	24 Sep 2019	43.50891	Split	16.43915	good
NL	22 Jun 2015	51.44889	Tongelre	5.51978	average
GB	2013/12/07	53.83333	Poulton-le-Fylde	-2.98333	average
IE	2022-03-01	53.43333	Athlone	-7.95	average
JP	10/29/2018, 00:00:00	34.61667	Yao	135.6	average
US	2020-03-31	35.05266	Fayetteville	-78.87836	maintenance
GB	2021-05-18	52.48173	Brierley Hill	-2.12139	excellent
PH	2014-06-07	10.7375	Talisay	122.9666	excellent
BR	2016-07-17	-0.71667	Soure	-48.52333	accep
IN	29 Jun 2014	34.08565	Srinagar	74.80555	excellent
IL	2014-09-23	31.39547	Rahat	34.75699	accep
RU	2015/03/29	58.04254	Tavda	65.27258	accep
IT	2018/08/12	45.79377	Malnate	8.88104	good
JP	10 Dec 2015	34.75856	Ueno-ebisumachi	136.13108	accep
CU	2019-09-06	23.0072	Boyeros	-82.4017	accep
DE	06/14/2013, 00:00:00	52.61131	Hermsdorf	13.31783	average
RU	2019/06/08	54.48147	Oktyabr‚Äôskiy	53.47103	building
IN	04 Jul 2022	33.37526	Rajaori	74.3092	accep
SY	2019-01-25	35.95664	Binnish	36.7138	building
BE	2020/08/06	50.74497	Mouscron	3.20639	excellent
IL	17 Feb 2022	31.39547	Rahat	34.75699	average
RU	2013/05/21	60.97944	Izluchinsk	76.92421	average
CA	08/28/2015, 00:00:00	45.40008	Sainte-Catherine	-73.58248	accep
US	03/28/2018, 00:00:00	28.54944	Clermont	-81.77285	building
YE	2015/08/29	14.53767	Ataq	46.83187	good
IT	2022-01-04	37.51803	Misterbianco	15.00913	maintenance
GB	2021/06/21	53.81667	Blackpool	-3.05	good
MX	11/10/2016, 00:00:00	20.28527	Jocotepec	-103.42897	excellent
AR	2017-05-11	-27.4338	Aguilares	-65.61427	accep
IN	2022/03/01	26.32293	Barpeta	91.00632	average
DE	2013/05/21	51.47805	Oberhausen	6.8625	good
RU	04/27/2017, 00:00:00	54.39304	Bavly	53.26023	excellent
NG	2017-06-01	11.86064	Gaya	9.0027	average
DE	02/22/2020, 00:00:00	52.61131	Hermsdorf	13.31783	average
US	08/22/2022, 00:00:00	39.72943	Aurora	-104.83192	maintenance
US	05/16/2018, 00:00:00	37.71715	Visitacion Valley	-122.40433	accep
BR	11/23/2013, 00:00:00	-3.20333	Altamira	-52.20639	excellent
RU	2014/05/26	65.93381	Aykhal	111.4834	average
CO	2018-11-06	4.73245	Madrid	-74.26419	accep
US	21 Dec 2018	37.73604	Riverbank	-120.93549	excellent
BR	2022-06-18	-22.92306	Loanda	-53.13722	good
JP	2021/08/19	36.33011	Annaka	138.89585	excellent
UA	06/18/2020, 00:00:00	51.67822	Hlukhiv	33.9162	maintenance
MG	2017/02/15	-22.9	Sakaraha	44.53333	building
BR	2019/05/11	-15.675	Canavieiras	-38.94722	excellent
ES	2020/11/21	39.96348	Talavera de la Reina	-4.83076	excellent
GB	2019/12/16	53.00974	Rhosllanerchrugog	-3.05814	maintenance
TN	23 Nov 2012	36.46917	Beni Khiar	10.78222	building
RU	04 Nov 2013	55.54028	Sharypovo	89.20083	good
TH	22 May 2019	15.46063	Thap Than	99.89166	accep
DE	2017/04/30	49.13645	Eppingen	8.91229	good
PG	2020-12-16	-5.85746	Mount Hagen	144.23058	good
GB	11/15/2017, 00:00:00	55.82885	Rutherglen	-4.21376	excellent
RU	09 Jan 2016	44.98901	Yablonovskiy	38.94324	accep
MG	2020-08-28	-19.65	Antanifotsy	47.31667	accep
VE	2021/11/24	8.35122	Ciudad Guayana	-62.64102	excellent
IT	20 Jul 2020	40.92298	Afragola	14.30935	excellent
ID	01/02/2015, 00:00:00	-7.57897	Diwek	112.23109	good
US	29 Nov 2012	41.54566	Middletown	-71.29144	accep
CN	2015/08/22	35.50056	Pingyi	117.63083	maintenance
US	06/06/2017, 00:00:00	33.95015	South Whittier	-118.03917	maintenance
FR	11 Jun 2016	43.67681	Arles	4.63031	excellent
MA	2015-10-27	33.43443	Azrou	-5.22126	accep
NG	2018/08/12	7.50251	Igbara-Odo	5.06258	good
US	01/07/2020, 00:00:00	27.71809	Sun City Center	-82.35176	good
IN	2016-11-17	22.88783	Jashpurnagar	84.13864	good
DZ	2013-04-10	34.15429	Messaad	3.50309	building
PK	2018/08/16	32.87533	Daud Khel	71.57118	accep
TN	07/03/2019, 00:00:00	36.46917	Beni Khiar	10.78222	average
FR	30 Mar 2018	48.90982	Bobigny	2.45012	accep
CO	2012/11/14	7.83389	Villa del Rosario	-72.47417	excellent
FR	2021-03-24	45.69558	Saint-Genis-Laval	4.7934	excellent
LY	2022-06-12	24.96334	Ghat	10.18003	maintenance
UA	18 Dec 2015	47.56494	Voznesensk	31.33078	building
UG	06/28/2016, 00:00:00	3.27833	Kitgum	32.88667	building
IN	2013-11-02	25.87498	Saharsa	86.59611	excellent
IR	2016-09-16	36.64852	Nowshahr	51.49621	good
ID	2019/12/15	-7.01833	Pameungpeuk	107.60389	accep
MX	27 Nov 2013	20.21322	Salvatierra	-100.88023	accep
CU	2017/06/09	23.0072	Boyeros	-82.4017	average
PH	2019-05-04	12.35275	San Jose	121.06761	acceptable
NG	07/10/2021, 00:00:00	9.58126	Kafanchan	8.2926	building
IN	2012-12-20	24.05979	Leteri	77.40858	good
SY	22 Dec 2020	34.5624	Tadmur	38.28402	average
NZ	2013/08/13	-44.39672	Timaru	171.25364	good
RU	09 Nov 2012	56.03361	Volokolamsk	35.96944	good
US	2012/10/10	41.15376	Bourbonnais	-87.88754	average
US	2016-08-26	28.54944	Clermont	-81.77285	accep
US	07/23/2018, 00:00:00	32.9156	Mira Mesa	-117.14392	accep
RU	08/22/2021, 00:00:00	56.85836	Tver	35.90057	accep
CZ	10/08/2021, 00:00:00	50.23271	Karlovy Vary	12.87117	average
IN	2022-07-09	14.62072	Sirsi	74.83554	maintenance
IT	2016-03-01	45.78071	Portogruaro	12.84052	good
US	2015-08-02	32.9156	Mira Mesa	-117.14392	accep
IR	2013-10-20	36.64852	Nowshahr	51.49621	average
SO	26 Jun 2020	9.89206	Baki	43.38531	building
IN	07/18/2014, 00:00:00	15.45144	Betamcherla	78.14797	excellent
CM	04/14/2019, 00:00:00	3.51667	Mbalmayo	11.5	excellent
PE	20 Dec 2020	-11.94306	Chosica	-76.70944	good
IN	26 Dec 2014	14.46693	Davangere	75.92694	accep
DE	2020/09/18	51.168	Finnentrop	7.973	accep
NL	2015/04/29	52.09	Zeist	5.23333	building
NG	2018-07-12	10.61285	Biu	12.19458	excellent
AF	01 Feb 2020	36.21544	Sar-e Pul	65.93249	average
SK	01 Feb 2018	48.43174	Hlohovec	17.8031	average
RU	2018-09-18	56.85836	Tver	35.90057	good
US	2017-10-31	39.43534	Lebanon	-84.20299	accep
US	2019-08-23	34.25628	Leland	-78.04471	good
JP	2013-05-03	36.65	Suzaka	138.31667	good
RU	2018/05/30	42.819	Buynaksk	47.1192	acceptable
TZ	01 Aug 2018	-5.41667	Chanika	38.01667	good
US	01/08/2016, 00:00:00	40.58654	Redding	-122.39168	good
JP	2013-02-02	35.815	Shimotoda	139.6853	good
DE	06/10/2018, 00:00:00	50.23805	Nidderau	8.86704	average
TR	25 Jan 2021	40.37528	Mudanya	28.88222	accep
CN	10/29/2018, 00:00:00	46.08333	Ulanhot	122.08333	excellent
US	11/25/2020, 00:00:00	30.5427	Hutto	-97.54667	accep
US	2013/09/14	35.05266	Fayetteville	-78.87836	building
FR	10 Apr 2020	50.75	Saint-Omer	2.25	building
TN	2019-02-03	35.72917	Msaken	10.58082	building
US	03 Jan 2018	42.35843	Boston	-71.05977	maintenance
CA	22 Oct 2017	53.51684	Sherwood Park	-113.3187	excellent
US	04 Jul 2016	43.91452	Brunswick	-69.96533	average
BJ	2020/09/12	8.88649	Tchaourou	2.59753	accep
NL	2019-01-12	52.71083	Emmeloord	5.74861	average
CN	2016/07/20	36.19278	Laiwu	117.65694	excellent
TR	25 Jun 2014	40.1675	Sungurlu	34.37389	accep
TN	2013-04-15	36.46917	Beni Khiar	10.78222	maintenance
DE	2016/07/30	51.88333	Verl	8.51667	accep
PH	2022-09-22	9.3337	Santa Catalina	122.8637	accep
IN	11/25/2020, 00:00:00	19.21667	Dombivli	73.08333	excellent
BE	2017/09/06	51.24197	Lille	4.82313	excellent
TR	2020-05-02	40.1675	Sungurlu	34.37389	good
IN	09 Sep 2020	26.2649	Jais	81.54855	accep
FR	10/30/2020, 00:00:00	48.98333	Mitry-Mory	2.61667	excellent
EC	2019-09-26	-2.90055	Cuenca	-79.00453	average
US	03/11/2013, 00:00:00	33.03699	Encinitas	-117.29198	average
JP	09/03/2017, 00:00:00	33.4425	Karatsu	129.96972	average
AR	2016-01-27	-31.25033	Rafaela	-61.4867	maintenance
KH	2015/04/29	13.65805	Paoy Paet	102.56365	building
FI	03/22/2016, 00:00:00	60.18427	Kallio	24.95034	maintenance
US	2019/12/23	34.25807	Tupelo	-88.70464	average
TH	10 Jun 2015	13.8196	Nakhon Pathom	100.04427	maintenance
US	26 Jul 2019	41.48199	Lakewood	-81.79819	accep
ID	2018-08-17	3.7278	Labuhan Deli	98.6738	average
US	2018-11-28	41.47892	Schererville	-87.45476	accep
ML	2021/08/20	12.74409	Kati	-8.07257	excellent
RU	2019-10-24	42.819	Buynaksk	47.1192	excellent
US	16 Oct 2013	38.58894	Fairview Heights	-89.99038	average
IN	03/08/2018, 00:00:00	23.18	Aistala	88.58	excellent
IT	15 Jul 2014	36.92574	Ragusa	14.72443	average
AU	2021-01-16	-33.79176	Eastwood	151.08057	average
RU	06/11/2019, 00:00:00	60.02427	Kolomyagi	30.28491	good
ES	2014-10-02	42.64685	Villaquilambre	-5.55835	building
KE	2015/02/01	3.11988	Lodwar	35.59642	average
CH	03 Dec 2019	47.30997	Adliswil	8.52462	good
IN	2017/02/21	24.41288	Aklera	76.56719	good
MY	27 May 2019	1.6	Ulu Tiram	103.81667	good
US	09 Dec 2012	39.57582	Ken Caryl	-105.11221	excellent
ID	27 Oct 2021	-1.26424	Simpang	104.09701	excellent
IT	02/15/2022, 00:00:00	45.39402	San Giuliano Milanese	9.29109	good
BR	2014-11-22	-22.53722	Guapimirim	-42.98194	excellent
BR	2019-05-13	-10.95817	Tucano	-38.79084	building
PG	2013/09/28	-5.85746	Mount Hagen	144.23058	maintenance
UG	2016-10-20	3.02013	Arua	30.91105	accep
MX	31 Jan 2021	17.06542	Oaxaca	-96.72365	good
US	01/19/2020, 00:00:00	40.58654	Redding	-122.39168	good
IN	01/26/2019, 00:00:00	11.50526	Sathyamangalam	77.23826	average
MM	2017-03-25	16.68911	Myawadi	98.50893	accep
TL	15 Jan 2015	-8.99167	Maliana	125.21972	accep
CD	2015/02/14	0.76755	Yangambi	24.43973	average
US	2016/09/19	34.95303	Santa Maria	-120.43572	building
MN	2013/05/22	47.90771	Ulan Bator	106.88324	maintenance
PE	2016-12-19	-11.94306	Chosica	-76.70944	excellent
CN	2019-05-07	32.54278	Danjiangkou	111.50861	accep
US	30 Apr 2022	33.72255	Palm Desert	-116.37697	accep
NL	01/17/2015, 00:00:00	52.09	Zeist	5.23333	excellent
DE	2018/11/14	50.80019	Siegburg	7.20769	average
DE	2018/07/06	48.06919	Gauting	11.37703	accep
GM	2018-06-19	13.56667	Farafenni	-15.6	good
AT	07/16/2019, 00:00:00	48.25	Floridsdorf	16.4	maintenance
DO	07/12/2016, 00:00:00	18.20854	Santa Cruz de Barahona	-71.10077	excellent
PK	09/04/2022, 00:00:00	32.17629	Fazilpur	75.06583	excellent
CO	02 Nov 2015	6.46838	Socorro	-73.26022	good
DE	02/18/2019, 00:00:00	51.168	Finnentrop	7.973	excellent
KR	04 Mar 2019	36.82167	Eisen	128.63083	good
IN	2015/08/27	24.05979	Leteri	77.40858	accep
IN	2019/09/30	17.54907	Elamanchili	82.85749	average
IN	04/14/2015, 00:00:00	23.07492	Pandua	88.28637	accep
US	26 Jan 2015	26.2173	North Lauderdale	-80.22588	accep
US	07 May 2019	42.30865	Canton	-83.48216	excellent
CN	08/12/2017, 00:00:00	29.98869	Zhoushan	122.20488	good
FR	2019-07-25	46.67535	Lons-le-Saunier	5.55575	maintenance
CN	31 Aug 2015	46.51872	Hoxtolgay	86.00214	accep
US	2015/12/05	32.5007	Longview	-94.74049	excellent
US	23 Dec 2021	34.06635	Acworth	-84.67837	excellent
PH	10 Oct 2015	12.37169	Masbate	123.62494	building
US	2015-08-05	30.16688	Brenham	-96.39774	good
US	2018/11/18	41.57721	West Des Moines	-93.71133	good
US	16 Apr 2021	37.95143	Rolla	-91.77127	excellent
HK	03 Sep 2014	22.37066	Tsuen Wan	114.10479	average
BE	01 Mar 2018	50.56149	Gembloux	4.69889	excellent
FR	19 Sep 2020	50.75	Saint-Omer	2.25	good
ID	2014-06-15	-8.43333	Muncar	114.33333	excellent
CA	24 Jan 2015	45.4473	Dorval	-73.75335	excellent
US	04/18/2022, 00:00:00	35.05266	Fayetteville	-78.87836	accep
EE	10 May 2022	59.37722	Narva	28.19028	accep
US	05/13/2014, 00:00:00	41.55838	Collinwood	-81.56929	excellent
ID	06/27/2019, 00:00:00	3.31332	Tarakan	117.59152	building
RU	2015-08-05	55.62047	Tyoply Stan	37.49338	excellent
PT	18 Feb 2014	41.20485	Paredes	-8.33147	accep
CL	09/12/2016, 00:00:00	-32.45242	La Ligua	-71.23106	accep
KR	04/02/2014, 00:00:00	36.82167	Eisen	128.63083	excellent
GB	2018/04/28	51.78967	Clacton-on-Sea	1.15597	good
HK	19 May 2021	22.37066	Tsuen Wan	114.10479	average
ME	2015/01/10	42.28639	Budva	18.84	accep
PH	2017-04-29	10.7375	Talisay	122.9666	average
BG	10 May 2017	42.7	Aytos	27.25	maintenance
RU	2020-05-28	51.78771	Saraktash	56.36091	excellent
DE	2021/06/14	51.08468	Burscheid	7.11393	good
IN	02/19/2022, 00:00:00	11.12018	Manjeri	76.11996	good
GT	24 May 2015	14.93333	Chichicastenango	-91.11667	building
JP	04/23/2021, 00:00:00	37.56667	Inawashiro	140.11667	good
JP	2015-02-05	35.8	Gero	137.23333	accep
CN	12/12/2020, 00:00:00	27.85	Xiangtan	112.9	good
GB	2017-07-10	51.62907	High Wycombe	-0.74934	average
US	2018/12/28	34.25628	Leland	-78.04471	accep
TZ	01 Feb 2016	-5.41667	Chanika	38.01667	accep
GB	2015/11/16	51.26	Westbury	-2.1875	maintenance
IL	2018/09/24	32.05971	Ganei Tikva	34.8732	average
SD	28 Apr 2014	11.8659	Ar Ruseris	34.3869	good
US	24 Nov 2014	41.80753	New City	-87.65644	excellent
TL	2018-03-23	-8.99167	Maliana	125.21972	maintenance
IQ	11/20/2019, 00:00:00	32.61603	Karbala	44.02488	excellent
VE	2020/08/05	9.91861	Tinaquillo	-68.30472	good
NG	26 Jan 2017	12.74482	Argungu	4.52514	excellent
VE	2015-01-08	8.62261	Barinas	-70.20749	good
IT	07/05/2019, 00:00:00	45.9836	Cordenons	12.70038	accep
BR	22 Jun 2013	-28.44917	Marau	-52.2	accep
DE	27 Nov 2021	49.03685	Bretten	8.70745	maintenance
DE	2013/11/03	48.78232	Stuttgart	9.17702	accep
EC	05/04/2018, 00:00:00	-2.13404	Milagro	-79.59415	good
US	2016/09/23	40.81	Morningside Heights	-73.9625	accep
IL	02 Oct 2020	31.92923	Ramla	34.86563	accep
NG	2014-01-28	7.65649	Efon-Alaaye	4.92235	building
RU	01 Jun 2014	45.47885	Lesozavodsk	133.42825	excellent
MD	2018/01/04	48.15659	Soroca	28.28489	building
FR	21 Jan 2013	49.28669	Elbeuf	1.00288	accep
FR	2020-11-01	48.98333	Mitry-Mory	2.61667	average
BR	05/27/2021, 00:00:00	-10.90889	Barra dos Coqueiros	-37.03861	good
US	28 Sep 2014	31.84568	Odessa	-102.36764	building
MM	2017-04-08	14.0823	Dawei	98.19151	excellent
PR	2018/08/01	18.42745	Aguadilla	-67.15407	average
US	2015-07-18	41.84364	South Lawndale	-87.71255	maintenance
SV	2020-05-26	13.73417	Sonzacate	-89.71472	average
TD	11/12/2020, 00:00:00	12.18441	Mongo	18.69303	accep
CA	2015-08-19	46.1351	Sydney	-60.1831	good
GB	2013-12-17	51.39323	Strood	0.47713	accep
AZ	2018/09/13	38.45598	Astara	48.87498	good
US	2017/07/07	41.24255	Norwalk	-82.61573	accep
MG	2019/12/01	-19.65	Antanifotsy	47.31667	excellent
US	2015/05/20	39.72943	Aurora	-104.83192	building
US	2020-02-13	31.12406	Copperas Cove	-97.90308	good
IN	2016-04-01	10.10649	Alwaye	76.35484	good
TR	10/10/2019, 00:00:00	40.98894	Yakuplu	28.67582	average
IT	2022/03/26	40.53123	Francavilla Fontana	17.58522	good
RU	10/09/2018, 00:00:00	51.82721	Ulan-Ude	107.60627	accep
KZ	2016-04-26	47.83333	Shalqar	59.6	accep
IN	2021/09/05	22.10194	Barbil	85.37752	building
NG	06 Apr 2013	6.15038	Nkpor	6.83042	maintenance
CA	2017/11/07	49.88307	Kelowna	-119.48568	excellent
GB	02/11/2016, 00:00:00	50.11861	Penzance	-5.53715	good
FR	24 Mar 2022	46.67535	Lons-le-Saunier	5.55575	maintenance
AR	17 Aug 2022	-37.32167	Tandil	-59.13316	good
US	2018-12-27	32.42067	Carlsbad	-104.22884	good
CI	08/01/2022, 00:00:00	5.84752	Lakota	-5.682	excellent
GB	08/02/2013, 00:00:00	55.82885	Rutherglen	-4.21376	accep
US	26 Mar 2016	47.80527	Bothell West	-122.24064	accep
TZ	12/19/2020, 00:00:00	-10.33333	Nyangao	39.28333	accep
DE	09 Dec 2013	50.23019	Karben	8.77155	maintenance
IN	01/20/2021, 00:00:00	24.81757	Rafiganj	84.63445	good
US	2012-12-10	35.05266	Fayetteville	-78.87836	good
US	22 Sep 2019	40.81	Morningside Heights	-73.9625	excellent
DE	01 Aug 2016	53.63333	Halstenbek	9.85	accep
FR	02 Feb 2020	44.92801	Valence	4.8951	average
JP	2017-08-04	35.8	Gero	137.23333	accep
ID	2016-01-06	-7.57897	Diwek	112.23109	building
GB	2021-01-10	53.0233	Belper	-1.48119	good
IT	25 Jul 2020	43.62558	Falconara Marittima	13.39954	accep
US	2013/07/07	37.52487	Bon Air	-77.55777	building
JP	25 Aug 2014	36.65	Suzaka	138.31667	excellent
CA	2015-11-08	49.88307	Kelowna	-119.48568	average
PK	2021-11-16	30.76468	Kanganpur	74.12286	excellent
US	03/20/2018, 00:00:00	33.95015	South Whittier	-118.03917	good
VE	2014-01-24	8.62261	Barinas	-70.20749	building
PK	16 Oct 2013	25.95533	Jhol	68.88871	accep
US	12/17/2016, 00:00:00	45.0408	Columbia Heights	-93.263	average
ES	04 Oct 2013	41.91738	Palafrugell	3.1631	average
CU	07/09/2019, 00:00:00	20.14298	Media Luna	-77.43532	building
DE	18 Aug 2017	49.97704	Aschaffenburg	9.15214	average
NG	07 Jun 2019	11.86064	Gaya	9.0027	excellent
UA	2020/09/12	47.48444	Polohy	36.25361	average
US	17 Dec 2014	41.48199	Lakewood	-81.79819	good
IN	06 Feb 2013	26.11527	Supaul	86.59509	good
BR	05/20/2014, 00:00:00	-3.14306	Itacoatiara	-58.44417	good
MX	15 Feb 2016	19.8173	Teziutlan	-97.35992	accep
FR	30 Oct 2019	48.8765	Rueil-Malmaison	2.18967	average
UA	2016-10-28	49.41029	Svatove	38.15035	good
UA	07/30/2022, 00:00:00	46.65581	Kherson	32.6178	accep
GB	2016-03-17	53.46506	Chapletown	-1.47217	maintenance
NE	2022/08/23	13.70727	Mirriah	9.15013	average
ID	08/21/2013, 00:00:00	-1.26753	Balikpapan	116.82887	average
KZ	19 Jun 2014	47.83333	Shalqar	59.6	good
EG	07/29/2014, 00:00:00	31.20176	Alexandria	29.91582	building
US	2019/08/08	28.90054	Deltona	-81.26367	excellent
US	13 Jun 2017	28.90054	Deltona	-81.26367	building
US	05 Feb 2021	28.90054	Deltona	-81.26367	good
NG	03/14/2021, 00:00:00	12.74482	Argungu	4.52514	excellent
AR	12/16/2017, 00:00:00	-34.64966	Barracas	-58.38341	excellent
BR	2015-01-21	-14.66463	Nova Xavantina	-52.35558	average
RU	2017/12/23	53.37596	Otradnyy	51.3452	accep
TH	2017/07/25	15.79408	Yasothon	104.1451	good
FR	2014-06-03	43.83125	Cavaillon	5.03586	good
PK	2015-07-01	27.52948	Khairpur Mir‚Äôs	68.75915	building
IT	2012/10/27	44.89784	Tortona	8.86374	accep
BD	04/02/2017, 00:00:00	23.9028	Kushtia	89.11943	good
JP	2018-01-04	34.25	Iwade	135.31667	building
DE	06 Jun 2022	51.30001	Oschatz	13.10984	good
IN	19 Sep 2017	25.13915	Sheoganj	73.06784	maintenance
NI	04/03/2019, 00:00:00	13.48082	Somoto	-86.58208	accep
TR	09/22/2015, 00:00:00	40.37528	Mudanya	28.88222	average
IN	2014-04-04	26.32293	Barpeta	91.00632	accep
JP	11 Jun 2019	34.61667	Yao	135.6	average
RU	2017-08-20	44.92934	Krymsk	37.99117	accep
MN	2014-01-16	47.90771	Ulan Bator	106.88324	excellent
FR	12 Jul 2013	43.83125	Cavaillon	5.03586	average
US	2013/09/22	32.42067	Carlsbad	-104.22884	good
JP	2019-12-07	34.75856	Ueno-ebisumachi	136.13108	excellent
DZ	21 Sep 2018	36.72544	Thenia	3.55665	accep
US	2021/03/27	42.16808	Huntley	-88.42814	excellent
TH	04 Aug 2020	13.8196	Nakhon Pathom	100.04427	maintenance
DE	10/28/2019, 00:00:00	52.59319	Wittenau	13.32127	average
IT	18 Nov 2014	44.59445	Castelfranco Emilia	11.04979	building
US	08 Feb 2014	32.35126	Tyler	-95.30106	excellent
FR	2014/11/05	48.79325	Fontenay-aux-Roses	2.29275	accep
US	22 Jun 2022	33.7207	Indio	-116.21677	accep
KH	25 Nov 2020	13.65805	Paoy Paet	102.56365	accep
ID	10 Jul 2020	-7.0981	Randudongkal	109.3243	average
TZ	07/21/2020, 00:00:00	-6.25	Mvomero	38.66667	excellent
RU	2021-09-04	55.64776	Malakhovka	38.02486	maintenance
PE	2014-10-27	-3.74912	Iquitos	-73.25383	good
IN	15 Oct 2019	11.00599	Kangayam	77.5609	good
DZ	08 Aug 2013	35.21222	Ksar Chellala	2.31889	excellent
US	30 Apr 2013	40.56754	Pekin	-89.64066	excellent
AU	13 Dec 2012	-37.9	Wheelers Hill	145.18333	accep
CN	2016/09/22	37.73222	Hengshui	115.70111	excellent
NL	2020-07-03	52.14	Barneveld	5.58472	excellent
NL	2018-05-07	51.95838	Schiebroek	4.47124	average
TR	2014/06/18	38.37255	Aksaray	34.02537	good
PE	2016-02-26	-16.25	Yunguyo	-69.08333	good
BR	10/26/2018, 00:00:00	-15.675	Canavieiras	-38.94722	average
IN	2020/04/28	11.93381	Puducherry	79.82979	average
US	08/10/2016, 00:00:00	39.09112	Independence	-94.41551	excellent
IN	2017-11-19	19.21667	Dombivli	73.08333	excellent
PE	08/26/2013, 00:00:00	-15.21194	Minas de Marcona	-75.11028	average
FR	10/17/2019, 00:00:00	50.75	Saint-Omer	2.25	acceptable
ID	2014-01-29	3.7278	Labuhan Deli	98.6738	average
ID	2020-10-26	3.31332	Tarakan	117.59152	accep
LY	2018/10/03	24.96334	Ghat	10.18003	average
LK	08/29/2019, 00:00:00	6.84019	Dehiwala-Mount Lavinia	79.87116	maintenance
TZ	2021-10-11	-6.25	Mvomero	38.66667	excellent
PK	05/04/2013, 00:00:00	30.76468	Kanganpur	74.12286	excellent
BR	07/04/2020, 00:00:00	-10.95817	Tucano	-38.79084	accep
RU	12/05/2015, 00:00:00	53.14657	Nikolayevsk-on-Amure	140.72287	average
PG	06/28/2013, 00:00:00	-5.85746	Mount Hagen	144.23058	good
TR	05 Sep 2016	39.22493	Patnos	42.85693	good
TZ	27 Dec 2013	-7.76667	Iringa	35.7	building
US	2016/02/15	38.96372	Chillum	-76.99081	average
IN	05/26/2020, 00:00:00	32.55531	Chamba	76.12647	building
MX	30 Jan 2020	19.64745	Paracho de Verduzco	-102.04897	good
BE	2016/10/19	51.03427	Houthalen	5.37429	average
VN	10/20/2015, 00:00:00	10.29085	Sa Dec	105.75635	accep
CO	04/28/2016, 00:00:00	3.8801	Buenaventura	-77.03116	good
PH	2021-06-21	14.62578	Antipolo	121.12251	good
CO	10 Sep 2022	10.98778	Puerto Colombia	-74.95472	maintenance
PH	2019/11/05	10.7375	Talisay	122.9666	maintenance
ID	2019/06/13	-7.54972	Ngemplak	110.71639	good
US	21 Apr 2014	37.52487	Bon Air	-77.55777	maintenance
AU	2016/06/30	-27.50578	Carindale	153.10236	maintenance
US	2014/09/04	34.63915	Lompoc	-120.45794	excellent
GH	2018-07-29	6.46346	Bibiani	-2.31938	good
US	2021/12/28	42.30865	Canton	-83.48216	building
US	19 Apr 2017	33.50921	Scottsdale	-111.89903	accep
ID	2020-05-23	-7.81667	Kediri	112.01667	average
US	2018-08-02	33.98154	Lexington	-81.23621	excellent
TZ	04/24/2018, 00:00:00	-7.60361	Kidodi	37.00438	maintenance
GE	2021/07/20	41.82143	Kobuleti	41.77921	maintenance
MY	09 May 2022	5.4709	Batu Feringgi	100.24529	accep
IN	2019/09/20	26.2649	Jais	81.54855	good
ES	08/22/2016, 00:00:00	37.13548	Las Gabias	-3.67029	acceptable
UA	02/15/2018, 00:00:00	49.41029	Svatove	38.15035	building
ES	2021-03-06	38.68712	Puertollano	-4.10734	excellent
DE	2019-08-09	52.86147	Walsrode	9.5926	average
BY	2015/08/12	52.4089	Dobrush	31.3237	average
US	31 Dec 2016	43.54072	Nampa	-116.56346	good
US	13 Dec 2012	34.77453	Ada	-96.67834	good
UZ	19 Sep 2022	40.78206	Andijon	72.34424	accep
US	12/24/2021, 00:00:00	26.18924	San Juan	-98.15529	excellent
JP	08/30/2013, 00:00:00	41.77583	Hakodate	140.73667	building
US	2015-10-09	39.45621	Martinsburg	-77.96389	average
IN	23 May 2015	9.82564	Tiruppuvanam	78.25795	good
CZ	12/27/2020, 00:00:00	50.50301	Most	13.63617	excellent
FR	2016-08-10	43.2907	Marseille 11	5.4384	average
US	2022/06/09	41.16704	Bridgeport	-73.20483	good
GB	08/14/2015, 00:00:00	52.68333	East Dereham	0.93333	accep
DE	10/07/2013, 00:00:00	50.80904	Marburg an der Lahn	8.77069	good
FR	2016-08-31	48	Quimper	-4.1	excellent
JP	2013-06-13	35.82756	Ina	137.95378	good
RU	06/17/2015, 00:00:00	59.80917	Shushary	30.38167	excellent
CU	01 Jun 2017	22.98212	Corralillo	-80.58556	accep
BR	01/27/2015, 00:00:00	-4.24444	Barras	-42.29444	excellent
RU	2021/04/16	55.85	Likhobory	37.56667	good
US	24 Mar 2014	26.91756	Punta Gorda Isles	-82.07842	good
US	12/06/2021, 00:00:00	38.91817	Front Royal	-78.19444	good
US	26 Dec 2019	40.34912	Saratoga Springs	-111.90466	maintenance
KZ	2018-10-25	47.46657	Zaysan	84.87144	accep
FR	02 Mar 2019	43.32393	Les Olives	5.4584	accep
GB	2016-10-23	51.65	Barnet	-0.2	good
US	02 Apr 2014	40.81	Morningside Heights	-73.9625	good
JP	08 Jul 2015	35.8	Gero	137.23333	accep
US	2022/06/14	41.24255	Norwalk	-82.61573	excellent
IT	12/19/2015, 00:00:00	41.72063	Ariccia	12.6723	good
NG	08 Apr 2019	6.45407	Lagos	3.39467	maintenance
PT	05/09/2013, 00:00:00	37.74615	Ponta Delgada	-25.66689	excellent
CN	2022-07-20	35.20889	Changzhi	111.73861	good
US	2015/08/17	35.05266	Fayetteville	-78.87836	average
BA	2014-05-10	44.75874	Bijeljina	19.21437	accep
IN	2014-06-25	10.12268	Periyakulam	77.54372	excellent
US	23 Nov 2021	39.72943	Aurora	-104.83192	excellent
IT	22 Mar 2016	45.79377	Malnate	8.88104	excellent
NG	07/09/2013, 00:00:00	7.62789	Ilesa	4.74161	average
IT	2021/02/05	40.55851	Mesagne	17.80774	excellent
ID	24 Aug 2018	-7.0981	Randudongkal	109.3243	building
BR	06/26/2014, 00:00:00	-0.71667	Soure	-48.52333	maintenance
US	25 Jan 2022	40.67705	Cypress Hills	-73.89125	good
IN	17 Dec 2017	26.2649	Jais	81.54855	accep
KZ	2021/05/09	47.83333	Shalqar	59.6	excellent
US	2018-12-28	41.14676	New Canaan	-73.49484	good
TH	05/07/2019, 00:00:00	16.0567	Roi Et	103.65309	average
MY	02 Nov 2013	4.02219	Teluk Intan	101.02083	good
US	09/27/2019, 00:00:00	40.81	Morningside Heights	-73.9625	average
SK	2020-06-25	48.8449	Skalica	17.22635	building
AR	2021-12-11	-27.4338	Aguilares	-65.61427	excellent
EC	2021/11/20	-2.90055	Cuenca	-79.00453	excellent
XK	2015-07-22	42.62833	Glogovac	20.89389	average
DE	23 Jan 2021	52.21099	Gronau	7.02238	good
IN	01/12/2017, 00:00:00	29.21399	Kashipur	78.95693	maintenance
IN	2019-07-01	18.18158	Osmanabad	76.03889	accep
BR	01 Mar 2018	-8.66667	Catende	-35.71667	accep
AZ	2018/01/13	38.45598	Astara	48.87498	good
CN	2021-12-09	34.56861	Beidao	105.89333	building
CZ	28 Mar 2019	50.23271	Karlovy Vary	12.87117	maintenance
TH	2013-01-30	15.79408	Yasothon	104.1451	good
AU	2021/04/02	-33.75881	Baulkham Hills	150.99292	average
CZ	2017/12/11	50.50301	Most	13.63617	good
RU	2017-02-17	54.90083	Stupino	38.07083	building
CN	27 Jun 2022	37.19723	Tianfu	122.05228	average
RU	10/09/2014, 00:00:00	53.59782	Dyat‚Äôkovo	34.33825	building
BA	09 May 2021	44.75874	Bijeljina	19.21437	accep
GB	01/07/2014, 00:00:00	53.38333	Gainsborough	-0.76667	maintenance
IN	09/22/2017, 00:00:00	23.07492	Pandua	88.28637	average
IT	09/10/2019, 00:00:00	37.51803	Misterbianco	15.00913	excellent
UA	2014-08-05	50.18545	Shepetivka	27.06365	excellent
ES	2013-01-07	42.64685	Villaquilambre	-5.55835	good
ES	2013/04/26	37.35813	San Juan de Aznalfarache	-6.03731	maintenance
YE	2016-12-06	14.53767	Ataq	46.83187	good
CI	2017-09-07	5.84752	Lakota	-5.682	maintenance
MG	2018/04/14	-22.9	Sakaraha	44.53333	average
RU	2018/03/03	54.8421	Alatyr‚Äô	46.5813	good
RU	21 May 2018	56.9083	Beryozovsky	60.8019	excellent
TH	2019-03-17	13.51825	Damnoen Saduak	99.95469	good
HR	2016/10/02	43.50891	Split	16.43915	good
GB	2019/01/21	53.38333	Gainsborough	-0.76667	building
CL	2013-08-24	-32.45242	La Ligua	-71.23106	average
PK	05/21/2015, 00:00:00	29.38242	Alipur	70.91106	accep
BE	2013-01-28	51.03427	Houthalen	5.37429	accep
IT	2013-03-01	40.53123	Francavilla Fontana	17.58522	good
DE	2016/02/08	49.68369	Bensheim	8.61839	average
US	2018/03/31	43.91452	Brunswick	-69.96533	excellent
IT	02/24/2018, 00:00:00	41.55947	Campobasso	14.66737	good
JP	23 Sep 2019	35	Komono	136.51667	maintenance
TR	04/03/2021, 00:00:00	37.05944	Gaziantep	37.3825	accep
PG	07/30/2014, 00:00:00	-5.85746	Mount Hagen	144.23058	excellent
NL	2017-01-07	53.16167	Hoogezand	6.76111	average
CD	2020-11-19	-4.5833	Kasangulu	15.16554	accep
CD	2017/07/21	0.76755	Yangambi	24.43973	good
DE	05/23/2016, 00:00:00	50.09019	Hofheim am Taunus	8.4493	excellent
CA	2018-04-30	45.44868	Pointe-Claire	-73.81669	average
BR	18 Oct 2016	-8.66667	Catende	-35.71667	maintenance
MX	06/22/2014, 00:00:00	20.74122	Santa Rosa Jauregui	-100.44843	excellent
BR	12 Feb 2016	-10.90889	Barra dos Coqueiros	-37.03861	maintenance
CN	2016-02-16	41.09822	Nanpiao	120.74792	accep
NL	2018/04/09	52.14	Barneveld	5.58472	excellent
TD	02/15/2013, 00:00:00	12.18441	Mongo	18.69303	average
GB	2020-09-13	50.79205	Southsea	-1.08593	good
US	07 Apr 2020	40.64621	Kensington	-73.97069	building
US	25 Aug 2013	33.72255	Palm Desert	-116.37697	good
JP	2020-01-12	35.815	Shimotoda	139.6853	excellent
RU	2018/02/25	53.77166	Bogoroditsk	38.12408	accep
US	2015/11/05	42.24113	Crystal Lake	-88.3162	maintenance
TN	08 Dec 2021	37.16911	El Alia	10.03478	excellent
MX	2022/05/17	19.04222	Casa Blanca	-98.11889	excellent
CA	02/26/2022, 00:00:00	50.26729	Vernon	-119.27337	accep
US	2013/03/12	40.68066	Massapequa	-73.47429	accep
US	2015/01/06	41.24255	Norwalk	-82.61573	average
US	2014-11-28	41.9001	Taunton	-71.08977	average
RU	2018/05/21	53.77166	Bogoroditsk	38.12408	average
TN	2018/08/25	36.46917	Beni Khiar	10.78222	maintenance
ZA	2013-05-21	-27.76952	Vryheid	30.79165	excellent
IN	08 Nov 2021	10.58806	Udumalaippettai	77.24779	building
US	12 Apr 2015	34.63915	Lompoc	-120.45794	average
RU	06/12/2021, 00:00:00	54.84444	Kashira	38.16694	accep
CN	2012/10/19	41.27194	Liaoyang	123.17306	average
IT	20 Nov 2018	37.31065	Agrigento	13.57661	average
AR	05/13/2021, 00:00:00	-34.64966	Barracas	-58.38341	average
PH	2016/11/17	14.95472	Baliuag	120.89694	average
CO	2017/01/02	6.46838	Socorro	-73.26022	average
US	2018/11/13	40.65538	Scotch Plains	-74.38987	maintenance
RU	12/26/2013, 00:00:00	54.03876	Kovylkino	43.91385	average
HT	04 Aug 2016	18.65297	Thomazeau	-72.09391	good
JM	2017-01-12	18.00747	New Kingston	-76.78319	building
CN	01/24/2022, 00:00:00	37.30553	Zhuangyuan	120.82747	good
IN	2015-11-13	11.12018	Manjeri	76.11996	maintenance
US	2019/01/30	42.35843	Boston	-71.05977	excellent
SE	2013/02/17	61.72744	Hudiksvall	17.10558	accep
US	2021-06-17	27.09978	Venice	-82.45426	excellent
US	05 Dec 2015	34.63915	Lompoc	-120.45794	good
IN	20 Jan 2014	17.34769	Lal Bahadur Nagar	78.55757	excellent
DE	2021/02/17	50.9803	Weimar	11.32903	building
IN	2018/05/24	22.19303	Diamond Harbour	88.18466	excellent
KR	15 Mar 2021	36.82167	Eisen	128.63083	average
GB	2022/09/27	51.40148	Newbury	-1.32471	average
DE	2020-01-14	51.19139	Korschenbroich	6.51352	average
BR	22 Sep 2013	-28.44917	Marau	-52.2	excellent
AR	2020-05-28	-31.4488	Esperanza	-60.93173	maintenance
ML	2020/09/16	12.74409	Kati	-8.07257	good
NL	2013-02-16	52.31333	Oldenzaal	6.92917	accep
IT	12/17/2013, 00:00:00	40.72586	Sassari	8.55552	average
US	2022-02-08	40.64621	Kensington	-73.97069	good
DE	2022/07/03	48.06919	Gauting	11.37703	accep
PH	2022/03/11	6.95194	Recodo	121.96361	good
IN	2016-04-07	23.18	Aistala	88.58	good
RU	07 Mar 2019	56.03361	Volokolamsk	35.96944	average
EG	06 Sep 2018	31.20176	Alexandria	29.91582	average
PH	22 Apr 2014	12.97389	Sorsogon	123.99333	accep
UZ	02/05/2016, 00:00:00	40.11583	Jizzax	67.84222	good
GT	2019-09-26	14.93333	Chichicastenango	-91.11667	good
MA	2016/08/02	33.42585	Oulmes	-6.00137	accep
IN	27 Feb 2021	26.11527	Supaul	86.59509	good
US	06/11/2021, 00:00:00	41.16704	Bridgeport	-73.20483	good
DK	14 Feb 2013	55.67938	Frederiksberg	12.53463	accep
GH	19 Aug 2018	7.06273	Mampong	-1.4001	building
CA	18 Sep 2016	45.43341	Beaconsfield	-73.86586	average
MX	12/31/2017, 00:00:00	19.32889	San Lorenzo Acopilco	-99.32556	accep
DZ	2013/07/03	34.15429	Messaad	3.50309	excellent
MY	04/27/2020, 00:00:00	5.90702	Donggongon	116.10146	excellent
US	2018/11/12	32.52515	Shreveport	-93.75018	excellent
US	2018/07/05	29.65163	Gainesville	-82.32483	good
DE	2015-02-21	48.07667	Trossingen	8.64409	excellent
ES	2016/05/13	37.35813	San Juan de Aznalfarache	-6.03731	good
GB	07/11/2019, 00:00:00	56.56317	Arbroath	-2.58736	average
DE	16 Jul 2017	52.2	Kirchlengern	8.63333	building
CN	2013/06/06	35.85	Dongdu	117.7	building
US	2017/06/25	27.09978	Venice	-82.45426	good
PK	01 Aug 2020	30.46907	Kot Addu	70.96699	excellent
AR	2016-07-07	-34.64167	Chacabuco	-60.47389	excellent
US	2016-01-27	40.64621	Kensington	-73.97069	good
TN	2017/12/15	37.16911	El Alia	10.03478	good
US	2015/03/24	47.76232	Bothell	-122.2054	average
PH	2021-08-08	10.20898	Naga	123.758	accep
US	2021/05/20	33.93113	Norco	-117.54866	excellent
JP	2022/07/24	34.4833	Toba	136.84186	average
UY	02 Sep 2020	-33.38056	Durazno	-56.52361	maintenance
NL	2014-01-03	51.955	Culemborg	5.22778	average
CA	11 May 2019	46.1351	Sydney	-60.1831	excellent
PL	07/07/2022, 00:00:00	50.86079	Brzeg	17.4674	excellent
NI	10/23/2018, 00:00:00	11.84962	Jinotepe	-86.19903	maintenance
ZA	18 Jan 2013	-26.93366	Standerton	29.24152	accep
XK	09/12/2013, 00:00:00	42.62833	Glogovac	20.89389	good
IE	28 Oct 2020	53.53333	An Muileann gCearr	-7.35	building
BR	2014-12-09	-21.42917	Alfenas	-45.94722	maintenance
PH	10/02/2017, 00:00:00	6.95194	Recodo	121.96361	accep
ES	2012-10-22	42.8139	Segundo Ensanche	-1.64295	maintenance
US	04/18/2022, 00:00:00	43.54072	Nampa	-116.56346	accep
CU	2015/01/18	23.15678	Varadero	-81.24441	accep
CL	2017/05/03	-30.60106	Ovalle	-71.19901	building
TR	01/23/2014, 00:00:00	37.31309	Mardin	40.74357	building
PK	2019/02/21	31.71667	Sangla Hill	73.38333	average
DE	03 Oct 2013	48.73218	Neuburg an der Donau	11.18709	average
CA	13 Dec 2012	46.23899	Charlottetown	-63.13414	good
RU	16 Mar 2014	51.82721	Ulan-Ude	107.60627	maintenance
CU	2014/10/10	23.04419	Jaruco	-82.00919	building
US	08 Mar 2015	41.16704	Bridgeport	-73.20483	excellent
RU	2015/04/30	53.77166	Bogoroditsk	38.12408	maintenance
GM	2013-09-05	13.56667	Farafenni	-15.6	building
CL	2019/04/18	-32.45242	La Ligua	-71.23106	excellent
PH	05 Jul 2014	10.31672	Cebu City	123.89071	average
US	2020/01/16	33.7207	Indio	-116.21677	excellent
DE	10 Aug 2021	51.20219	Radevormwald	7.36027	average
CN	2020-12-08	35.20889	Changzhi	111.73861	average
DE	09/01/2021, 00:00:00	50.9803	Weimar	11.32903	building
TH	2020/12/07	13.51825	Damnoen Saduak	99.95469	good
GB	2020-12-14	50.79205	Southsea	-1.08593	accep
GB	03/10/2017, 00:00:00	53.83333	Poulton-le-Fylde	-2.98333	accep
BR	2014/04/19	-12.91667	Muritiba	-39.25	maintenance
US	2012/09/29	40.65995	Kearns	-111.99633	average
BG	02/04/2017, 00:00:00	41.57439	Smolyan	24.71204	average
FR	05/06/2020, 00:00:00	45.73333	Bron	4.91667	good
IT	12/30/2013, 00:00:00	42.67164	Roseto degli Abruzzi	14.01481	building
PS	04/24/2022, 00:00:00	31.78336	East Jerusalem	35.23388	maintenance
BO	12/22/2016, 00:00:00	-21.44345	Tupiza	-65.71875	accep
RU	12/05/2019, 00:00:00	53.53041	Nizhniy Lomov	43.67663	accep
IT	2013-01-21	45.53069	Gorgonzola	9.40531	average
DZ	2013-09-27	34.15429	Messaad	3.50309	accep
PR	09/22/2014, 00:00:00	18.03496	Yauco	-66.8499	good
US	01/21/2021, 00:00:00	45.16024	Lino Lakes	-93.08883	excellent
MY	2018-01-26	5.90702	Donggongon	116.10146	accep
US	2019/02/26	39.72943	Aurora	-104.83192	accep
CN	2021-02-11	32.54278	Danjiangkou	111.50861	excellent
IN	2016-06-24	30.21121	Malaut	74.4818	good
PK	04/05/2015, 00:00:00	32.57756	Mianwali	71.52847	maintenance
BE	2012/12/31	51.24197	Lille	4.82313	average
US	14 Nov 2013	43.16547	Gates-North Gates	-77.70066	maintenance
IN	14 Feb 2014	27.9247	Chharra	78.40102	accep
TT	02/25/2015, 00:00:00	10.66668	Port of Spain	-61.51889	average
CN	24 Jul 2015	42.64031	Dongfeng	125.51176	excellent
CN	01/11/2019, 00:00:00	23.29549	Licheng	113.82465	average
DE	2015-08-17	48.28259	Ehingen	9.72749	maintenance
MK	22 Feb 2021	41.92361	Bogovinje	20.91361	good
FR	08/24/2017, 00:00:00	43.11667	Pamiers	1.6	accep
RU	08 Apr 2015	55.54028	Sharypovo	89.20083	accep
KZ	2019-02-28	47.46657	Zaysan	84.87144	average
DE	07/08/2019, 00:00:00	50.80019	Siegburg	7.20769	excellent
JP	02/10/2013, 00:00:00	34.81667	Toyokawa	137.4	building
ES	2013/11/26	41.63976	Cardedeu	2.35739	average
UA	2018-03-11	49.07866	Zvenihorodka	30.96755	maintenance
CA	20 Apr 2015	53.51684	Sherwood Park	-113.3187	average
DE	25 Sep 2015	51.88333	Verl	8.51667	average
US	04/02/2021, 00:00:00	33.76446	North Tustin	-117.79394	good
BY	2013-04-20	53.5942	Novogrudok	25.8191	excellent
GB	2018/01/19	52.68333	East Dereham	0.93333	accep
CN	2022/04/23	37.65181	Longgang	120.33063	excellent
VE	2016-04-06	8.62261	Barinas	-70.20749	average
US	2021/03/31	41.15376	Bourbonnais	-87.88754	excellent
GB	13 Apr 2013	50.76306	Cowes	-1.29772	maintenance
ES	2020/12/20	43.32686	Leioa	-2.98884	average
BJ	24 Jul 2021	8.88649	Tchaourou	2.59753	accep
AR	2016/07/19	-31.25033	Rafaela	-61.4867	average
TN	2017-11-06	37.16911	El Alia	10.03478	building
US	2013/04/26	33.52253	Laguna Niguel	-117.70755	average
BA	2016-11-11	44.75874	Bijeljina	19.21437	good
US	02/01/2016, 00:00:00	36.06523	Porterville	-119.01677	accep
DE	05/07/2015, 00:00:00	52.21099	Gronau	7.02238	average
NL	2017/03/07	51.95838	Schiebroek	4.47124	excellent
IN	11/28/2015, 00:00:00	26.32293	Barpeta	91.00632	maintenance
FR	2022-01-11	48.8222	Le Chesnay	2.12213	excellent
MX	07/27/2013, 00:00:00	20.21322	Salvatierra	-100.88023	maintenance
CO	2022/07/08	4.73245	Madrid	-74.26419	good
BR	03/28/2019, 00:00:00	-8.05389	Recife	-34.88111	good
TZ	2022-09-27	-10.33333	Nyangao	39.28333	accep
BR	2022-09-10	-19.72806	Iturama	-50.19556	building
US	2021/06/02	43.54072	Nampa	-116.56346	maintenance
US	2014-10-03	39.57582	Ken Caryl	-105.11221	excellent
RU	2015/11/29	53.77166	Bogoroditsk	38.12408	maintenance
IN	2014-10-25	20.88098	Parola	75.11937	average
DZ	05 Mar 2022	36.76639	Boumerdas	3.47717	acceptable
US	2016-05-23	41.27621	East Haven	-72.86843	average
PL	2014/11/22	51.14942	Zgorzelec	15.00835	average
NG	10/01/2020, 00:00:00	10.61285	Biu	12.19458	excellent
CU	2014-10-28	23.0072	Boyeros	-82.4017	building
TN	21 Sep 2016	35.72917	Msaken	10.58082	excellent
HT	13 May 2017	18.65297	Thomazeau	-72.09391	excellent
IN	2018-05-10	34.08565	Srinagar	74.80555	average
DE	2018/01/17	48.06919	Gauting	11.37703	excellent
BW	2021/01/18	-21.44236	Tonota	27.46153	maintenance
NI	11 Dec 2014	13.48082	Somoto	-86.58208	accep
IE	10/15/2015, 00:00:00	53.43333	Athlone	-7.95	accep
BR	27 Jul 2016	-10.90889	Barra dos Coqueiros	-37.03861	building
US	07 Jun 2018	42.4251	Malden	-71.06616	building
CO	2021-02-11	5.20856	Honda	-74.73584	excellent
MG	02/12/2014, 00:00:00	-22.9	Sakaraha	44.53333	building
US	2016/12/04	31.84568	Odessa	-102.36764	maintenance
RU	07/04/2019, 00:00:00	43.96222	Novopavlovsk	43.63417	average
BR	30 Dec 2018	-20.25333	Itabirito	-43.80139	maintenance
CD	2017/05/24	0.76755	Yangambi	24.43973	maintenance
US	2021-12-19	34.06635	Acworth	-84.67837	average
PL	18 Sep 2022	54.58048	Ustka	16.86194	good
AU	12 Feb 2021	-32.05251	Willetton	115.88782	building
US	2016-03-01	47.64995	Opportunity	-117.23991	average
AU	2013-03-12	-38.16604	Frankston South	145.13643	good
IN	2012/12/27	28.98002	Meerut	77.70636	average
US	07/27/2013, 00:00:00	41.0051	Scarsdale	-73.78458	maintenance
CN	07/14/2016, 00:00:00	28.88162	Guli	120.03308	good
DE	03/17/2019, 00:00:00	52.61131	Hermsdorf	13.31783	excellent
AU	2019/12/12	-27.50578	Carindale	153.10236	accep
NL	26 Jun 2020	52.71083	Emmeloord	5.74861	building
LR	12 Feb 2022	7.57944	New Yekepa	-8.53778	average
CD	25 Sep 2022	0.49113	Beni	29.47306	accep
IN	2020-12-10	19.21667	Dombivli	73.08333	good
BR	02/06/2022, 00:00:00	-22.92306	Loanda	-53.13722	maintenance
GB	01/09/2019, 00:00:00	50.76306	Cowes	-1.29772	average
US	02/09/2018, 00:00:00	42.4251	Malden	-71.06616	average
PT	2016/09/08	38.72706	Carnaxide	-9.24671	accep
LK	07/18/2014, 00:00:00	6.84019	Dehiwala-Mount Lavinia	79.87116	building
AU	2016/09/03	-34.88422	Nowra	150.60036	average
TT	07/25/2018, 00:00:00	10.66668	Port of Spain	-61.51889	accep
DE	10 Sep 2013	48.46458	Pfullingen	9.22796	accep
RU	05 Sep 2022	54.48147	Oktyabr‚Äôskiy	53.47103	building
US	05/29/2018, 00:00:00	43.16547	Gates-North Gates	-77.70066	good
MX	2017-10-31	16.75973	Tuxtla	-93.11308	good
AR	2016/12/02	-37.32167	Tandil	-59.13316	building
GH	07/19/2014, 00:00:00	6.46346	Bibiani	-2.31938	good
IN	2015-10-30	32.55531	Chamba	76.12647	good
ME	2015/09/19	42.28639	Budva	18.84	excellent
US	09 Sep 2020	36.02506	Brentwood Estates	-86.77917	good
IT	2014/04/16	40.87329	Somma Vesuviana	14.43865	good
IN	2016-05-16	22.10194	Barbil	85.37752	excellent
CN	2017-12-26	37.19723	Tianfu	122.05228	excellent
NG	04/29/2020, 00:00:00	6.8485	Shagamu	3.64633	accep
US	11/26/2020, 00:00:00	36.06523	Porterville	-119.01677	excellent
US	26 Jun 2022	35.05266	Fayetteville	-78.87836	excellent
GB	2020/07/10	50.75767	Lymington	-1.5443	maintenance
FR	25 Sep 2017	44.92801	Valence	4.8951	average
MX	2021/01/02	19.32889	San Lorenzo Acopilco	-99.32556	average
CF	2021-11-05	4.94273	Carnot	15.87735	accep
US	28 Jun 2018	41.57721	West Des Moines	-93.71133	excellent
AO	2013-10-01	-11.78333	Luena	19.91667	accep
KZ	2020/07/18	43.41949	Otegen Batyra	77.0202	average
TR	2021-08-01	40.98894	Yakuplu	28.67582	good
ET	2017/08/13	6.03333	Arba Minch	37.55	average
CN	05/26/2015, 00:00:00	27.92333	Pucheng	118.53333	average
US	2014/08/09	42.4251	Malden	-71.06616	building
PH	02/20/2018, 00:00:00	9.3337	Santa Catalina	122.8637	accep
RS	2015-03-11	44.22639	Negotin	22.53083	maintenance
RU	04/02/2016, 00:00:00	55.62047	Tyoply Stan	37.49338	building
GB	2016-11-16	51.42708	Lower Earley	-0.91979	excellent
IN	13 Aug 2020	26.2649	Jais	81.54855	excellent
DE	01/29/2018, 00:00:00	49.5099	Losheim	6.74549	accep
RU	05/12/2022, 00:00:00	55.62047	Tyoply Stan	37.49338	average
CA	11/06/2012, 00:00:00	45.40008	Sainte-Catherine	-73.58248	excellent
ES	10/26/2016, 00:00:00	37.35813	San Juan de Aznalfarache	-6.03731	good
TH	2016-01-17	15.79408	Yasothon	104.1451	building
ID	2018/02/15	-7.73379	Besuki	113.69785	accep
DE	2015/04/26	51.168	Finnentrop	7.973	excellent
CN	03/29/2018, 00:00:00	41.94175	Hushitai	123.50266	average
CO	15 Jul 2019	10.98778	Puerto Colombia	-74.95472	excellent
PH	2014-10-16	16.0438	Manaoag	120.4861	excellent
RU	2017-08-12	55.75556	Ozersk	60.70278	accep
PK	2014-06-12	25.80565	Bhit Shah	68.49143	good
US	2018-08-02	40.93121	Yonkers	-73.89875	accep
NG	2014/06/30	7.65649	Efon-Alaaye	4.92235	building
DE	06/16/2013, 00:00:00	53.94313	Bad Segeberg	10.30215	good
IN	2014/01/24	25.92493	Sojat	73.66633	excellent
AR	09/25/2015, 00:00:00	-34.64966	Barracas	-58.38341	average
DE	2020/11/10	54.52156	Schleswig	9.5586	building
FR	2021/05/16	46.67535	Lons-le-Saunier	5.55575	excellent
UA	11 Nov 2017	46.75451	Nova Kakhovka	33.34864	maintenance
DE	2021-06-11	50.82709	Wesseling	6.9747	excellent
NL	10/24/2013, 00:00:00	51.955	Culemborg	5.22778	good
DZ	03/05/2015, 00:00:00	36.06386	El Achir	4.62744	maintenance
AR	03/23/2019, 00:00:00	-54.8	Ushuaia	-68.3	accep
ID	04/22/2015, 00:00:00	-7.73379	Besuki	113.69785	accep
JP	2017/03/16	39.46667	Yamada	141.95	accep
MG	03/27/2020, 00:00:00	-17.83333	Ambatondrazaka	48.41667	excellent
BR	01/01/2016, 00:00:00	-22.97056	Valinhos	-46.99583	excellent
US	06 Jul 2018	40.64621	Kensington	-73.97069	accep
US	01 Jul 2019	32.35126	Tyler	-95.30106	maintenance
US	05/15/2016, 00:00:00	32.35126	Tyler	-95.30106	average
DZ	12 Sep 2017	35.21222	Ksar Chellala	2.31889	maintenance
DE	2021/07/12	52.61131	Hermsdorf	13.31783	excellent
BR	2022-08-01	-25.42778	Curitiba	-49.27306	accep
US	10/26/2016, 00:00:00	29.84576	Estelle	-90.10674	good
TT	01 Jan 2016	10.66668	Port of Spain	-61.51889	excellent
US	19 Nov 2019	34.06635	Acworth	-84.67837	excellent
US	2019-11-02	31.12406	Copperas Cove	-97.90308	good
CN	03/27/2014, 00:00:00	34.85	Taozhuang	117.33333	accep
TR	2021/06/23	39.12074	Bergama	27.18052	building
JP	08/27/2019, 00:00:00	35.06667	Sasayama	135.21667	excellent
IN	07/19/2016, 00:00:00	11.50526	Sathyamangalam	77.23826	excellent
US	05 Apr 2013	40.67705	Cypress Hills	-73.89125	excellent
GB	02/03/2017, 00:00:00	50.75767	Lymington	-1.5443	excellent
FR	28 Apr 2021	43.11667	Pamiers	1.6	maintenance
US	2016-10-15	40.57788	Brighton Beach	-73.95958	excellent
MT	07/21/2016, 00:00:00	35.89972	Valletta	14.51472	building
AU	2019/04/13	-33.75881	Baulkham Hills	150.99292	excellent
BR	06/12/2015, 00:00:00	-10.91722	Lagarto	-37.65	good
AU	2017-02-24	-37.9	Wheelers Hill	145.18333	good
FR	10/15/2020, 00:00:00	43.11667	Pamiers	1.6	average
RS	2014-02-06	44.22639	Negotin	22.53083	accep
BR	2015-12-19	-8.05389	Recife	-34.88111	good
JP	2014-11-23	37.56667	Inawashiro	140.11667	accep
MG	2021-01-31	-22.9	Sakaraha	44.53333	good
AR	2020/10/07	-37.32167	Tandil	-59.13316	good
CN	12/31/2020, 00:00:00	46.51872	Hoxtolgay	86.00214	good
CO	11/20/2015, 00:00:00	6.46838	Socorro	-73.26022	good
DE	05/04/2021, 00:00:00	50.80019	Siegburg	7.20769	accep
BJ	16 Apr 2016	8.88649	Tchaourou	2.59753	building
DE	05/30/2021, 00:00:00	50.82709	Wesseling	6.9747	excellent
PT	02 Aug 2018	37.08819	Albufeira	-8.2503	accep
IT	26 Mar 2018	40.53123	Francavilla Fontana	17.58522	maintenance
ML	08/30/2022, 00:00:00	12.74409	Kati	-8.07257	excellent
AD	2021-12-03	42.50729	les Escaldes	1.53414	maintenance
GB	06/25/2021, 00:00:00	55.82737	Viewpark	-4.0573	maintenance
NG	2019/03/20	10.61285	Biu	12.19458	average
ES	05/14/2021, 00:00:00	38.68712	Puertollano	-4.10734	maintenance
US	2013/02/26	41.48199	Lakewood	-81.79819	accep
US	09 Jul 2015	26.18924	San Juan	-98.15529	excellent
GB	17 Jan 2020	56.56317	Arbroath	-2.58736	building
GB	2019-02-25	53.46506	Chapletown	-1.47217	accep
BR	22 May 2021	-23.7975	Buri	-48.59278	good
SO	04/02/2022, 00:00:00	-0.35817	Kismayo	42.54536	average
LY	01/14/2022, 00:00:00	30.75545	Ajdabiya	20.22625	good
BJ	08/30/2019, 00:00:00	8.88649	Tchaourou	2.59753	accep
BG	30 Mar 2018	43.4125	Montana	23.225	accep
AD	24 May 2019	42.50729	les Escaldes	1.53414	average
PK	2021/10/16	32.87533	Daud Khel	71.57118	excellent
CN	2017-07-08	30.24706	Huangshi	115.04814	excellent
RU	02/03/2015, 00:00:00	55.85	Likhobory	37.56667	maintenance
PH	2021/01/19	14.66	Pilar	120.56528	average
US	2021-11-13	39.43534	Lebanon	-84.20299	excellent
NL	10 Aug 2018	51.65333	Vught	5.2875	excellent
DE	2016/07/13	48.49144	Reutlingen	9.20427	good
MY	24 Nov 2020	1.6	Ulu Tiram	103.81667	accep
IN	15 Jan 2022	24.05979	Leteri	77.40858	average
FR	2017-08-05	48.90982	Bobigny	2.45012	excellent
NL	2019-07-08	52.31333	Oldenzaal	6.92917	maintenance
IT	2018-12-15	43.78956	Ventimiglia	7.60872	average
TZ	09/28/2017, 00:00:00	-4.06667	Same	37.73333	accep
ID	2020-02-09	-1.26424	Simpang	104.09701	building
PK	2020-01-01	26.9423	Tharu Shah	68.11759	accep
BG	2020/05/01	42.7	Aytos	27.25	good
IN	06 Mar 2017	25.49043	Teghra	85.94001	good
IR	2013/12/20	36.64852	Nowshahr	51.49621	average
RU	2014/07/06	55.85	Likhobory	37.56667	good
