revision	code	QoS	latitude	station	longitude
2013/09/25	US	good	41.85059	Westchester	-87.882
23 Jun 2014	NL	good	52.26083	Losser	7.00417
2022-01-29	PK	accep	25.95533	Jhol	68.88871
2016/07/21	DK	excellent	55.67938	Frederiksberg	12.53463
11/29/2021, 00:00:00	DO	excellent	18.20854	Santa Cruz de Barahona	-71.10077
2017/07/11	CN	excellent	41.94175	Hushitai	123.50266
2017-01-29	PL	average	50.86079	Brzeg	17.4674
09/23/2019, 00:00:00	JP	good	33.3213	Hita	130.94098
2018/06/07	IN	accep	10.10649	Alwaye	76.35484
2016/12/22	IN	accep	12.04161	Talipparamba	75.35927
10/25/2017, 00:00:00	BE	excellent	50.88506	Denderleeuw	4.07601
2013-04-20	CN	accep	23.73333	Heyuan	114.68333
02/16/2015, 00:00:00	MX	good	19.04222	Casa Blanca	-98.11889
03/03/2017, 00:00:00	CN	good	29.98869	Zhoushan	122.20488
15 Apr 2016	AO	excellent	-11.78333	Luena	19.91667
19 Jan 2016	US	building	26.91756	Punta Gorda Isles	-82.07842
2021/07/18	IN	good	25.49043	Teghra	85.94001
05 Jun 2013	KR	maintenance	36.82167	Eisen	128.63083
15 Jan 2015	PH	building	14.95472	Baliuag	120.89694
24 Jul 2014	MX	average	21.01858	Guanajuato	-101.2591
2013-12-13	LT	building	55.25	Ukmerge	24.75
19 Nov 2019	US	accep	33.76446	North Tustin	-117.79394
23 Feb 2014	RU	good	53.37596	Otradnyy	51.3452
2017-03-10	BE	average	50.56149	Gembloux	4.69889
2019/08/06	TN	good	35.72917	Msaken	10.58082
2020/12/01	KE	accep	0.03813	Nyahururu	36.36339
2018-11-28	GN	excellent	9.535	Camayenne	-13.68778
02/01/2019, 00:00:00	PK	accep	31.71667	Sangla Hill	73.38333
2021-12-23	IN	good	12.25282	Gingee	79.41727
2013-10-09	MX	good	16.75973	Tuxtla	-93.11308
08/31/2020, 00:00:00	RU	average	55.63711	Solntsevo	37.38115
09/27/2014, 00:00:00	TH	accep	13.8196	Nakhon Pathom	100.04427
11 Sep 2021	MX	building	20.22816	Zacoalco de Torres	-103.5687
2013/03/09	DZ	average	36.76639	Boumerdas	3.47717
2019/08/07	US	average	34.09611	San Gabriel	-118.10583
2018/11/07	MX	excellent	17.94979	Acayucan	-94.91386
10/18/2012, 00:00:00	GB	good	51.40148	Newbury	-1.32471
10/01/2019, 00:00:00	TR	excellent	40.37528	Mudanya	28.88222
2022-09-01	US	good	41.48199	Lakewood	-81.79819
2019/04/20	PK	average	31.71667	Sangla Hill	73.38333
2013/04/17	AR	accep	-34.64167	Chacabuco	-60.47389
06/05/2014, 00:00:00	PH	accep	10.7375	Talisay	122.9666
06/20/2020, 00:00:00	TN	accep	36.08497	Siliana	9.37082
2019-05-03	RU	maintenance	60.97944	Izluchinsk	76.92421
05/31/2014, 00:00:00	RU	maintenance	58.04254	Tavda	65.27258
03 Oct 2016	DE	excellent	51.20219	Radevormwald	7.36027
2014-11-21	ES	average	37.35813	San Juan de Aznalfarache	-6.03731
2013/02/19	FR	excellent	44.80477	Talence	-0.59543
17 Dec 2013	DE	maintenance	52.61131	Hermsdorf	13.31783
2017-08-22	IT	excellent	44.31771	Chiavari	9.32241
11/23/2012, 00:00:00	BR	good	-8.76194	Porto Velho	-63.90389
2013-08-31	ZA	excellent	-27.76952	Vryheid	30.79165
19 Dec 2019	CN	maintenance	37.30553	Zhuangyuan	120.82747
06/09/2020, 00:00:00	US	excellent	41.16704	Bridgeport	-73.20483
2020-10-06	RU	accep	43.35071	Gudermes	46.10925
02/20/2022, 00:00:00	NI	excellent	11.84962	Jinotepe	-86.19903
2013-07-16	US	accep	41.55838	Collinwood	-81.56929
2020-12-04	GB	accep	51.64316	Bushey	-0.36053
2018-08-31	CN	maintenance	23.73333	Heyuan	114.68333
01/12/2015, 00:00:00	FR	average	44.80477	Talence	-0.59543
17 Jun 2017	US	good	38.17492	American Canyon	-122.2608
26 Feb 2016	US	excellent	33.52253	Laguna Niguel	-117.70755
03 Jul 2021	AU	average	-37.9	Wheelers Hill	145.18333
23 Mar 2017	NI	accep	13.48082	Somoto	-86.58208
10/01/2018, 00:00:00	US	excellent	41.27621	East Haven	-72.86843
12/02/2014, 00:00:00	BR	building	-23.44361	Sarandi	-51.87389
10/14/2015, 00:00:00	CA	excellent	42.8334	Norfolk County	-80.38297
2015/01/19	FR	maintenance	43.83125	Cavaillon	5.03586
20 Oct 2016	MG	good	-19.65	Antanifotsy	47.31667
26 Feb 2014	TW	excellent	23.5654	Magong	119.58627
2014/06/30	ID	excellent	-7.0981	Randudongkal	109.3243
05/04/2021, 00:00:00	ID	maintenance	-6.8048	Kudus	110.8405
2013/02/09	US	good	41.85059	Westchester	-87.882
06 Sep 2019	US	maintenance	42.4251	Malden	-71.06616
08/02/2017, 00:00:00	RE	accep	-20.88231	Saint-Denis	55.4504
2020-01-16	NI	excellent	13.48082	Somoto	-86.58208
2016/05/13	CH	accep	46.18396	Onex	6.10237
13 Apr 2015	US	good	41.85059	Westchester	-87.882
14 May 2013	DE	good	50.09019	Hofheim am Taunus	8.4493
2020/02/10	RU	excellent	55.38752	Naro-Fominsk	36.73307
09/30/2021, 00:00:00	PK	accep	29.38242	Alipur	70.91106
07/20/2021, 00:00:00	TZ	maintenance	-5.41667	Chanika	38.01667
2021/11/29	US	average	41.80753	New City	-87.65644
2014/10/04	US	average	39.43534	Lebanon	-84.20299
2019/09/23	US	accep	34.14251	Glendale	-118.25508
2017/04/17	FR	good	44.80477	Talence	-0.59543
2022-05-06	UA	accep	49.65186	Krasyliv	26.97253
06/11/2016, 00:00:00	IN	good	15.5439	Calangute	73.7553
01/20/2016, 00:00:00	JP	accep	36.33011	Annaka	138.89585
2017-06-01	US	good	33.41012	Greenville	-91.06177
2017/04/22	IN	accep	30.81383	Moga	75.16878
2016/07/25	DO	maintenance	18.20854	Santa Cruz de Barahona	-71.10077
2016-11-09	US	excellent	33.93113	Norco	-117.54866
2022/08/10	US	accep	43.61062	Rutland	-72.97261
11 Apr 2019	GB	good	53.78333	Selby	-1.06667
2017/12/01	CN	good	24.28859	Meizhou	116.11768
12/26/2014, 00:00:00	GB	average	55.82885	Rutherglen	-4.21376
2017-01-17	BR	good	-22.97056	Valinhos	-46.99583
01 Aug 2016	BE	good	51.24197	Lille	4.82313
17 Sep 2021	IT	excellent	44.31771	Chiavari	9.32241
04/23/2019, 00:00:00	US	average	33.44872	Vestavia Hills	-86.78777
2019-09-28	BR	good	-26.22861	Pato Branco	-52.67056
2015/09/28	RU	average	55.64776	Malakhovka	38.02486
21 May 2020	TR	good	39.22493	Patnos	42.85693
08/19/2016, 00:00:00	FR	maintenance	48.98693	Gonesse	2.44892
10 Sep 2017	NL	good	51.65333	Vught	5.2875
09/02/2014, 00:00:00	CN	accep	23.29549	Licheng	113.82465
2017-10-12	UA	good	47.48444	Polohy	36.25361
2019-04-19	FR	good	46.32313	Niort	-0.45877
09/10/2016, 00:00:00	NL	accep	52.57583	Hardenberg	6.61944
2013-09-23	IN	good	19.30157	Bhayandar	72.85107
11 Sep 2019	GB	accep	53.78333	Selby	-1.06667
07/25/2014, 00:00:00	BR	good	-26.22861	Pato Branco	-52.67056
2015-12-28	ID	building	-3.5403	Majene	118.9707
2016/06/22	US	building	47.64995	Opportunity	-117.23991
2016-06-25	US	good	20.88953	Kahului	-156.47432
06/30/2014, 00:00:00	KZ	average	44.85278	Kyzylorda	65.50917
11/21/2013, 00:00:00	IN	building	21.34222	Kundla	71.30633
13 Mar 2017	US	good	33.52253	Laguna Niguel	-117.70755
2020/04/12	IN	average	18.18158	Osmanabad	76.03889
2015/05/06	US	average	39.57582	Ken Caryl	-105.11221
2018/09/25	US	average	41.15376	Bourbonnais	-87.88754
2013-02-25	IT	average	45.79377	Malnate	8.88104
12/23/2021, 00:00:00	MM	excellent	14.0823	Dawei	98.19151
2021-05-02	ES	excellent	27.76056	Maspalomas	-15.58602
09/30/2012, 00:00:00	NG	building	7.65649	Efon-Alaaye	4.92235
02 Oct 2015	UA	excellent	49.41029	Svatove	38.15035
03/17/2015, 00:00:00	MX	accep	25.87972	Heroica Matamoros	-97.50417
08/22/2014, 00:00:00	IT	accep	45.44694	Novara	8.62118
01/03/2013, 00:00:00	NG	good	7.50251	Igbara-Odo	5.06258
05/29/2014, 00:00:00	IT	average	41.24264	Bisceglie	16.50104
13 Feb 2018	US	accep	40.24537	Pottstown	-75.64963
26 Jan 2013	CN	accep	23.02677	Foshan	113.13148
2022/07/30	US	excellent	33.44872	Vestavia Hills	-86.78777
05/23/2016, 00:00:00	KR	average	37.1759	T‚Äôaebaek	128.9889
2017/08/19	MX	average	22.49396	Acaponeta	-105.36369
09/02/2021, 00:00:00	DE	average	51.88333	Verl	8.51667
2012/10/22	IN	accep	22.10194	Barbil	85.37752
08/23/2020, 00:00:00	CR	average	9.92787	San Rafael	-84.13722
03/31/2018, 00:00:00	UY	building	-33.38056	Durazno	-56.52361
10 Dec 2015	FR	average	48.79325	Fontenay-aux-Roses	2.29275
11/14/2013, 00:00:00	DZ	excellent	36.76775	Cheraga	2.95924
09/18/2018, 00:00:00	CA	average	45.40008	Sainte-Catherine	-73.58248
08/06/2013, 00:00:00	IN	excellent	32.55531	Chamba	76.12647
2014-05-06	SV	good	13.73417	Sonzacate	-89.71472
2014/08/10	CN	average	45.75279	Boli	130.57211
2019/12/19	DZ	building	36.27462	Bordj Zemoura	4.85668
2022/01/22	CN	good	27.85	Xiangtan	112.9
06/08/2022, 00:00:00	CA	accep	43.86682	Markham	-79.2663
06 Feb 2019	DZ	maintenance	36.27462	Bordj Zemoura	4.85668
15 Apr 2013	XK	accep	42.62833	Glogovac	20.89389
2019/05/26	NZ	good	-38.65333	Gisborne	178.00417
16 Aug 2020	DE	good	48.46458	Pfullingen	9.22796
2020-09-08	RU	average	58.1908	Danilov	40.17171
2013-07-29	ID	good	3.3285	Tebingtinggi	99.1625
2016/01/06	US	accep	41.72059	Evergreen Park	-87.70172
08/13/2021, 00:00:00	US	average	40.5576	Woodbridge	-74.28459
07/09/2016, 00:00:00	IT	maintenance	44.31771	Chiavari	9.32241
10/29/2021, 00:00:00	ID	excellent	-7.73379	Besuki	113.69785
14 Oct 2014	BR	average	-22.97056	Valinhos	-46.99583
2020-03-28	SO	excellent	-0.35817	Kismayo	42.54536
2015-06-01	ES	average	38.38479	Novelda	-0.76773
05 Mar 2022	PT	average	41.20485	Paredes	-8.33147
2017-09-24	BR	excellent	-19.32556	Resplendor	-41.25528
29 Jul 2020	CI	building	5.27247	Bonoua	-3.59625
2018-06-24	BR	accep	-26.22861	Pato Branco	-52.67056
05/31/2019, 00:00:00	RU	excellent	55.64776	Malakhovka	38.02486
2022/02/17	IT	maintenance	40.92298	Afragola	14.30935
04 Mar 2013	US	excellent	35.88264	Thomasville	-80.08199
2012-10-01	US	excellent	41.6764	Coralville	-91.58045
2016-06-30	FR	acceptable	46.32313	Niort	-0.45877
29 Apr 2019	UA	excellent	50.18545	Shepetivka	27.06365
2021-07-11	GB	accep	53.7446	Kingston upon Hull	-0.33525
2018-09-18	DE	average	52.59319	Wittenau	13.32127
2015/04/07	IN	building	21.59983	Amreli	71.21169
22 May 2021	FR	building	48.77644	Sceaux	2.29026
2015-05-18	KE	maintenance	3.11988	Lodwar	35.59642
2016-03-03	IN	good	29.21399	Kashipur	78.95693
2018/10/08	GB	accep	51.26	Westbury	-2.1875
2020/12/02	DE	average	48.07667	Trossingen	8.64409
28 Sep 2019	MY	maintenance	1.6	Ulu Tiram	103.81667
2021/01/31	PH	accep	12.37169	Masbate	123.62494
07/24/2017, 00:00:00	ES	average	41.63976	Cardedeu	2.35739
2020-01-13	US	accep	44.99012	Keizer	-123.02621
01/26/2022, 00:00:00	UA	building	47.48444	Polohy	36.25361
03/24/2022, 00:00:00	CN	excellent	36.19278	Laiwu	117.65694
09/05/2013, 00:00:00	ES	good	39.96348	Talavera de la Reina	-4.83076
26 Apr 2013	BR	average	-28.44917	Marau	-52.2
08/04/2014, 00:00:00	US	average	47.64995	Opportunity	-117.23991
2020-03-19	SL	average	8.48714	Freetown	-13.2356
2016-04-18	US	excellent	42.24113	Crystal Lake	-88.3162
2013-09-29	RU	maintenance	46.7055	Yeysk	38.2739
01/09/2016, 00:00:00	CM	accep	4.2475	Idenao	9.00472
2020-12-07	US	good	38.96372	Chillum	-76.99081
11/04/2018, 00:00:00	US	building	34.25807	Tupelo	-88.70464
2018-02-21	KZ	maintenance	43.41949	Otegen Batyra	77.0202
2016/03/07	TR	good	40.37528	Mudanya	28.88222
29 Jan 2020	IN	accep	12.1277	Dharmapuri	78.15794
2016-08-17	US	excellent	38.17492	American Canyon	-122.2608
2019-06-18	PK	accep	27.55898	Larkana	68.21204
2018/10/03	TH	accep	13.8196	Nakhon Pathom	100.04427
2015-04-13	RO	accep	44.43579	Sector 6	26.01649
2016/12/24	TZ	good	-4.83	Mwandiga	29.65806
11/30/2017, 00:00:00	NL	excellent	52.71083	Emmeloord	5.74861
05/14/2017, 00:00:00	NG	good	6.45407	Lagos	3.39467
2019/12/25	ES	accep	39.96348	Talavera de la Reina	-4.83076
2013/11/13	CD	average	0.76755	Yangambi	24.43973
2022-06-15	CA	excellent	46.1351	Sydney	-60.1831
2013/11/10	VE	maintenance	10.22677	La Victoria	-67.33122
2018/11/29	DE	excellent	48.21644	Albstadt	9.02596
2021-01-20	DJ	building	11.15583	'Ali Sabieh	42.7125
2016-07-14	RU	good	56.85836	Tver	35.90057
2017-04-25	IT	accep	45.9836	Cordenons	12.70038
24 Aug 2020	DE	average	53.6052	Barmbek-Nord	10.03988
03/16/2022, 00:00:00	TN	good	36.46917	Beni Khiar	10.78222
2017/07/14	IN	average	22.19303	Diamond Harbour	88.18466
2021-02-07	DE	average	48.28259	Ehingen	9.72749
2014-02-21	BR	good	-23.44361	Sarandi	-51.87389
11/21/2017, 00:00:00	CO	accep	10.15031	El Copey	-73.9614
2021-04-21	HT	maintenance	18.65297	Thomazeau	-72.09391
2021/08/27	IN	accep	14.46693	Davangere	75.92694
2022/06/11	AU	average	-33.79176	Eastwood	151.08057
10 Jul 2018	RU	accep	51.78771	Saraktash	56.36091
2014/11/27	DE	excellent	52.86147	Walsrode	9.5926
2015-10-11	CU	average	23.0072	Boyeros	-82.4017
2018-06-17	US	average	40.72816	Jersey City	-74.07764
11/04/2017, 00:00:00	US	excellent	40.56754	Pekin	-89.64066
18 Mar 2022	MM	average	14.0823	Dawei	98.19151
16 Jan 2016	IT	accep	37.49223	Catania	15.07041
2016/12/20	RU	building	53.77166	Bogoroditsk	38.12408
08/20/2018, 00:00:00	VE	building	8.35122	Ciudad Guayana	-62.64102
2015-10-19	TL	building	-8.99167	Maliana	125.21972
2021/05/28	US	average	28.90054	Deltona	-81.26367
09 Mar 2018	SK	good	48.43174	Hlohovec	17.8031
09/08/2022, 00:00:00	PT	building	41.20485	Paredes	-8.33147
01/19/2020, 00:00:00	IT	good	44.59445	Castelfranco Emilia	11.04979
09 Aug 2015	IN	excellent	11.50526	Sathyamangalam	77.23826
15 Jun 2014	MX	excellent	21.28306	Progreso	-89.66123
2013-08-11	FR	good	44.80477	Talence	-0.59543
2022-03-22	IN	good	28.71271	Pilkhua	77.656
27 Dec 2018	IT	good	40.87363	Volla	14.34085
2013/11/23	US	acceptable	38.54491	Davis	-121.74052
2018-12-02	IE	average	53.53333	An Muileann gCearr	-7.35
07/12/2014, 00:00:00	VE	maintenance	8.35122	Ciudad Guayana	-62.64102
2017/12/15	UA	accep	49.07866	Zvenihorodka	30.96755
2021-11-28	IN	accep	23.1959	Kenda	86.51499
2021/07/14	RU	good	44.98901	Yablonovskiy	38.94324
02/15/2020, 00:00:00	FR	average	48.77644	Sceaux	2.29026
2014-10-04	PH	good	10.31672	Cebu City	123.89071
2018/01/07	DE	building	52.53048	Charlottenburg-Nord	13.29371
26 Dec 2021	DK	accep	55.67938	Frederiksberg	12.53463
2021-05-03	GB	good	53.78333	Selby	-1.06667
27 May 2018	GB	good	52.68333	East Dereham	0.93333
19 Nov 2021	BR	accep	-21.205	Itaperuna	-41.88778
03/01/2014, 00:00:00	CZ	good	50.50301	Most	13.63617
2014-01-19	SV	average	13.73417	Sonzacate	-89.71472
07/11/2021, 00:00:00	CO	average	3.8801	Buenaventura	-77.03116
09/02/2019, 00:00:00	US	average	41.75338	Granger	-86.11084
2013/01/16	FR	accep	43.83125	Cavaillon	5.03586
2016/07/14	DE	average	53.63333	Halstenbek	9.85
2016-11-15	DE	accep	52.53048	Charlottenburg-Nord	13.29371
2016-06-16	ES	average	38.10558	Caravaca	-1.86343
05 May 2020	NL	average	52.57583	Hardenberg	6.61944
2022/03/06	KR	average	36.6009	Hongseong	126.665
03 Nov 2016	DE	good	52.61131	Hermsdorf	13.31783
12/17/2017, 00:00:00	BR	good	-12.91667	Muritiba	-39.25
2014-11-30	BR	average	-21.205	Itaperuna	-41.88778
06/22/2019, 00:00:00	BR	accep	-20.25333	Itabirito	-43.80139
2016/07/14	TT	building	10.66668	Port of Spain	-61.51889
2017/06/29	US	building	47.92526	Grand Forks	-97.03285
10/30/2012, 00:00:00	DE	good	48.46458	Pfullingen	9.22796
2016/08/29	US	average	39.33427	Middle River	-76.43941
2022/06/10	CU	maintenance	20.14298	Media Luna	-77.43532
2014/01/11	CU	accep	23.15678	Varadero	-81.24441
25 Dec 2018	MX	accep	19.32932	Contla	-98.1664
2017/10/20	BR	good	-22.97056	Valinhos	-46.99583
2018/01/16	MW	accep	-13.7804	Salima	34.4587
2021/11/26	RS	average	44.22639	Negotin	22.53083
2013/06/30	DE	good	50.23019	Karben	8.77155
2013/09/21	US	average	42.24113	Crystal Lake	-88.3162
31 Jul 2019	US	building	37.95143	Rolla	-91.77127
2018/12/21	IN	good	20.88197	Bhuban	85.83334
06/19/2016, 00:00:00	US	maintenance	34.06635	Acworth	-84.67837
2020-08-20	EE	accep	59.37722	Narva	28.19028
2015/06/29	UG	accep	3.27833	Kitgum	32.88667
10/13/2016, 00:00:00	US	accep	39.78504	Greenfield	-85.76942
2014/09/13	ID	good	-8.43333	Muncar	114.33333
12/25/2021, 00:00:00	DE	maintenance	49.13645	Eppingen	8.91229
2018-01-20	NA	maintenance	-21.98333	Okahandja	16.91667
11 Jan 2014	GB	maintenance	53.83333	Poulton-le-Fylde	-2.98333
05 Feb 2018	TR	building	40.1675	Sungurlu	34.37389
05/08/2020, 00:00:00	IE	maintenance	53.43333	Athlone	-7.95
2013-07-18	MX	accep	17.06542	Oaxaca	-96.72365
2019/01/07	US	accep	37.52487	Bon Air	-77.55777
02/08/2022, 00:00:00	US	building	32.54044	Dublin	-82.90375
11/08/2014, 00:00:00	RU	maintenance	54.8421	Alatyr‚Äô	46.5813
10/04/2014, 00:00:00	BD	building	22.83957	Manikchari	91.84128
2022/05/29	DE	average	48.28259	Ehingen	9.72749
15 Apr 2019	IN	maintenance	24.81757	Rafiganj	84.63445
06 Jun 2017	BR	accep	-10.95817	Tucano	-38.79084
15 Oct 2020	NG	good	7.6	Olupona	4.18333
2019-10-08	US	good	41.75338	Granger	-86.11084
06/30/2019, 00:00:00	IN	excellent	22.19303	Diamond Harbour	88.18466
2014/08/11	FR	accep	48.77644	Sceaux	2.29026
2021-12-01	US	excellent	42.24113	Crystal Lake	-88.3162
2017/09/07	US	good	40.57788	Brighton Beach	-73.95958
2019-09-22	US	building	35.74788	Muskogee	-95.36969
09 Apr 2020	TD	average	12.18441	Mongo	18.69303
2018/10/23	JP	excellent	33.3213	Hita	130.94098
06 Jan 2022	CF	good	4.94273	Carnot	15.87735
02/07/2019, 00:00:00	MW	good	-13.7804	Salima	34.4587
2013/03/23	NG	average	7.6	Olupona	4.18333
2014-10-01	US	maintenance	40.2737	Harrisburg	-76.88442
2021-06-08	PR	good	18.03496	Yauco	-66.8499
2017/07/02	VE	average	9.91861	Tinaquillo	-68.30472
2018/12/06	US	average	33.93113	Norco	-117.54866
2014-05-03	HR	accep	43.50891	Split	16.43915
2021-01-16	NZ	accep	-44.39672	Timaru	171.25364
2016/12/21	FR	accep	48.8765	Rueil-Malmaison	2.18967
2013/12/13	JP	good	33.4425	Karatsu	129.96972
02/07/2013, 00:00:00	GE	average	41.82143	Kobuleti	41.77921
2021/11/02	US	excellent	33.35283	Gilbert	-111.78903
2013/01/11	IN	average	10.10649	Alwaye	76.35484
10/04/2013, 00:00:00	NG	average	7.6	Olupona	4.18333
2016-08-04	PK	average	25.80565	Bhit Shah	68.49143
2020-06-10	US	building	40.72816	Jersey City	-74.07764
2013/05/16	JP	accep	35	Komono	136.51667
16 Aug 2022	US	accep	34.25628	Leland	-78.04471
2017-06-15	US	good	28.90054	Deltona	-81.26367
2018/12/25	CO	good	3.8801	Buenaventura	-77.03116
2017/04/17	RO	good	44.43579	Sector 6	26.01649
08/28/2013, 00:00:00	JP	building	34.4833	Toba	136.84186
11 Dec 2012	KE	average	3.11988	Lodwar	35.59642
2020-04-15	PT	building	41.1053	Custoias	-7.32097
2019/07/02	US	accep	29.84576	Estelle	-90.10674
2012-11-24	BA	excellent	44.75874	Bijeljina	19.21437
04/15/2014, 00:00:00	GB	excellent	53.00974	Rhosllanerchrugog	-3.05814
10/02/2016, 00:00:00	FR	average	46.32313	Niort	-0.45877
05 Sep 2018	NL	average	53.16167	Hoogezand	6.76111
2017-03-27	CN	accep	46.08333	Ulanhot	122.08333
2021/08/04	IE	maintenance	53.53333	An Muileann gCearr	-7.35
29 Mar 2018	BR	average	-19.7625	Esmeraldas	-44.31389
2014-07-12	UA	maintenance	50.75932	Lutsk	25.34244
08/31/2017, 00:00:00	US	excellent	20.88953	Kahului	-156.47432
2014/11/14	US	maintenance	26.91756	Punta Gorda Isles	-82.07842
2021-08-10	IT	average	45.78071	Portogruaro	12.84052
2015-12-11	BR	average	-22.57306	Artur Nogueira	-47.1725
2015/08/19	TH	accep	8.43333	Nakhon Si Thammarat	99.96667
04/01/2018, 00:00:00	KR	average	36.82167	Eisen	128.63083
14 Jul 2013	GN	accep	9.535	Camayenne	-13.68778
03/13/2017, 00:00:00	US	average	29.53885	Fresno	-95.44744
06/25/2015, 00:00:00	NG	good	4.92675	Yenagoa	6.26764
2018/08/23	MM	excellent	14.0823	Dawei	98.19151
16 Feb 2016	CI	excellent	5.27247	Bonoua	-3.59625
2019-07-25	CN	excellent	35.50056	Pingyi	117.63083
2022/08/03	US	accep	41.66394	Toledo	-83.55521
12/13/2014, 00:00:00	MG	excellent	-19.65	Antanifotsy	47.31667
20 Apr 2017	SV	excellent	13.70167	Ilopango	-89.10944
2015-09-22	IR	maintenance	33.14447	Darreh Shahr	47.3799
2018/05/29	US	building	40.24537	Pottstown	-75.64963
19 Apr 2020	UG	maintenance	3.27833	Kitgum	32.88667
2022-02-19	US	good	33.98154	Lexington	-81.23621
2019-09-09	US	average	37.71715	Visitacion Valley	-122.40433
05/11/2019, 00:00:00	PH	average	9.6531	Jagna	124.3697
2016/08/14	ES	accep	40.70995	Amposta	0.57856
10/01/2016, 00:00:00	IN	excellent	28.92694	Bachhraon	78.23456
04/07/2015, 00:00:00	DE	accep	47.98372	Memmingen	10.18527
13 Feb 2016	TR	excellent	37.05944	Gaziantep	37.3825
2020-09-21	ES	maintenance	42.64685	Villaquilambre	-5.55835
09 Aug 2014	CL	maintenance	-32.45242	La Ligua	-71.23106
2021/10/04	CD	good	0.76755	Yangambi	24.43973
06/16/2022, 00:00:00	DE	excellent	51.21667	Schwalmtal	6.26667
2013/03/02	IN	good	26.2649	Jais	81.54855
2016-08-16	MG	good	-21.15	Ikalamavony	46.58333
2019-04-07	PH	maintenance	15.72892	Burgos	120.57224
07/02/2020, 00:00:00	DE	accep	51.47805	Oberhausen	6.8625
26 May 2022	GH	average	5.30383	Tarkwa	-1.98956
2016/10/20	TJ	good	38.55632	Vahdat	69.01354
2015/04/08	US	good	40.56754	Pekin	-89.64066
2020-04-11	FR	average	48.77644	Sceaux	2.29026
2014-01-23	DZ	maintenance	35.21222	Ksar Chellala	2.31889
02/24/2013, 00:00:00	IN	excellent	18.18158	Osmanabad	76.03889
12/10/2012, 00:00:00	US	average	33.93113	Norco	-117.54866
10/03/2021, 00:00:00	HT	excellent	18.65297	Thomazeau	-72.09391
06/21/2013, 00:00:00	RU	maintenance	57.30185	Gavrilov-Yam	39.85331
09/25/2019, 00:00:00	ID	good	-1.26753	Balikpapan	116.82887
2019/01/17	TH	good	15.79408	Yasothon	104.1451
2013-06-28	TH	building	14.37395	Bang Ban	100.48528
2016-10-08	IN	accep	22.88783	Jashpurnagar	84.13864
2015/09/05	GB	good	53.49389	Mexborough	-1.29243
2017-05-26	IN	average	25.6439	Narwar	77.9129
12/17/2013, 00:00:00	NI	accep	11.84962	Jinotepe	-86.19903
2019-04-07	RU	building	54.03876	Kovylkino	43.91385
2020-08-03	FR	average	48.77644	Sceaux	2.29026
08/26/2013, 00:00:00	RU	accep	58.1908	Danilov	40.17171
2013/02/21	PH	excellent	14.66	Pilar	120.56528
2015/07/07	NG	good	7.65649	Efon-Alaaye	4.92235
02/04/2021, 00:00:00	JP	average	37.56667	Inawashiro	140.11667
12/27/2015, 00:00:00	RU	average	51.40944	Privolzhskiy	46.04833
08 Apr 2015	PH	average	10.13361	Maasin	124.84472
03/03/2021, 00:00:00	IN	average	17.54907	Elamanchili	82.85749
07/02/2019, 00:00:00	RU	excellent	46.7055	Yeysk	38.2739
2021/05/08	PH	good	14.66	Pilar	120.56528
2015-04-27	RU	excellent	60.97944	Izluchinsk	76.92421
2017/04/02	DE	accep	54.52156	Schleswig	9.5586
2019-10-02	TH	building	13.44581	Phanat Nikhom	101.18445
11 Sep 2018	US	good	46.09273	Iron River	-88.64235
2015/09/02	US	excellent	41.55838	Collinwood	-81.56929
2016-06-05	US	excellent	37.60876	Mechanicsville	-77.37331
06/06/2015, 00:00:00	ES	accep	43.48961	Ferrol	-8.2194
2020/03/29	DE	excellent	52.21099	Gronau	7.02238
2016-03-19	IR	accep	35.6803	Shahre Jadide Andisheh	51.0193
2022/07/31	GE	excellent	41.82143	Kobuleti	41.77921
04 Mar 2017	KZ	good	44.85278	Kyzylorda	65.50917
2018/04/11	ES	accep	37.49073	Baza	-2.77259
2018/04/07	RU	good	57.30185	Gavrilov-Yam	39.85331
27 Nov 2012	JP	average	33.4425	Karatsu	129.96972
14 Oct 2017	ID	accep	-7.0981	Randudongkal	109.3243
2021/02/03	IN	good	28.98002	Meerut	77.70636
06/16/2020, 00:00:00	AU	accep	-31.95224	Perth	115.8614
2014-11-07	MY	excellent	4.02219	Teluk Intan	101.02083
2017/08/21	PL	good	51.14942	Zgorzelec	15.00835
06/13/2018, 00:00:00	IN	excellent	18.87813	Uran	72.93924
2015/04/11	ID	average	-7.01833	Pameungpeuk	107.60389
2019/04/07	RU	average	51.40944	Privolzhskiy	46.04833
09/23/2017, 00:00:00	BR	excellent	-28.24	Imbituba	-48.67028
13 Mar 2016	AR	average	-34.74785	Pontevedra	-58.70072
2015-11-23	US	excellent	39.09112	Independence	-94.41551
17 Dec 2019	FR	good	45.69558	Saint-Genis-Laval	4.7934
2020-09-05	DZ	average	36.06386	El Achir	4.62744
2019/07/25	CA	good	46.23899	Charlottetown	-63.13414
06/10/2019, 00:00:00	PL	accep	50.20528	Jaworzno	19.27498
08 May 2013	RU	maintenance	54.03876	Kovylkino	43.91385
2015-12-06	US	average	41.48199	Lakewood	-81.79819
06/11/2015, 00:00:00	ES	accep	27.76056	Maspalomas	-15.58602
2013-03-17	PT	average	41.20485	Paredes	-8.33147
2019-12-21	IT	building	40.92298	Afragola	14.30935
2013-08-05	CL	average	-30.60106	Ovalle	-71.19901
2022/06/01	US	excellent	37.95143	Rolla	-91.77127
19 Sep 2016	IN	maintenance	12.04161	Talipparamba	75.35927
28 Jul 2015	ZA	good	-27.76952	Vryheid	30.79165
26 Oct 2020	US	average	41.27621	East Haven	-72.86843
2017/08/26	MX	maintenance	17.06542	Oaxaca	-96.72365
10 Oct 2015	MX	average	19.64745	Paracho de Verduzco	-102.04897
04/23/2013, 00:00:00	EC	building	-2.90055	Cuenca	-79.00453
2018-06-01	US	average	39.09112	Independence	-94.41551
01/13/2013, 00:00:00	MA	maintenance	33.92866	Temara	-6.90656
06/02/2014, 00:00:00	US	average	20.88953	Kahului	-156.47432
2014-11-19	PK	average	27.55898	Larkana	68.21204
2021-03-07	CU	excellent	22.98212	Corralillo	-80.58556
11 Apr 2020	US	accep	42.93369	Keene	-72.27814
01/17/2014, 00:00:00	HR	good	43.50891	Split	16.43915
2017/09/20	FR	accep	43.11667	Pamiers	1.6
13 Jun 2016	TR	good	37.58105	Serinhisar	29.26639
03/09/2014, 00:00:00	PK	excellent	32.87533	Daud Khel	71.57118
11 Jun 2018	FR	excellent	45.69558	Saint-Genis-Laval	4.7934
2019-05-01	AR	good	-31.25033	Rafaela	-61.4867
2019-11-02	JP	excellent	35.48199	Minokamo	137.02166
2016/12/27	IN	excellent	23.1959	Kenda	86.51499
01 Nov 2020	US	excellent	33.03699	Encinitas	-117.29198
2019-01-10	DE	maintenance	51.04962	Zeitz	12.1369
2021-12-21	RU	average	58.7002	Kachkanar	59.4839
2016-11-15	ID	excellent	-7.0981	Randudongkal	109.3243
2021/01/27	IL	accep	31.39547	Rahat	34.75699
04/30/2017, 00:00:00	IN	accep	30.81383	Moga	75.16878
04/03/2021, 00:00:00	TH	excellent	13.51825	Damnoen Saduak	99.95469
04/07/2016, 00:00:00	FR	good	43.67681	Arles	4.63031
2013/02/02	DZ	building	36.06386	El Achir	4.62744
07 Feb 2021	LT	accep	55.25	Ukmerge	24.75
25 Dec 2016	KG	excellent	40.93333	Jalal-Abad	73
10 Feb 2016	IR	average	35.6803	Shahre Jadide Andisheh	51.0193
08/19/2018, 00:00:00	CA	average	43.86682	Markham	-79.2663
11 Mar 2017	ID	accep	-7.0981	Randudongkal	109.3243
28 May 2015	BE	accep	50.8	Wevelgem	3.16667
05 Apr 2018	SV	excellent	13.70167	Ilopango	-89.10944
2014/03/09	MD	excellent	48.15659	Soroca	28.28489
10/03/2019, 00:00:00	GB	building	53.49389	Mexborough	-1.29243
2020/05/05	US	building	33.98154	Lexington	-81.23621
2016-06-29	BO	excellent	-21.44345	Tupiza	-65.71875
08 Jul 2019	CN	accep	45.75279	Boli	130.57211
04/20/2020, 00:00:00	US	building	36.06523	Porterville	-119.01677
2018/07/04	AT	building	47.05	Sankt Peter	15.46667
24 Mar 2013	US	accep	40.63316	Port Richmond	-74.13653
13 Aug 2022	US	excellent	30.17746	Palm Valley	-81.38758
09/26/2019, 00:00:00	US	accep	35.61452	Jackson	-88.81395
01/06/2016, 00:00:00	PK	average	30.29184	Qadirpur Ran	71.67164
10/11/2016, 00:00:00	KR	average	36.82167	Eisen	128.63083
11/09/2013, 00:00:00	RU	accep	53.53041	Nizhniy Lomov	43.67663
2019-05-18	NI	building	13.48082	Somoto	-86.58208
2014-12-26	JP	accep	35.82756	Ina	137.95378
03/26/2019, 00:00:00	JP	maintenance	37.56667	Inawashiro	140.11667
09 Jun 2019	BR	average	-19.7625	Esmeraldas	-44.31389
2022-02-13	MX	excellent	19.04222	Casa Blanca	-98.11889
2019/08/21	UA	good	46.65581	Kherson	32.6178
2013/11/22	CN	good	37.73222	Hengshui	115.70111
2013/04/11	RU	accep	53.37596	Otradnyy	51.3452
2021/01/11	CO	good	5.6561	Andes	-75.87877
30 Nov 2012	IT	excellent	42.67164	Roseto degli Abruzzi	14.01481
26 Nov 2014	JP	maintenance	34.9	Shinshiro	137.5
11/21/2020, 00:00:00	DZ	building	34.15429	Messaad	3.50309
2022-02-23	NZ	average	-44.39672	Timaru	171.25364
2018-02-13	BR	accep	-22.53722	Guapimirim	-42.98194
2018-08-31	UA	excellent	46.65581	Kherson	32.6178
09/28/2020, 00:00:00	AU	accep	-25.54073	Maryborough	152.70493
12/11/2013, 00:00:00	PK	building	27.52948	Khairpur Mir‚Äôs	68.75915
12/12/2018, 00:00:00	IN	average	15.45144	Betamcherla	78.14797
07/09/2016, 00:00:00	MQ	excellent	14.67751	Le Robert	-60.94228
2019-03-30	US	average	33.35283	Gilbert	-111.78903
11/07/2015, 00:00:00	SO	maintenance	9.89206	Baki	43.38531
2022/03/11	LT	average	55.25	Ukmerge	24.75
2021-05-21	UG	excellent	3.27833	Kitgum	32.88667
2014-12-06	CL	average	-36.9256	Chiguayante	-73.02841
2021/02/11	CM	good	4.2475	Idenao	9.00472
21 Jan 2016	RU	good	54.8421	Alatyr‚Äô	46.5813
2016-03-09	IT	accep	45.78071	Portogruaro	12.84052
2012-09-27	GB	excellent	50.79205	Southsea	-1.08593
08/15/2016, 00:00:00	GH	good	6.46346	Bibiani	-2.31938
2014-01-04	ZA	maintenance	-26.93366	Standerton	29.24152
2013/10/26	RU	good	43.96222	Novopavlovsk	43.63417
06/06/2021, 00:00:00	ID	accep	-6.48167	Cibinong	106.85417
2019-01-09	JP	accep	35.815	Shimotoda	139.6853
2013-05-15	UA	maintenance	47.48444	Polohy	36.25361
2013/12/12	CN	good	37.30553	Zhuangyuan	120.82747
2017-11-03	NG	average	11.86064	Gaya	9.0027
2015-04-11	KR	average	34.8825	Sinhyeon	128.62667
2020-07-22	PK	maintenance	30.76468	Kanganpur	74.12286
06 Jun 2018	BR	good	-14.66463	Nova Xavantina	-52.35558
2016/05/23	US	accep	43.16547	Gates-North Gates	-77.70066
13 Nov 2013	ID	average	-7.54972	Ngemplak	110.71639
2015/02/16	US	excellent	40.57788	Brighton Beach	-73.95958
25 Apr 2016	FR	maintenance	43.11667	Pamiers	1.6
2017/11/29	IN	accep	33.37526	Rajaori	74.3092
22 Jan 2022	IN	accep	32.55531	Chamba	76.12647
01/03/2015, 00:00:00	RU	excellent	42.819	Buynaksk	47.1192
2021-12-12	JP	excellent	36.75965	Namerikawa	137.36215
08 Nov 2013	IT	good	37.49223	Catania	15.07041
03 Jun 2022	KG	excellent	40.93333	Jalal-Abad	73
01/03/2021, 00:00:00	ID	good	-3.5403	Majene	118.9707
2021-04-15	YE	good	14.53767	Ataq	46.83187
03/16/2016, 00:00:00	BR	accep	-11.48472	Rio Real	-37.93278
2015-12-22	JP	accep	34.9	Shinshiro	137.5
2017-05-21	BG	building	42.7	Aytos	27.25
2016-11-08	IN	accep	15.5439	Calangute	73.7553
09 May 2020	UA	average	46.65581	Kherson	32.6178
01 May 2015	CO	average	10.98778	Puerto Colombia	-74.95472
07 Sep 2019	GB	maintenance	51.65	Barnet	-0.2
23 Apr 2020	GB	excellent	52.66277	Great Wyrley	-2.01111
09 May 2019	US	building	33.03699	Encinitas	-117.29198
06/29/2021, 00:00:00	JP	maintenance	35.82756	Ina	137.95378
2022-09-11	PK	accep	32.17629	Fazilpur	75.06583
2018/07/26	IN	average	19.21667	Dombivli	73.08333
2016-02-14	MX	average	25.87972	Heroica Matamoros	-97.50417
11/04/2016, 00:00:00	ES	average	38.96667	Gandia	-0.18333
2013-06-09	TH	excellent	14.37395	Bang Ban	100.48528
10/11/2012, 00:00:00	MA	excellent	33.42585	Oulmes	-6.00137
17 Aug 2017	US	maintenance	34.09611	San Gabriel	-118.10583
05/02/2016, 00:00:00	RU	average	58.63667	Lesnoy	59.80222
15 Sep 2015	RU	building	44.92934	Krymsk	37.99117
2017-02-22	BY	maintenance	55.1904	Vitebsk	30.2049
09/16/2018, 00:00:00	US	accep	41.9001	Taunton	-71.08977
08/02/2022, 00:00:00	PH	maintenance	6.33444	Tupi	124.95278
24 Dec 2019	IN	average	15.73628	Gajendragarh	75.96976
2013/11/03	BR	excellent	-22.97056	Valinhos	-46.99583
08 May 2015	US	good	41.55815	Waterbury	-73.0515
2021-02-04	IN	accep	15.45144	Betamcherla	78.14797
2022/07/16	ES	average	43.32686	Leioa	-2.98884
2013/07/13	IN	average	15.45144	Betamcherla	78.14797
2021/06/14	IT	building	42.67164	Roseto degli Abruzzi	14.01481
2021-07-22	CN	excellent	38.40917	Xinzhou	112.73333
2018/03/26	CN	average	40.85158	Haicheng	122.74754
2020/08/28	US	excellent	43.91452	Brunswick	-69.96533
2021-10-23	AU	maintenance	-27.50578	Carindale	153.10236
2022/08/11	BY	average	55.1904	Vitebsk	30.2049
2012-11-23	DE	accep	48.28259	Ehingen	9.72749
11/11/2013, 00:00:00	GB	good	51.40148	Newbury	-1.32471
2016/03/03	AR	average	-34.64167	Chacabuco	-60.47389
2015/07/09	IN	average	9.82564	Tiruppuvanam	78.25795
2017-07-18	DE	excellent	53.94313	Bad Segeberg	10.30215
02 Jun 2013	CN	average	35.85	Dongdu	117.7
2022/08/03	TH	average	13.44581	Phanat Nikhom	101.18445
11/15/2014, 00:00:00	KZ	average	44.85278	Kyzylorda	65.50917
2020-01-14	GB	good	51.84819	Walton-on-the-Naze	1.26738
03/02/2017, 00:00:00	AF	excellent	36.21544	Sar-e Pul	65.93249
06/18/2016, 00:00:00	CN	average	33.78333	Wacheng	114.51667
2014-04-09	RU	good	53.59782	Dyat‚Äôkovo	34.33825
08/22/2014, 00:00:00	BR	good	-10.95817	Tucano	-38.79084
2018/01/12	UA	accep	51.67822	Hlukhiv	33.9162
23 Apr 2014	MX	average	21.28306	Progreso	-89.66123
06/29/2017, 00:00:00	IT	maintenance	43.78956	Ventimiglia	7.60872
2016-07-14	GB	accep	50.82882	Lancing	-0.32247
2022/04/15	RU	accep	54.8421	Alatyr‚Äô	46.5813
2018/01/15	UA	good	46.75451	Nova Kakhovka	33.34864
25 Sep 2015	MG	maintenance	-19.65	Antanifotsy	47.31667
07/23/2018, 00:00:00	DZ	average	35.06544	Frenda	1.04945
25 Feb 2015	HT	good	18.65297	Thomazeau	-72.09391
02/07/2013, 00:00:00	CO	average	6.46838	Socorro	-73.26022
2020/06/09	CU	building	20.14298	Media Luna	-77.43532
2022-05-22	RU	maintenance	53.59782	Dyat‚Äôkovo	34.33825
2019/01/31	IN	excellent	25.49043	Teghra	85.94001
2016/10/26	US	average	35.05266	Fayetteville	-78.87836
09 Feb 2022	HT	average	18.57677	Croix-des-Bouquets	-72.22625
2019/07/27	IN	accep	25.49043	Teghra	85.94001
2022/07/18	US	good	41.48199	Lakewood	-81.79819
2022-04-13	TH	maintenance	13.44581	Phanat Nikhom	101.18445
29 Jul 2021	IT	maintenance	40.87329	Somma Vesuviana	14.43865
11 Oct 2016	US	average	43.61062	Rutland	-72.97261
2020-06-10	US	excellent	47.80527	Bothell West	-122.24064
07/22/2017, 00:00:00	MX	average	16.75973	Tuxtla	-93.11308
2020/02/24	MZ	good	-23.85972	Maxixe	35.34722
2015-05-13	CZ	excellent	50.23271	Karlovy Vary	12.87117
2013/10/23	PK	accep	27.55898	Larkana	68.21204
08/16/2015, 00:00:00	IT	maintenance	43.78956	Ventimiglia	7.60872
08/25/2020, 00:00:00	CN	good	31.64615	Changshu City	120.74221
10 May 2022	KE	accep	3.11988	Lodwar	35.59642
2020-10-22	BR	excellent	-23.7975	Buri	-48.59278
2014-05-07	US	building	36.61033	Murray	-88.31476
08 Mar 2017	GE	building	41.82143	Kobuleti	41.77921
09/24/2020, 00:00:00	NG	good	7.62789	Ilesa	4.74161
02/13/2013, 00:00:00	BR	average	-22.97056	Valinhos	-46.99583
09/15/2016, 00:00:00	PK	accep	31.71667	Sangla Hill	73.38333
07/03/2018, 00:00:00	IN	building	14.62072	Sirsi	74.83554
2015/12/04	DE	building	49.5099	Losheim	6.74549
12/18/2017, 00:00:00	BR	acceptable	-19.7625	Esmeraldas	-44.31389
2019/04/09	JP	average	34.61667	Yao	135.6
2015/10/16	US	accep	35.61452	Jackson	-88.81395
18 Sep 2014	TZ	accep	-5.41667	Chanika	38.01667
2016-07-28	IN	good	11.12018	Manjeri	76.11996
2020-03-30	MX	excellent	19.32889	San Lorenzo Acopilco	-99.32556
2021/08/09	GB	average	51.65	Barnet	-0.2
2017/05/22	JP	good	41.77583	Hakodate	140.73667
15 Jan 2022	CA	maintenance	50.26729	Vernon	-119.27337
2016-04-20	IT	good	45.53069	Gorgonzola	9.40531
21 Jan 2017	BE	good	51.12794	Temse	4.21372
09/18/2014, 00:00:00	US	good	34.06635	Acworth	-84.67837
2022/09/09	US	building	40.64621	Kensington	-73.97069
2018-01-12	FR	good	43.67681	Arles	4.63031
2018-07-21	BJ	average	8.88649	Tchaourou	2.59753
2017-03-10	NZ	average	-44.39672	Timaru	171.25364
10/16/2014, 00:00:00	US	maintenance	34.09611	San Gabriel	-118.10583
2020-02-02	BR	good	-22.97056	Valinhos	-46.99583
12/09/2017, 00:00:00	CO	accep	6.46838	Socorro	-73.26022
2012/11/02	US	average	33.92946	Beaumont	-116.97725
08/31/2016, 00:00:00	ES	good	41.63976	Cardedeu	2.35739
2019-12-20	IQ	excellent	32.61603	Karbala	44.02488
11 Jul 2022	BR	good	-12.91667	Muritiba	-39.25
2020/11/22	US	acceptable	27.71809	Sun City Center	-82.35176
14 Oct 2014	PR	good	18.03496	Yauco	-66.8499
2019-07-18	ID	building	-7.01833	Pameungpeuk	107.60389
2022-03-28	US	good	35.74788	Muskogee	-95.36969
2014-02-19	ES	average	37.35813	San Juan de Aznalfarache	-6.03731
09/14/2019, 00:00:00	DE	good	54.52156	Schleswig	9.5586
12/21/2020, 00:00:00	MX	average	20.74122	Santa Rosa Jauregui	-100.44843
2018-01-09	PT	excellent	41.20485	Paredes	-8.33147
20 Dec 2019	NL	building	52.31333	Oldenzaal	6.92917
03/09/2017, 00:00:00	MK	average	41.92361	Bogovinje	20.91361
11 Aug 2017	JP	good	35.30889	Kamakura	139.55028
01 Apr 2022	US	excellent	40.60538	Far Rockaway	-73.75513
2018/01/18	US	accep	44.99012	Keizer	-123.02621
04/05/2016, 00:00:00	SE	excellent	61.72744	Hudiksvall	17.10558
2013-01-13	SD	average	11.8659	Ar Ruseris	34.3869
01/28/2021, 00:00:00	HK	excellent	22.37066	Tsuen Wan	114.10479
2016-06-16	CN	good	27.34089	Shaowu	117.4831
2013/09/13	FR	excellent	49.28669	Elbeuf	1.00288
2013-06-20	MX	accep	19.32932	Contla	-98.1664
2014/01/03	RU	good	57.97472	Valday	33.2525
2018-01-03	US	excellent	44.73941	Rosemount	-93.12577
06/27/2015, 00:00:00	MX	accep	17.94979	Acayucan	-94.91386
12 Feb 2019	CA	average	49.88307	Kelowna	-119.48568
2018/07/15	US	good	40.81	Morningside Heights	-73.9625
2017-12-04	US	building	40.68066	Massapequa	-73.47429
22 Jul 2017	NI	maitennce	13.48082	Somoto	-86.58208
01/15/2014, 00:00:00	MY	good	4.88441	Gua Musang	101.96857
12/24/2013, 00:00:00	JP	building	34.81667	Toyokawa	137.4
2021-10-10	RW	accep	-1.9487	Rwamagana	30.4347
25 May 2013	US	good	27.71809	Sun City Center	-82.35176
14 Mar 2021	TH	good	15.79408	Yasothon	104.1451
03/29/2016, 00:00:00	EE	maintenance	59.37722	Narva	28.19028
24 Jun 2013	US	accep	41.8542	Lower West Side	-87.66561
06 Jul 2017	US	excellent	45.49428	Aloha	-122.86705
02 Jun 2015	CZ	building	50.23271	Karlovy Vary	12.87117
05/22/2015, 00:00:00	JP	accep	33.3213	Hita	130.94098
24 Jul 2016	TR	good	37.58105	Serinhisar	29.26639
2014/08/25	RU	building	57.30185	Gavrilov-Yam	39.85331
2021-03-23	AU	good	-34.88422	Nowra	150.60036
2015/11/27	CU	average	22.98212	Corralillo	-80.58556
2017-06-04	CN	average	24.28859	Meizhou	116.11768
23 Apr 2016	KE	excellent	3.11988	Lodwar	35.59642
08/31/2013, 00:00:00	CN	average	36.81667	Zhoucun	117.81667
23 Mar 2014	US	average	30.16688	Brenham	-96.39774
03/15/2018, 00:00:00	CN	excellent	32.50611	Jiangyan	120.14278
12/26/2019, 00:00:00	US	maintenance	33.7207	Indio	-116.21677
20 May 2013	US	excellent	47.64995	Opportunity	-117.23991
2021-08-10	AR	building	-27.4338	Aguilares	-65.61427
2017/05/08	MX	accep	20.74122	Santa Rosa Jauregui	-100.44843
2020/02/16	RU	average	60.97944	Izluchinsk	76.92421
26 Jun 2021	LY	accep	24.96334	Ghat	10.18003
2012/12/13	GB	average	57.14369	Aberdeen	-2.09814
31 Mar 2019	US	excellent	26.91756	Punta Gorda Isles	-82.07842
2013/12/16	PH	excellent	14.14989	Calauan	121.3152
2012-12-01	US	excellent	35.88264	Thomasville	-80.08199
2018/12/12	HN	average	15.48131	Olanchito	-86.57415
02/02/2020, 00:00:00	IN	average	9.82564	Tiruppuvanam	78.25795
2016-12-12	BE	average	51.21187	Beveren	4.25633
2016/11/19	PL	average	54.60528	Reda	18.34717
2014-02-10	PT	accep	41.20485	Paredes	-8.33147
14 Apr 2017	ES	average	27.76056	Maspalomas	-15.58602
2018/09/10	BR	accep	-22.45667	Santa Gertrudes	-47.53028
08/27/2021, 00:00:00	IT	average	42.67164	Roseto degli Abruzzi	14.01481
2019/01/15	CF	accep	4.94273	Carnot	15.87735
2016-03-22	BR	maintenance	-20.25333	Itabirito	-43.80139
2020/11/19	US	average	47.80527	Bothell West	-122.24064
2017/12/27	KR	building	34.8825	Sinhyeon	128.62667
12/05/2017, 00:00:00	US	excellent	41.6764	Coralville	-91.58045
2016-09-12	FR	good	43.11667	Pamiers	1.6
2019/06/06	RU	average	55.38752	Naro-Fominsk	36.73307
2016/08/07	IT	good	45.79377	Malnate	8.88104
2020/09/20	US	accep	41.47892	Schererville	-87.45476
2015-02-19	MA	maintenance	33.92866	Temara	-6.90656
2020/07/21	ES	building	38.38479	Novelda	-0.76773
2020/03/13	RU	accep	55.62047	Tyoply Stan	37.49338
11/18/2016, 00:00:00	BR	maintenance	-11.48472	Rio Real	-37.93278
28 Oct 2018	PT	average	41.1053	Custoias	-7.32097
2021/12/06	RU	building	51.82721	Ulan-Ude	107.60627
03/20/2019, 00:00:00	DE	average	50.80904	Marburg an der Lahn	8.77069
2021/03/31	US	building	38.70734	Fort Washington	-77.02303
08 Oct 2014	MG	average	-22.9	Sakaraha	44.53333
2018-10-16	US	accep	34.25628	Leland	-78.04471
2014/05/14	MA	average	33.92866	Temara	-6.90656
02 Oct 2016	IN	building	15.73628	Gajendragarh	75.96976
16 Dec 2021	ID	good	-6.8048	Kudus	110.8405
02/25/2014, 00:00:00	PT	average	37.74615	Ponta Delgada	-25.66689
15 Oct 2013	RU	average	56.11281	Ishim	69.49015
2020/09/19	VE	good	8.35122	Ciudad Guayana	-62.64102
14 Nov 2018	TH	average	8.43333	Nakhon Si Thammarat	99.96667
08/31/2013, 00:00:00	US	good	38.96372	Chillum	-76.99081
2015-04-13	IN	accep	34.08565	Srinagar	74.80555
2021/09/09	PK	building	32.57756	Mianwali	71.52847
2015/08/20	DE	building	52.61131	Hermsdorf	13.31783
01/19/2020, 00:00:00	IN	maintenance	19.30157	Bhayandar	72.85107
10 Aug 2013	CN	good	41.27194	Liaoyang	123.17306
27 May 2017	BR	accep	-10.95817	Tucano	-38.79084
06/04/2020, 00:00:00	PK	excellent	26.9423	Tharu Shah	68.11759
12 Aug 2015	PE	average	-3.74912	Iquitos	-73.25383
25 Jun 2022	MX	maintenance	19.32932	Contla	-98.1664
08/09/2016, 00:00:00	PH	accep	10.20898	Naga	123.758
2014-05-19	US	building	42.30865	Canton	-83.48216
2013-02-25	RU	accep	60.97944	Izluchinsk	76.92421
30 Mar 2016	RU	accep	45.47885	Lesozavodsk	133.42825
2021-04-16	TJ	accep	38.55632	Vahdat	69.01354
12 Sep 2017	UZ	maintenance	40.78206	Andijon	72.34424
2019/05/11	US	average	34.09668	Claremont	-117.71978
11/23/2012, 00:00:00	AT	accep	48.25	Floridsdorf	16.4
2013/02/25	DE	average	53.6052	Barmbek-Nord	10.03988
2018-08-08	GN	average	9.535	Camayenne	-13.68778
2018/11/15	PK	good	31.96258	Naushahra Virkan	73.97117
08/14/2018, 00:00:00	FR	average	44.92801	Valence	4.8951
02 May 2022	US	average	47.80527	Bothell West	-122.24064
07/22/2019, 00:00:00	ID	building	3.7278	Labuhan Deli	98.6738
05 Mar 2021	PH	maintenance	6.95194	Recodo	121.96361
12 Jul 2016	JP	accep	36.53333	Nonoichi	136.61667
12 Aug 2016	IL	maintenance	31.39547	Rahat	34.75699
01/26/2021, 00:00:00	US	excellent	34.09611	San Gabriel	-118.10583
03/22/2020, 00:00:00	DE	excellent	53.94313	Bad Segeberg	10.30215
07/05/2021, 00:00:00	IN	building	11.50526	Sathyamangalam	77.23826
25 May 2021	LR	good	7.57944	New Yekepa	-8.53778
08/30/2017, 00:00:00	AR	average	-27.4338	Aguilares	-65.61427
09/07/2015, 00:00:00	GB	accep	53.78333	Selby	-1.06667
2022/07/20	KR	average	36.6009	Hongseong	126.665
2022/01/12	PL	building	50.86079	Brzeg	17.4674
23 Dec 2015	UA	good	50.18545	Shepetivka	27.06365
2020-10-12	GA	average	-1.63333	Franceville	13.58357
2015-08-05	CL	average	-30.60106	Ovalle	-71.19901
2020-03-13	US	accep	41.55838	Collinwood	-81.56929
2012-12-10	SE	accep	61.72744	Hudiksvall	17.10558
29 Aug 2019	US	good	39.71734	Sicklerville	-74.96933
01/08/2019, 00:00:00	TZ	excellent	-7.76667	Iringa	35.7
21 Sep 2019	JP	maitennce	35.06667	Sasayama	135.21667
2019-09-20	BR	maintenance	-8.66667	Catende	-35.71667
2020-02-02	BE	average	51.21187	Beveren	4.25633
06/30/2020, 00:00:00	BY	acceptable	52.4089	Dobrush	31.3237
2020/04/01	CA	maintenance	50.26729	Vernon	-119.27337
28 Apr 2021	FR	good	48.98994	Herblay	2.1699
2019-12-13	IN	average	14.62072	Sirsi	74.83554
2021/10/22	UA	building	49.65186	Krasyliv	26.97253
16 Mar 2016	AM	accep	40.49748	Hrazdan	44.7662
2022/07/05	RE	accep	-20.88231	Saint-Denis	55.4504
2016/03/23	YE	good	14.53767	Ataq	46.83187
2013-06-05	ZA	average	-24.19436	Mokopane	29.00974
2015/11/24	GB	accep	52.68333	East Dereham	0.93333
13 Jan 2016	SO	average	9.89206	Baki	43.38531
2016/03/09	IT	average	40.55851	Mesagne	17.80774
2016-12-24	JP	excellent	34.25	Iwade	135.31667
10 Mar 2017	FI	good	60.18427	Kallio	24.95034
18 Nov 2013	US	excellent	33.95015	South Whittier	-118.03917
09 Dec 2012	TR	maintenance	40.98894	Yakuplu	28.67582
2016/09/19	PK	good	31.82539	Sillanwali	72.54064
01 Oct 2016	BR	average	-4.16694	Guaraciaba do Norte	-40.7475
02/12/2015, 00:00:00	FR	good	43.11667	Pamiers	1.6
09/07/2015, 00:00:00	GB	average	51.64316	Bushey	-0.36053
2014/11/26	IR	accep	33.14447	Darreh Shahr	47.3799
01 Sep 2016	GB	good	53.49389	Mexborough	-1.29243
2018-06-07	US	accep	33.95015	South Whittier	-118.03917
10/14/2020, 00:00:00	DE	excellent	53.63333	Halstenbek	9.85
2021/05/04	ES	accep	42.8139	Segundo Ensanche	-1.64295
2019-08-09	HR	excellent	43.50891	Split	16.43915
11/28/2014, 00:00:00	US	excellent	40.67705	Cypress Hills	-73.89125
08/12/2021, 00:00:00	NG	maintenance	6.45407	Lagos	3.39467
09/09/2015, 00:00:00	DZ	average	35.06544	Frenda	1.04945
2021-10-17	FR	building	50.75	Saint-Omer	2.25
2020/08/29	TH	average	13.8196	Nakhon Pathom	100.04427
2022/06/03	AU	good	-25.54073	Maryborough	152.70493
2019-01-12	IN	excellent	15.5439	Calangute	73.7553
08/31/2019, 00:00:00	DE	good	48.73218	Neuburg an der Donau	11.18709
2014-02-22	GB	good	57.14369	Aberdeen	-2.09814
2015/10/30	US	average	41.55838	Collinwood	-81.56929
2019/12/15	US	maintenance	35.61452	Jackson	-88.81395
2021/07/05	FR	average	48.8765	Rueil-Malmaison	2.18967
2022/07/18	IN	excellent	34.08565	Srinagar	74.80555
13 Dec 2019	PH	good	14.62578	Antipolo	121.12251
02/24/2021, 00:00:00	BR	building	-20.25333	Itabirito	-43.80139
20 May 2014	NG	accep	7.50251	Igbara-Odo	5.06258
13 Nov 2014	ES	excellent	38.10558	Caravaca	-1.86343
2015-09-21	BR	accep	-28.44917	Marau	-52.2
2020/05/05	TZ	excellent	-7.76667	Iringa	35.7
2021-09-01	IN	excellent	25.13915	Sheoganj	73.06784
2016-05-07	JP	good	36.33011	Annaka	138.89585
09/15/2014, 00:00:00	FR	accep	48.90982	Bobigny	2.45012
04/22/2022, 00:00:00	ET	average	11.85	Debre Tabor	38.01667
2014/04/23	PK	excellent	30.76468	Kanganpur	74.12286
2013/06/17	US	excellent	41.57721	West Des Moines	-93.71133
11/10/2019, 00:00:00	DZ	average	36.72544	Thenia	3.55665
03 Jan 2016	GB	building	51.40148	Newbury	-1.32471
2022/05/06	AT	good	48.25	Floridsdorf	16.4
2014-10-27	IT	average	45.53069	Gorgonzola	9.40531
2013/09/11	US	good	42.93369	Keene	-72.27814
2018-04-08	US	accep	40.81	Morningside Heights	-73.9625
2017/05/01	IN	good	23.07492	Pandua	88.28637
2019/11/04	TW	average	23.5654	Magong	119.58627
10 Sep 2021	US	building	41.9001	Taunton	-71.08977
11/11/2017, 00:00:00	IN	excellent	11.00599	Kangayam	77.5609
11 Jun 2015	JP	excellent	44.35056	Nayoro	142.45778
2012/09/29	GB	accep	51.40148	Newbury	-1.32471
03/06/2013, 00:00:00	DE	average	53.59337	Stade	9.47629
2019/10/30	NL	good	51.955	Culemborg	5.22778
2014-09-20	CH	excellent	47.30997	Adliswil	8.52462
2021/08/19	US	accep	33.72255	Palm Desert	-116.37697
15 May 2019	US	good	35.88264	Thomasville	-80.08199
2018/03/13	RU	average	42.819	Buynaksk	47.1192
2020-09-12	ID	good	-6.91806	Sukabumi	106.92667
06/10/2015, 00:00:00	TT	average	10.66668	Port of Spain	-61.51889
2019/12/01	TT	average	10.66668	Port of Spain	-61.51889
11 Apr 2018	BY	excellent	53.5942	Novogrudok	25.8191
2022-08-26	PT	average	37.74615	Ponta Delgada	-25.66689
2018/11/18	US	good	36.06523	Porterville	-119.01677
26 Aug 2022	JP	accep	35.815	Shimotoda	139.6853
21 Apr 2019	DE	good	49.97704	Aschaffenburg	9.15214
08/28/2018, 00:00:00	NL	excellent	51.955	Culemborg	5.22778
2018/06/01	PK	excellent	27.55898	Larkana	68.21204
01/05/2018, 00:00:00	MY	accep	1.6561	Kulai	103.6032
2021/04/14	EG	acceptable	26.67319	Juhaynah	31.4976
2013/12/12	FR	good	48.98693	Gonesse	2.44892
08 Jul 2015	IN	maintenance	31.28092	Patti	74.85849
2015-05-14	FR	accep	48.98693	Gonesse	2.44892
05/31/2013, 00:00:00	PT	good	41.20485	Paredes	-8.33147
2022-09-27	CN	excellent	45.75279	Boli	130.57211
2015-08-26	IN	good	12.25282	Gingee	79.41727
24 Oct 2021	RU	average	58.1908	Danilov	40.17171
21 Nov 2020	BR	average	-10.90889	Barra dos Coqueiros	-37.03861
06 Jun 2017	DE	good	49.5099	Losheim	6.74549
2019/01/19	CO	excellent	3.8801	Buenaventura	-77.03116
03/07/2013, 00:00:00	US	excellent	41.24255	Norwalk	-82.61573
2018/09/29	DE	average	53.63333	Halstenbek	9.85
2019-12-26	BR	good	-10.91111	Aracaju	-37.07167
2015-12-26	RU	good	55.75556	Ozersk	60.70278
2013-10-02	IT	building	43.78956	Ventimiglia	7.60872
11/25/2014, 00:00:00	RU	excellent	54.90083	Stupino	38.07083
05/01/2022, 00:00:00	US	good	41.80753	New City	-87.65644
10/04/2015, 00:00:00	CA	good	45.43341	Beaconsfield	-73.86586
2019/04/06	MN	accep	47.90771	Ulan Bator	106.88324
2020/06/06	RU	building	56.03361	Volokolamsk	35.96944
11/22/2019, 00:00:00	RS	accep	44.97639	Sremska Mitrovica	19.61222
08/17/2022, 00:00:00	HR	excellent	43.50891	Split	16.43915
10/12/2020, 00:00:00	PK	acceptable	30.29184	Qadirpur Ran	71.67164
2019-01-20	FR	excellent	48.79325	Fontenay-aux-Roses	2.29275
2018-01-16	IT	building	40.87329	Somma Vesuviana	14.43865
06/10/2020, 00:00:00	UG	good	2.41669	Paidha	30.98551
07 Jan 2019	IN	maitennce	9.82564	Tiruppuvanam	78.25795
2016-11-25	DE	good	50.09019	Hofheim am Taunus	8.4493
2016-08-18	IT	average	38.07789	Villabate	13.44275
05/25/2019, 00:00:00	TH	excellent	13.44581	Phanat Nikhom	101.18445
2017-12-15	CN	average	36.19278	Laiwu	117.65694
25 Mar 2013	KR	good	37.1759	T‚Äôaebaek	128.9889
2020-03-29	PK	good	30.76468	Kanganpur	74.12286
2022-06-26	ID	acceptable	-6.91806	Sukabumi	106.92667
2015-04-24	IN	excellent	25.92493	Sojat	73.66633
04/26/2015, 00:00:00	DE	maintenance	50.82709	Wesseling	6.9747
2018/05/30	BR	good	-17.74431	Caldas Novas	-48.62789
09/25/2022, 00:00:00	FR	accep	48.79325	Fontenay-aux-Roses	2.29275
09/20/2015, 00:00:00	AO	maintenance	-11.78333	Luena	19.91667
2012-10-10	MY	maintenance	1.6561	Kulai	103.6032
2020/06/11	US	good	44.99012	Keizer	-123.02621
2015/07/07	US	accep	33.95015	South Whittier	-118.03917
09/06/2022, 00:00:00	BE	excellent	51.12794	Temse	4.21372
30 Apr 2019	MY	maintenance	2.2139	Kampung Ayer Molek	102.3278
08/16/2018, 00:00:00	IR	excellent	33.14447	Darreh Shahr	47.3799
2017/11/09	BR	excellent	-21.205	Itaperuna	-41.88778
2018-01-26	IT	accep	44.59445	Castelfranco Emilia	11.04979
2021-08-19	IT	good	36.92574	Ragusa	14.72443
24 Oct 2021	CN	excellent	45.35	Shuangcheng	126.28333
2020/11/11	CA	average	46.23899	Charlottetown	-63.13414
12 Oct 2016	IT	accep	43.1122	Perugia	12.38878
2017-11-04	IN	good	23.1959	Kenda	86.51499
2017-11-13	RU	maintenance	51.4781	Kuvandyk	57.3552
05 Mar 2017	ID	accep	0.51667	Pekanbaru	101.44167
2019-05-03	DJ	average	11.15583	'Ali Sabieh	42.7125
2013/12/01	RU	excellent	42.819	Buynaksk	47.1192
03/21/2019, 00:00:00	NO	building	68.79833	Harstad	16.54165
2018-02-23	RU	accep	51.82721	Ulan-Ude	107.60627
2019/05/18	AU	average	-32.05251	Willetton	115.88782
07 Sep 2018	UA	building	47.56494	Voznesensk	31.33078
2022-07-17	PH	good	16.0438	Manaoag	120.4861
2022-05-05	RU	average	56.85836	Tver	35.90057
2020-10-20	FR	average	48.86667	Marly-le-Roi	2.08333
2022-09-06	US	good	41.16704	Bridgeport	-73.20483
08 May 2015	UG	accep	3.27833	Kitgum	32.88667
2013/12/27	CN	average	35.20889	Changzhi	111.73861
2014/01/15	US	excellent	45.16024	Lino Lakes	-93.08883
04 Aug 2021	GB	accep	51.35084	Devizes	-1.99421
31 Jan 2019	US	good	40.72371	Greenpoint	-73.95097
2020-12-15	JP	good	37.56667	Inawashiro	140.11667
2019-03-04	ID	good	-6.91806	Sukabumi	106.92667
07/14/2015, 00:00:00	LT	average	54.39635	Alytus	24.04142
2022/04/13	TR	excellent	37.31309	Mardin	40.74357
16 Aug 2019	BR	excellent	-8.05389	Recife	-34.88111
2020/11/14	PE	average	-11.94306	Chosica	-76.70944
2013-08-04	BR	good	-22.53722	Guapimirim	-42.98194
2016/06/28	US	good	42.97086	Port Huron	-82.42491
20 Oct 2012	NZ	accep	-44.39672	Timaru	171.25364
09/18/2017, 00:00:00	US	excellent	28.54944	Clermont	-81.77285
2018/09/08	IT	building	42.67164	Roseto degli Abruzzi	14.01481
30 May 2018	DE	building	48.78232	Stuttgart	9.17702
2020-08-07	KE	average	3.11988	Lodwar	35.59642
2016/09/05	RU	accep	54.84444	Kashira	38.16694
2013-08-11	ID	excellent	-7.0981	Randudongkal	109.3243
2017/08/31	IN	accep	34.08565	Srinagar	74.80555
2014-02-02	IL	good	32.05971	Ganei Tikva	34.8732
12/12/2014, 00:00:00	JP	accep	35	Komono	136.51667
23 Jan 2021	US	excellent	44.73941	Rosemount	-93.12577
04/28/2014, 00:00:00	US	excellent	38.91817	Front Royal	-78.19444
2015/12/21	EG	average	26.67319	Juhaynah	31.4976
14 May 2020	US	excellent	42.7392	Waverly	-84.62081
04/30/2016, 00:00:00	US	maintenance	40.93121	Yonkers	-73.89875
2017-12-23	IN	good	25.92127	Madhipura	86.79271
02/15/2017, 00:00:00	FR	average	45.73333	Bron	4.91667
2016-10-02	BR	good	-20.87306	Viradouro	-48.29694
2014/07/22	UA	good	47.56494	Voznesensk	31.33078
2020/10/10	US	average	34.25628	Leland	-78.04471
17 Jun 2014	PA	accep	9.15093	Chilibre	-79.62098
08/03/2016, 00:00:00	MM	accep	14.0823	Dawei	98.19151
16 Jan 2016	IN	good	20.88098	Parola	75.11937
2013/06/13	RU	building	54.39304	Bavly	53.26023
2020-02-14	KE	average	3.11988	Lodwar	35.59642
2019/01/28	CD	excellent	0.76755	Yangambi	24.43973
2017-01-10	US	good	28.54944	Clermont	-81.77285
2021-03-26	BR	excellent	-22.57306	Artur Nogueira	-47.1725
10 Apr 2021	IT	good	40.53123	Francavilla Fontana	17.58522
2017-12-18	DE	maintenance	51.20219	Radevormwald	7.36027
10 Jul 2019	RU	good	51.78771	Saraktash	56.36091
11/09/2016, 00:00:00	NG	good	10.61285	Biu	12.19458
2021-11-21	RU	accep	54.8421	Alatyr‚Äô	46.5813
2021/04/02	UA	accep	46.75451	Nova Kakhovka	33.34864
03/22/2013, 00:00:00	CN	average	35.20889	Changzhi	111.73861
2014/02/01	CU	excellent	23.04419	Jaruco	-82.00919
2018-04-11	PH	excellent	12.37169	Masbate	123.62494
2017/08/03	TH	excellent	6.25947	Tak Bai	102.05461
31 Dec 2018	US	accep	39.08367	Covington	-84.50855
2016/06/29	TW	maintenance	23.5654	Magong	119.58627
01 Aug 2013	CO	building	10.98778	Puerto Colombia	-74.95472
2020/07/08	RU	excellent	53.59782	Dyat‚Äôkovo	34.33825
22 Apr 2015	IT	good	45.39402	San Giuliano Milanese	9.29109
2014/10/26	CO	average	10.98778	Puerto Colombia	-74.95472
24 Oct 2015	DE	maitennce	48.06919	Gauting	11.37703
2014-12-22	ES	accep	38.96667	Gandia	-0.18333
17 Nov 2017	PS	average	31.78336	East Jerusalem	35.23388
2018-12-27	IT	good	42.67164	Roseto degli Abruzzi	14.01481
2014-11-14	AU	building	-33.75881	Baulkham Hills	150.99292
2017/05/23	CO	excellent	4.73245	Madrid	-74.26419
05/09/2013, 00:00:00	US	good	40.64621	Kensington	-73.97069
2017-06-04	DE	average	52.53048	Charlottenburg-Nord	13.29371
21 Aug 2020	IN	average	23.49668	Adra	86.68363
12/05/2013, 00:00:00	DE	excellent	48.49144	Reutlingen	9.20427
11/03/2018, 00:00:00	DE	building	48.35149	Hechingen	8.96317
2017/08/22	SD	accep	11.8659	Ar Ruseris	34.3869
2015/11/11	CN	average	37.19723	Tianfu	122.05228
2015-03-18	MX	average	17.06542	Oaxaca	-96.72365
2014/12/14	RU	excellent	56.85836	Tver	35.90057
2014-09-27	CN	excellent	27.85	Xiangtan	112.9
17 Feb 2015	ES	average	42.06166	Tudela	-1.60452
2017-06-28	EG	average	26.67319	Juhaynah	31.4976
2015/06/25	US	excellent	40.64621	Kensington	-73.97069
29 Mar 2018	PH	accep	14.95472	Baliuag	120.89694
04/01/2013, 00:00:00	ES	average	37.35813	San Juan de Aznalfarache	-6.03731
2016/11/22	US	building	41.9001	Taunton	-71.08977
30 Jan 2018	BR	excellent	-4.16694	Guaraciaba do Norte	-40.7475
2018/10/02	DE	excellent	48.52961	Landshut	12.16179
2016-10-22	FR	building	43.83125	Cavaillon	5.03586
01/26/2013, 00:00:00	RU	building	44.98901	Yablonovskiy	38.94324
2013-09-04	FR	good	48	Quimper	-4.1
31 Jan 2021	CN	excellent	46.51872	Hoxtolgay	86.00214
05 Jun 2020	US	excellent	42.30865	Canton	-83.48216
03/20/2021, 00:00:00	KR	good	36.20389	Nonsan	127.08472
2013-01-26	FR	accep	46.67535	Lons-le-Saunier	5.55575
2017/03/04	AR	building	-31.4488	Esperanza	-60.93173
16 Aug 2014	RU	excellent	57.97472	Valday	33.2525
2014/09/05	CZ	good	50.23271	Karlovy Vary	12.87117
19 Oct 2020	UA	good	51.67822	Hlukhiv	33.9162
29 Feb 2016	TH	excellent	8.43333	Nakhon Si Thammarat	99.96667
2013-04-25	RU	accep	54.39304	Bavly	53.26023
01 Jun 2019	GB	accep	52.68333	East Dereham	0.93333
2022-04-25	RU	maintenance	61.78491	Petrozavodsk	34.34691
2017/12/09	AM	good	40.49748	Hrazdan	44.7662
2017/10/13	US	maintenance	26.68451	Belle Glade	-80.66756
2021-01-18	BR	excellent	-3.20333	Altamira	-52.20639
10/01/2013, 00:00:00	US	accep	39.57582	Ken Caryl	-105.11221
2018-09-09	FR	good	41.91886	Ajaccio	8.73812
01/06/2020, 00:00:00	RU	building	54.03876	Kovylkino	43.91385
2022/07/03	DE	accep	48.06919	Gauting	11.37703
12/09/2019, 00:00:00	US	building	42.4251	Malden	-71.06616
29 Dec 2021	PH	accep	6.95194	Recodo	121.96361
2021/01/21	RU	accep	54.84444	Kashira	38.16694
2019/03/10	IN	average	23.1959	Kenda	86.51499
12/01/2020, 00:00:00	MX	good	19.8173	Teziutlan	-97.35992
17 Sep 2020	GB	excellent	51.84819	Walton-on-the-Naze	1.26738
11/25/2019, 00:00:00	CU	average	20.14298	Media Luna	-77.43532
2020/11/01	HN	good	15.48131	Olanchito	-86.57415
12/27/2015, 00:00:00	DE	maintenance	48.07667	Trossingen	8.64409
09/01/2013, 00:00:00	ES	accep	38.38479	Novelda	-0.76773
2016-04-07	IT	good	45.78071	Portogruaro	12.84052
2019-08-07	MX	good	19.64745	Paracho de Verduzco	-102.04897
2020-06-30	US	building	42.93369	Keene	-72.27814
12/21/2013, 00:00:00	US	average	40.63316	Port Richmond	-74.13653
06 May 2018	BR	excellent	-8.76194	Porto Velho	-63.90389
06/28/2015, 00:00:00	CN	accep	24.28859	Meizhou	116.11768
01 Apr 2022	RU	average	58.04254	Tavda	65.27258
2013/08/18	RU	good	65.93381	Aykhal	111.4834
2016/12/14	DE	excellent	50.9803	Weimar	11.32903
10 Mar 2018	DE	building	50.72043	Rudolstadt	11.34046
26 Feb 2014	US	good	40.57788	Brighton Beach	-73.95958
13 May 2017	DE	accep	52.86147	Walsrode	9.5926
2022-06-25	US	average	36.20829	Pahrump	-115.98391
2013/10/12	NG	good	11.86064	Gaya	9.0027
12/07/2018, 00:00:00	CO	good	8.79577	San Carlos	-75.69947
2018/04/21	GB	excellent	51.65	Barnet	-0.2
12/05/2019, 00:00:00	PG	maintenance	-5.85746	Mount Hagen	144.23058
2020/12/19	CD	good	0.49113	Beni	29.47306
27 May 2014	CF	average	4.94273	Carnot	15.87735
2017-09-16	BR	excellent	-22.45667	Santa Gertrudes	-47.53028
2020/01/05	DE	building	50.23019	Karben	8.77155
05/10/2021, 00:00:00	IN	maintenance	10.12268	Periyakulam	77.54372
2015/08/01	DK	building	55.67938	Frederiksberg	12.53463
2017-05-25	NL	maintenance	52.71083	Emmeloord	5.74861
15 Jun 2014	FR	excellent	44.92801	Valence	4.8951
2020-09-03	PA	average	9.15093	Chilibre	-79.62098
2017/12/03	US	excellent	47.92526	Grand Forks	-97.03285
12/15/2015, 00:00:00	IR	maintenance	35.6803	Shahre Jadide Andisheh	51.0193
09 Jun 2019	BR	accep	-8.05389	Recife	-34.88111
31 Oct 2013	DE	excellent	52.86147	Walsrode	9.5926
23 Dec 2020	GB	good	55.82737	Viewpark	-4.0573
24 Mar 2014	AM	average	40.49748	Hrazdan	44.7662
2016/07/27	FI	maintenance	65.84811	Tornio	24.14662
09/09/2017, 00:00:00	DE	accep	48.28259	Ehingen	9.72749
24 Jul 2014	IT	excellent	44.59445	Castelfranco Emilia	11.04979
2014-12-15	JM	maintenance	18.00747	New Kingston	-76.78319
22 Feb 2014	CN	good	40.66482	Yingkou	122.22833
2022/09/05	CD	maintenance	-8.73508	Kamina	24.99798
2020-03-03	UA	accep	49.65186	Krasyliv	26.97253
2017-03-31	CN	building	41.27194	Liaoyang	123.17306
2021-12-05	PK	maintenance	31.71667	Sangla Hill	73.38333
2021-05-26	BO	excellent	-21.44345	Tupiza	-65.71875
28 Dec 2017	IN	excellent	24.81757	Rafiganj	84.63445
2013/01/14	KG	excellent	40.93333	Jalal-Abad	73
05/29/2016, 00:00:00	US	maintenance	40.93121	Yonkers	-73.89875
15 Jun 2013	FR	excellent	45.51667	Vienne	4.86667
2013/04/06	CN	average	41.27194	Liaoyang	123.17306
05/26/2019, 00:00:00	MY	good	5.4709	Batu Feringgi	100.24529
2014-02-09	RE	building	-20.88231	Saint-Denis	55.4504
11/05/2012, 00:00:00	DE	building	48.21644	Albstadt	9.02596
2016-05-16	CA	accep	46.23899	Charlottetown	-63.13414
2017/08/27	NI	building	13.48082	Somoto	-86.58208
2020-04-29	US	maintenance	43.16547	Gates-North Gates	-77.70066
2018-01-02	CN	good	24.28859	Meizhou	116.11768
2018-07-02	ZA	building	-26.93366	Standerton	29.24152
27 Feb 2016	UG	average	3.02013	Arua	30.91105
08/28/2019, 00:00:00	BR	accep	-22.53722	Guapimirim	-42.98194
09 Nov 2015	DE	good	50.23805	Nidderau	8.86704
07/24/2019, 00:00:00	DE	excellent	49.03685	Bretten	8.70745
2019-03-14	IN	excellent	25.13915	Sheoganj	73.06784
2016/01/21	PT	good	37.74615	Ponta Delgada	-25.66689
29 Jan 2018	BR	maintenance	-4.42472	Pedro II	-41.45861
