location	station	QoS	latitude	revision	longitude
Asia/Samarkand	Jizzax	excellent	40.11583	06/11/2013, 00:00:00	67.84222
America/Guatemala	Chichicastenango	excellent	14.93333	2018/10/14	-91.11667
Australia/Melbourne	Carnegie	maintenance	-37.88333	20 Feb 2014	145.06667
Europe/Moscow	Naro-Fominsk	excellent	55.38752	2016/06/16	36.73307
Pacific/Efate	Port-Vila	accep	-17.73648	2016/07/10	168.31366
America/Los_Angeles	Bothell West	excellent	47.80527	06/16/2018, 00:00:00	-122.24064
Asia/Manila	Tupi	excellent	6.33444	12/07/2016, 00:00:00	124.95278
Europe/Rome	Sassari	accep	40.72586	11 Aug 2017	8.55552
Asia/Manila	Cebu City	accep	10.31672	2017-02-17	123.89071
Europe/London	Westbury	excellent	51.26	2016/10/02	-2.1875
Europe/Rome	Ariccia	good	41.72063	2019/04/20	12.6723
Asia/Kolkata	Calangute	accep	15.5439	2018-05-10	73.7553
Asia/Yekaterinburg	Kachkanar	accep	58.7002	15 Sep 2013	59.4839
Europe/London	Walton-on-the-Naze	building	51.84819	01 Mar 2014	1.26738
Europe/Istanbul	Silvan	accep	38.13708	2018/01/14	41.00817
Europe/Moscow	Zhukovka	average	53.53395	2013/04/03	33.72798
America/Bogota	Buenaventura	average	3.8801	2012-10-03	-77.03116
Asia/Barnaul	Novosilikatnyy	excellent	53.30972	2015/09/27	83.62389
Europe/Paris	Rueil-Malmaison	accep	48.8765	02/24/2022, 00:00:00	2.18967
Asia/Jakarta	Ngemplak	excellent	-7.54972	09/18/2016, 00:00:00	110.71639
Africa/Algiers	Thenia	building	36.72544	08/07/2018, 00:00:00	3.55665
America/Chicago	San Juan	good	26.18924	2015/01/06	-98.15529
Asia/Manila	San Jose	building	12.35275	03/21/2013, 00:00:00	121.06761
Europe/Helsinki	Espoo	average	60.2052	2018-08-01	24.6522
Asia/Manila	Burgos	accep	15.72892	2021/12/15	120.57224
Europe/Paris	Bron	accep	45.73333	06/28/2018, 00:00:00	4.91667
America/Bogota	Socorro	maintenance	6.46838	2020-10-29	-73.26022
Europe/Brussels	Beveren	accep	51.21187	11/25/2020, 00:00:00	4.25633
Asia/Bangkok	Yasothon	excellent	15.79408	2017/10/06	104.1451
Europe/Moscow	Bavly	good	54.39304	2013-08-29	53.26023
Asia/Jakarta	Tebingtinggi	good	3.3285	10/21/2017, 00:00:00	99.1625
Europe/Berlin	Hofheim am Taunus	good	50.09019	30 Jan 2013	8.4493
Europe/Kiev	Shepetivka	average	50.18545	2016/10/20	27.06365
Atlantic/Canary	Maspalomas	maintenance	27.76056	2021/11/20	-15.58602
Asia/Kolkata	Rafiganj	building	24.81757	13 Aug 2014	84.63445
America/New_York	Milledgeville	accep	33.08014	11 Nov 2013	-83.2321
Asia/Kolkata	Supaul	average	26.11527	16 Aug 2013	86.59509
Europe/Rome	Portogruaro	average	45.78071	02/18/2013, 00:00:00	12.84052
Australia/Melbourne	Frankston South	accep	-38.16604	2021/10/05	145.13643
Europe/Helsinki	Espoo	good	60.2052	2020-03-05	24.6522
Europe/Kiev	Artsyz	excellent	45.99194	10 Jul 2019	29.41824
America/Chicago	West Des Moines	average	41.57721	2022/01/19	-93.71133
Asia/Yekaterinburg	Kachkanar	good	58.7002	2022/02/05	59.4839
America/Sao_Paulo	Alfenas	excellent	-21.42917	02 Dec 2017	-45.94722
Asia/Kolkata	Jais	good	26.2649	07/10/2013, 00:00:00	81.54855
Asia/Shanghai	Heyuan	excellent	23.73333	2013-11-25	114.68333
America/New_York	Lexington	acceptable	33.98154	03 Jul 2020	-81.23621
Asia/Kolkata	Srinagar	maintenance	34.08565	2021/11/10	74.80555
America/Sao_Paulo	Esmeraldas	maintenance	-19.7625	2017-03-10	-44.31389
Asia/Seoul	Eisen	excellent	36.82167	16 Jan 2020	128.63083
America/Chicago	Longview	average	32.5007	01/09/2020, 00:00:00	-94.74049
Africa/Johannesburg	Standerton	good	-26.93366	2020-05-20	29.24152
Europe/Berlin	Weimar	maintenance	50.9803	12/04/2016, 00:00:00	11.32903
Europe/Berlin	Barmbek-Nord	accep	53.6052	2018-03-02	10.03988
America/Los_Angeles	American Canyon	maintenance	38.17492	2014-07-20	-122.2608
America/Chicago	Evergreen Park	good	41.72059	10/15/2012, 00:00:00	-87.70172
Asia/Kuala_Lumpur	Teluk Intan	building	4.02219	02 Nov 2018	101.02083
Europe/Kiev	Zvenihorodka	building	49.07866	01/23/2019, 00:00:00	30.96755
Asia/Kolkata	Sheoganj	average	25.13915	2017-03-03	73.06784
America/New_York	Scotch Plains	good	40.65538	12/11/2019, 00:00:00	-74.38987
Asia/Jakarta	Jambi City	excellent	-1.6	04 Mar 2021	103.61667
Europe/Minsk	Vitebsk	excellent	55.1904	08/12/2018, 00:00:00	30.2049
Europe/Minsk	Novogrudok	maintenance	53.5942	2019/05/25	25.8191
Europe/Moscow	Kolomyagi	good	60.02427	2021/05/03	30.28491
America/New_York	West Chester	excellent	39.96097	08 Jan 2015	-75.60804
Europe/Warsaw	Reda	good	54.60528	2018-09-01	18.34717
Europe/Kiev	Krasyliv	maintenance	49.65186	2020-02-14	26.97253
America/New_York	Clermont	excellent	28.54944	2020-01-16	-81.77285
Europe/Paris	Gonesse	building	48.98693	2021/07/13	2.44892
Asia/Kolkata	Udumalaippettai	accep	10.58806	11/29/2014, 00:00:00	77.24779
Africa/Lagos	Lagos	good	6.45407	2013-08-12	3.39467
America/Chicago	Fairview Heights	excellent	38.58894	2014-05-03	-89.99038
Europe/Paris	Elbeuf	building	49.28669	01/30/2019, 00:00:00	1.00288
America/Chicago	New City	maintenance	41.80753	2022/03/31	-87.65644
America/Indiana/Indianapolis	Granger	maintenance	41.75338	01 Apr 2013	-86.11084
Europe/Paris	Les Olives	good	43.32393	2022-03-09	5.4584
Europe/London	Kingston upon Hull	excellent	53.7446	25 Jul 2020	-0.33525
Europe/Moscow	Buynaksk	good	42.819	14 Jan 2017	47.1192
America/Bogota	Buenaventura	excellent	3.8801	2021/09/17	-77.03116
America/Argentina/Buenos_Aires	Tandil	accep	-37.32167	18 Nov 2019	-59.13316
Asia/Kolkata	Lal Bahadur Nagar	excellent	17.34769	2018/06/03	78.55757
Europe/Amsterdam	Zeist	good	52.09	02/25/2021, 00:00:00	5.23333
Asia/Kolkata	Sambalpur	excellent	21.46527	06 Oct 2018	83.97573
Africa/Algiers	Thenia	average	36.72544	2017/10/26	3.55665
America/Mexico_City	Oaxaca	excellent	17.06542	2017/06/08	-96.72365
Europe/Paris	Les Olives	building	43.32393	2013-10-15	5.4584
Europe/Paris	Sceaux	accep	48.77644	10/22/2015, 00:00:00	2.29026
Africa/Dar_es_Salaam	Usagara	excellent	-2.68333	09/28/2015, 00:00:00	33
Indian/Antananarivo	Sakaraha	good	-22.9	23 Sep 2019	44.53333
America/Merida	Progreso	good	21.28306	01/05/2018, 00:00:00	-89.66123
America/Mazatlan	Acaponeta	building	22.49396	2018-03-06	-105.36369
Asia/Yekaterinburg	Beryozovsky	accep	56.9083	06 Apr 2014	60.8019
Asia/Jakarta	Ngemplak	good	-7.54972	2014/08/27	110.71639
Asia/Tashkent	Andijon	good	40.78206	25 Sep 2022	72.34424
America/New_York	Chillum	good	38.96372	2013/10/26	-76.99081
Europe/Moscow	Kolomyagi	average	60.02427	06/14/2015, 00:00:00	30.28491
Asia/Karachi	Tharu Shah	maintenance	26.9423	2016/01/24	68.11759
Europe/Madrid	Baza	excellent	37.49073	2020/10/31	-2.77259
Asia/Manila	Calauan	excellent	14.14989	2013/10/01	121.3152
Europe/London	Bushey	good	51.64316	2017-04-27	-0.36053
Europe/Moscow	Dyat‚Äôkovo	maintenance	53.59782	10/16/2012, 00:00:00	34.33825
America/Mexico_City	Guanajuato	building	21.01858	2019-03-10	-101.2591
America/Sao_Paulo	Imbituba	accep	-28.24	2021-02-17	-48.67028
America/Vancouver	Kelowna	maintenance	49.88307	2018-01-17	-119.48568
Africa/Casablanca	Temara	good	33.92866	07/19/2018, 00:00:00	-6.90656
America/Chicago	Schererville	average	41.47892	07/24/2022, 00:00:00	-87.45476
Europe/Vilnius	Alytus	excellent	54.39635	21 Mar 2022	24.04142
Africa/Kigali	Rwamagana	accep	-1.9487	05/09/2018, 00:00:00	30.4347
Asia/Kolkata	Haldwani	good	29.22254	11/10/2018, 00:00:00	79.5286
Asia/Tokyo	Karatsu	average	33.4425	17 Dec 2020	129.96972
Africa/Accra	Tarkwa	accep	5.30383	12/17/2016, 00:00:00	-1.98956
America/Chicago	Fairview Heights	excellent	38.58894	2021/05/18	-89.99038
Africa/Lubumbashi	Beni	excellent	0.49113	2020/02/02	29.47306
America/Managua	Somoto	building	13.48082	20 Apr 2019	-86.58208
America/Mexico_City	Paracho de Verduzco	good	19.64745	04/09/2017, 00:00:00	-102.04897
Asia/Dhaka	Manikchari	accep	22.83957	11/19/2019, 00:00:00	91.84128
Europe/Madrid	Novelda	average	38.38479	2014-09-14	-0.76773
Asia/Taipei	Magong	building	23.5654	08/07/2014, 00:00:00	119.58627
Europe/Madrid	Segundo Ensanche	good	42.8139	2015-06-02	-1.64295
Europe/Amsterdam	Oldenzaal	excellent	52.31333	2018-06-08	6.92917
Asia/Kolkata	Kashipur	accep	29.21399	02/07/2013, 00:00:00	78.95693
Africa/Algiers	Ksar Chellala	excellent	35.21222	10 Aug 2014	2.31889
Europe/Bratislava	Hlohovec	average	48.43174	2017-07-19	17.8031
Europe/Paris	Le Chesnay	accep	48.8222	12 May 2019	2.12213
America/Chicago	Crystal Lake	good	42.24113	08/29/2020, 00:00:00	-88.3162
Europe/Moscow	Arzamas	average	55.39485	2016/08/07	43.83992
Europe/Berlin	Oberhausen	excellent	51.47805	2020/05/09	6.8625
Africa/Banjul	Farafenni	good	13.56667	04/30/2018, 00:00:00	-15.6
Africa/Dar_es_Salaam	Mvomero	building	-6.25	09/12/2013, 00:00:00	38.66667
Asia/Yekaterinburg	Tavda	excellent	58.04254	25 May 2021	65.27258
Europe/Minsk	Novogrudok	maitennce	53.5942	08 Jul 2020	25.8191
Asia/Kolkata	Pune	good	18.51957	2014-11-27	73.85535
Europe/Moscow	Gudermes	building	43.35071	02 Apr 2015	46.10925
Asia/Bangkok	Kantharalak	maintenance	14.64056	02 Apr 2018	104.64992
Europe/Paris	Gonesse	excellent	48.98693	29 Sep 2015	2.44892
America/Indiana/Indianapolis	Granger	good	41.75338	02 Sep 2021	-86.11084
Europe/Berlin	Reutlingen	accep	48.49144	03/14/2016, 00:00:00	9.20427
Africa/Lubumbashi	Kamina	acceptable	-8.73508	12/12/2018, 00:00:00	24.99798
Europe/Bratislava	Skalica	average	48.8449	22 Oct 2012	17.22635
America/New_York	Cypress Hills	accep	40.67705	2022-08-12	-73.89125
Europe/Berlin	Kirchlengern	average	52.2	24 Jun 2015	8.63333
America/Chicago	Coralville	average	41.6764	2018/02/27	-91.58045
Europe/Berlin	Memmingen	good	47.98372	2018/06/22	10.18527
Africa/Accra	Bibiani	average	6.46346	05/12/2021, 00:00:00	-2.31938
Asia/Bangkok	Phanat Nikhom	average	13.44581	18 Dec 2015	101.18445
Europe/Istanbul	Patnos	building	39.22493	10/10/2016, 00:00:00	42.85693
Europe/Berlin	Hechingen	good	48.35149	08/13/2016, 00:00:00	8.96317
Europe/Bucharest	Sector 6	excellent	44.43579	2013/07/15	26.01649
Europe/Moscow	Buynaksk	average	42.819	2017-08-22	47.1192
Europe/Paris	Pamiers	excellent	43.11667	2013/05/15	1.6
Africa/Luanda	Luena	building	-11.78333	24 Feb 2018	19.91667
Europe/Rome	Falconara Marittima	accep	43.62558	24 Jun 2020	13.39954
Europe/Madrid	Jumilla	good	38.47917	2019-05-11	-1.325
America/New_York	Clermont	average	28.54944	2019-08-30	-81.77285
America/Chicago	San Juan	maintenance	26.18924	30 Apr 2021	-98.15529
Asia/Jerusalem	Rahat	building	31.39547	2022/03/03	34.75699
America/Los_Angeles	Pahrump	average	36.20829	03/29/2015, 00:00:00	-115.98391
Asia/Ho_Chi_Minh	Sa Dec	excellent	10.29085	2020-08-10	105.75635
America/New_York	Middle River	excellent	39.33427	2021-03-14	-76.43941
Asia/Shanghai	Liaoyang	excellent	41.27194	03/10/2014, 00:00:00	123.17306
Asia/Kolkata	Malaut	maintenance	30.21121	12/31/2021, 00:00:00	74.4818
America/Chicago	Independence	excellent	39.09112	2014/11/15	-94.41551
Asia/Kolkata	Bhayandar	good	19.30157	2016/11/28	72.85107
Europe/Belgrade	Negotin	accep	44.22639	04 Mar 2022	22.53083
Europe/Rome	Novara	average	45.44694	2013/12/31	8.62118
America/Caracas	La Victoria	accep	10.22677	2020-08-21	-67.33122
Europe/Madrid	Segundo Ensanche	accep	42.8139	2022-04-06	-1.64295
Europe/Amsterdam	Barneveld	average	52.14	01/10/2019, 00:00:00	5.58472
America/Santo_Domingo	Santa Cruz de Barahona	maintenance	18.20854	20 Dec 2013	-71.10077
Africa/Ndjamena	Mongo	good	12.18441	12/20/2014, 00:00:00	18.69303
Asia/Qyzylorda	Kyzylorda	accep	44.85278	2015/03/23	65.50917
Europe/Berlin	Wittenau	accep	52.59319	12/05/2016, 00:00:00	13.32127
Europe/Brussels	Beveren	accep	51.21187	2022-03-08	4.25633
America/Phoenix	Gilbert	accep	33.35283	12 Apr 2022	-111.78903
America/Tegucigalpa	Olanchito	accep	15.48131	12/09/2021, 00:00:00	-86.57415
Asia/Kolkata	Narwar	maintenance	25.6439	2013/06/20	77.9129
Africa/Lagos	Igbara-Odo	good	7.50251	11/10/2016, 00:00:00	5.06258
Europe/Amsterdam	Hoogezand	building	53.16167	10/01/2018, 00:00:00	6.76111
America/New_York	Woodlawn	average	39.32288	2016/11/03	-76.72803
Europe/Paris	Quimper	accep	48	2022-02-05	-4.1
Africa/Lagos	Efon-Alaaye	good	7.65649	24 Feb 2013	4.92235
Africa/Dar_es_Salaam	Mvomero	accep	-6.25	2015-02-18	38.66667
America/Chicago	Tupelo	maintenance	34.25807	06/24/2013, 00:00:00	-88.70464
America/New_York	Scotch Plains	average	40.65538	2017/08/24	-74.38987
Europe/Istanbul	Edremit	average	39.59611	04/09/2022, 00:00:00	27.02444
America/New_York	Keene	accep	42.93369	09/16/2014, 00:00:00	-72.27814
Europe/Paris	Saint-Genis-Laval	accep	45.69558	24 Jul 2022	4.7934
America/Los_Angeles	Troutdale	accep	45.53929	11/21/2017, 00:00:00	-122.38731
Europe/Minsk	Dobrush	excellent	52.4089	2019-09-25	31.3237
Asia/Kolkata	Supaul	accep	26.11527	04/20/2015, 00:00:00	86.59509
America/Mexico_City	Oaxaca	average	17.06542	2022-07-22	-96.72365
America/El_Salvador	Ilopango	accep	13.70167	30 Sep 2017	-89.10944
Africa/Accra	Tarkwa	excellent	5.30383	2013-03-18	-1.98956
Asia/Tokyo	Annaka	excellent	36.33011	2016-10-23	138.89585
America/Puerto_Rico	Aguadilla	accep	18.42745	2018/09/27	-67.15407
Africa/Kigali	Rwamagana	maintenance	-1.9487	01 Jun 2022	30.4347
Asia/Shanghai	Heyuan	excellent	23.73333	2015/02/28	114.68333
Europe/Berlin	Kirchlengern	good	52.2	2013-08-27	8.63333
Europe/London	Exeter	accep	50.7236	21 Mar 2015	-3.52751
Asia/Yekaterinburg	Kachkanar	excellent	58.7002	2015-08-24	59.4839
Asia/Dhaka	Kushtia	accep	23.9028	2017-01-11	89.11943
Europe/Kiev	Shepetivka	accep	50.18545	2019-05-23	27.06365
America/New_York	Keene	accep	42.93369	2013-04-28	-72.27814
Asia/Tokyo	Nonoichi	excellent	36.53333	02/18/2018, 00:00:00	136.61667
America/Chicago	Lino Lakes	accep	45.16024	06/13/2018, 00:00:00	-93.08883
Africa/Windhoek	Okahandja	average	-21.98333	2016-12-04	16.91667
Africa/Lagos	Kafanchan	good	9.58126	07/08/2017, 00:00:00	8.2926
Asia/Karachi	Khairpur Mir‚Äôs	accep	27.52948	2017-06-13	68.75915
America/New_York	Chillum	good	38.96372	2021-10-06	-76.99081
America/Bogota	El Copey	building	10.15031	11 Jun 2016	-73.9614
Europe/Berlin	Hechingen	excellent	48.35149	2014/06/07	8.96317
America/Chicago	Rolla	accep	37.95143	13 Feb 2021	-91.77127
Asia/Kolkata	Saharsa	building	25.87498	01/29/2014, 00:00:00	86.59611
Asia/Jakarta	Wangon	accep	-7.51611	03 Aug 2019	109.05389
Europe/Paris	Cavaillon	average	43.83125	01 Oct 2021	5.03586
Australia/Melbourne	Frankston South	acceptable	-38.16604	2017-09-16	145.13643
Africa/Tripoli	Ghat	excellent	24.96334	03 Oct 2020	10.18003
Asia/Kuala_Lumpur	Kulai	accep	1.6561	14 Jan 2016	103.6032
Europe/Moscow	Danilov	good	58.1908	2022-07-12	40.17171
America/Bogota	Villa del Rosario	maintenance	7.83389	2019/07/25	-72.47417
America/Guayaquil	Cuenca	building	-2.90055	11/08/2020, 00:00:00	-79.00453
Pacific/Auckland	Gisborne	excellent	-38.65333	2021/10/08	178.00417
Europe/Paris	Marseille 11	maintenance	43.2907	2019-09-06	5.4384
Europe/Moscow	Krymsk	excellent	44.92934	11 Nov 2015	37.99117
America/New_York	North Lauderdale	good	26.2173	2019/11/06	-80.22588
Europe/Rome	Bisceglie	maintenance	41.24264	2013/08/17	16.50104
Europe/Lisbon	Albufeira	accep	37.08819	2017/01/07	-8.2503
Asia/Kolkata	Malaut	maintenance	30.21121	2019-09-09	74.4818
Asia/Kolkata	Sambalpur	accep	21.46527	2014-01-17	83.97573
Asia/Kolkata	Deoli	accep	25.75728	2021/05/11	75.37991
Asia/Kolkata	Meerut	accep	28.98002	07 Feb 2013	77.70636
Europe/Prague	Karlovy Vary	good	50.23271	2019/11/28	12.87117
America/Mexico_City	Contla	accep	19.32932	2018/05/17	-98.1664
Asia/Dushanbe	Vahdat	maintenance	38.55632	2020/12/27	69.01354
America/Martinique	Le Robert	excellent	14.67751	04 Jan 2017	-60.94228
Europe/Paris	Saint-Genis-Laval	good	45.69558	2018/11/11	4.7934
America/New_York	Greenpoint	good	40.72371	2022/08/30	-73.95097
Europe/Berlin	Nidderau	accep	50.23805	10/01/2014, 00:00:00	8.86704
America/Chicago	Odessa	excellent	31.84568	2021-02-26	-102.36764
Africa/Douala	Idenao	excellent	4.2475	2016-05-05	9.00472
America/Sao_Paulo	Esmeraldas	accep	-19.7625	01/03/2020, 00:00:00	-44.31389
Europe/Moscow	Dyat‚Äôkovo	accep	53.59782	10/27/2015, 00:00:00	34.33825
Asia/Shanghai	Hengshui	good	37.73222	20 Dec 2018	115.70111
Asia/Jakarta	Pameungpeuk	excellent	-7.01833	11/11/2016, 00:00:00	107.60389
America/Havana	Media Luna	average	20.14298	05 Jul 2020	-77.43532
Europe/Sofia	Smolyan	building	41.57439	2012-11-22	24.71204
Europe/London	Devizes	good	51.35084	18 Jan 2014	-1.99421
Europe/Moscow	Novopavlovsk	accep	43.96222	2019/01/29	43.63417
America/Phoenix	Gilbert	building	33.35283	05/11/2014, 00:00:00	-111.78903
Africa/Addis_Ababa	Arba Minch	building	6.03333	2018-03-19	37.55
Africa/Dar_es_Salaam	Same	excellent	-4.06667	2015-06-17	37.73333
Europe/Rome	San Giuliano Milanese	building	45.39402	2014/10/15	9.29109
Europe/Berlin	Schleswig	good	54.52156	01/27/2013, 00:00:00	9.5586
Europe/London	Arbroath	good	56.56317	2020/11/17	-2.58736
America/Toronto	Markham	good	43.86682	2021-07-02	-79.2663
America/Sao_Paulo	Sarandi	maintenance	-23.44361	11/26/2014, 00:00:00	-51.87389
Europe/Berlin	Radevormwald	excellent	51.20219	2020/06/20	7.36027
America/Mexico_City	Tuxtla	average	16.75973	2015-07-24	-93.11308
America/Maceio	Lagarto	excellent	-10.91722	02/05/2015, 00:00:00	-37.65
Europe/Madrid	Baza	accep	37.49073	01/09/2018, 00:00:00	-2.77259
Australia/Melbourne	Wheelers Hill	building	-37.9	21 Apr 2015	145.18333
Asia/Yekaterinburg	Ishim	maintenance	56.11281	10/16/2021, 00:00:00	69.49015
Asia/Yangon	Kyaikto	accep	17.30858	02 Jun 2019	97.01124
Asia/Jakarta	Muncar	excellent	-8.43333	05/03/2017, 00:00:00	114.33333
Asia/Makassar	Tarakan	maintenance	3.31332	31 Jul 2022	117.59152
Europe/Stockholm	Boo	maintenance	59.33333	19 Jul 2014	18.28333
Asia/Kolkata	Aklera	good	24.41288	2016-01-28	76.56719
America/Mexico_City	Oaxaca	excellent	17.06542	2020/01/31	-96.72365
Europe/Madrid	Amposta	accep	40.70995	10 Feb 2016	0.57856
Europe/London	Walton-on-the-Naze	building	51.84819	11/21/2015, 00:00:00	1.26738
Africa/Tripoli	Ajdabiya	excellent	30.75545	2021/02/24	20.22625
Asia/Bangkok	Roi Et	excellent	16.0567	22 Aug 2016	103.65309
Asia/Tokyo	Ina	good	35.82756	2019/03/03	137.95378
Europe/Zurich	Adliswil	excellent	47.30997	2020-03-28	8.52462
Asia/Tokyo	Yamada	good	39.46667	18 Apr 2018	141.95
Asia/Kolkata	Calangute	acceptable	15.5439	2018/02/22	73.7553
Asia/Yekaterinburg	Kachkanar	good	58.7002	11/06/2017, 00:00:00	59.4839
Europe/Paris	Colomiers	average	43.61058	04/19/2017, 00:00:00	1.33467
Europe/Paris	Arles	excellent	43.67681	18 May 2014	4.63031
America/Martinique	Le Robert	good	14.67751	2013-07-10	-60.94228
Asia/Shanghai	Changshu City	accep	31.64615	2012/10/18	120.74221
America/New_York	Fitchburg	building	42.58342	09/30/2019, 00:00:00	-71.8023
Europe/Belgrade	Sremska Mitrovica	good	44.97639	26 Feb 2014	19.61222
Asia/Tokyo	Yao	accep	34.61667	24 Oct 2014	135.6
Europe/Prague	Karlovy Vary	excellent	50.23271	02/22/2021, 00:00:00	12.87117
Asia/Jakarta	Labuhan Deli	average	3.7278	2013-05-01	98.6738
Africa/Algiers	Thenia	accep	36.72544	07/19/2014, 00:00:00	3.55665
Europe/Moscow	Krymsk	good	44.92934	07/09/2016, 00:00:00	37.99117
Africa/Lubumbashi	Kamina	building	-8.73508	20 Nov 2012	24.99798
Asia/Kolkata	Deoli	average	25.75728	01 Sep 2019	75.37991
Africa/Cairo	Alexandria	accep	31.20176	2015/05/30	29.91582
America/Chicago	Hueytown	accep	33.45122	15 Jun 2017	-86.99666
Europe/Warsaw	Reda	accep	54.60528	2020-01-18	18.34717
Australia/Brisbane	Maryborough	good	-25.54073	2015-03-25	152.70493
America/Sao_Paulo	Pato Branco	excellent	-26.22861	2017/11/03	-52.67056
Asia/Riyadh	Al Jubayl	accep	27.0174	04/13/2016, 00:00:00	49.62251
Europe/London	Westbury	average	51.26	06/10/2021, 00:00:00	-2.1875
Asia/Manila	Naga	good	10.20898	02/13/2018, 00:00:00	123.758
Europe/Brussels	Lille	average	51.24197	2016-02-05	4.82313
Europe/Madrid	Villaquilambre	average	42.64685	2015-03-26	-5.55835
Europe/Berlin	Eppingen	accep	49.13645	2018/06/01	8.91229
America/Los_Angeles	Glendale	good	34.14251	2017/03/14	-118.25508
Asia/Bangkok	Phanat Nikhom	excellent	13.44581	2015-04-05	101.18445
Europe/Berlin	Verl	excellent	51.88333	2020/01/01	8.51667
Asia/Yerevan	Hrazdan	good	40.49748	01/05/2013, 00:00:00	44.7662
Europe/Lisbon	Paredes	accep	41.20485	2018-09-14	-8.33147
Europe/Berlin	Verl	accep	51.88333	12 May 2013	8.51667
Asia/Kolkata	Kenda	average	23.1959	2016-11-19	86.51499
Asia/Kolkata	Chamba	average	32.55531	2013-06-07	76.12647
America/Chicago	Rolla	excellent	37.95143	12 Mar 2015	-91.77127
Africa/Accra	Tarkwa	average	5.30383	05/21/2022, 00:00:00	-1.98956
America/Bogota	Socorro	accep	6.46838	05 Jul 2018	-73.26022
America/Sao_Paulo	Soledade	excellent	-28.81833	19 Nov 2020	-52.51028
Europe/Paris	Les Olives	excellent	43.32393	11/04/2013, 00:00:00	5.4584
Europe/London	Inverness	good	57.47908	2015-03-11	-4.22398
America/Bogota	Madrid	excellent	4.73245	03/04/2014, 00:00:00	-74.26419
America/Lima	Yunguyo	excellent	-16.25	11/08/2018, 00:00:00	-69.08333
Europe/London	Chapletown	accep	53.46506	03/04/2019, 00:00:00	-1.47217
America/Merida	Progreso	accep	21.28306	22 Feb 2014	-89.66123
Europe/Moscow	Buynaksk	good	42.819	05/14/2014, 00:00:00	47.1192
Asia/Manila	Calauan	excellent	14.14989	26 Feb 2021	121.3152
Europe/Lisbon	Custoias	accep	41.1053	08 Jul 2017	-7.32097
Asia/Bangkok	Kantharalak	building	14.64056	05/02/2017, 00:00:00	104.64992
Asia/Kolkata	Jashpurnagar	good	22.88783	04 Jan 2019	84.13864
Africa/Bamako	Kati	good	12.74409	2016/02/04	-8.07257
Asia/Yangon	Dawei	building	14.0823	2021/09/01	98.19151
America/Chicago	Odessa	good	31.84568	2013/05/19	-102.36764
Africa/Lagos	Ilesa	building	7.62789	03 May 2013	4.74161
Europe/Rome	Bisceglie	good	41.24264	2021/01/16	16.50104
America/Managua	Jinotepe	average	11.84962	11/09/2019, 00:00:00	-86.19903
Europe/Moscow	Kashira	building	54.84444	2013-02-03	38.16694
Africa/Casablanca	Temara	accep	33.92866	2020/11/19	-6.90656
Australia/Sydney	Griffith	building	-34.28853	2020-05-11	146.05093
Asia/Kolkata	Malaut	accep	30.21121	16 May 2021	74.4818
Europe/Kiev	Voznesensk	accep	47.56494	2022-09-05	31.33078
Asia/Shanghai	Jingzhou	building	30.35028	2014-01-30	112.19028
Europe/Moscow	Kovylkino	building	54.03876	2013-03-12	43.91385
Asia/Colombo	Hendala	accep	6.9909	15 Oct 2016	79.883
America/Santiago	La Ligua	excellent	-32.45242	2018/08/28	-71.23106
America/Sao_Paulo	Loanda	accep	-22.92306	21 Nov 2021	-53.13722
Asia/Kolkata	Madhipura	maintenance	25.92127	03/01/2019, 00:00:00	86.79271
Asia/Shanghai	Beidao	average	34.56861	2014/12/28	105.89333
Asia/Shanghai	Beidao	excellent	34.56861	2021/04/29	105.89333
Europe/Berlin	Hechingen	building	48.35149	06/22/2016, 00:00:00	8.96317
America/Los_Angeles	Visitacion Valley	average	37.71715	2020-10-25	-122.40433
Asia/Seoul	Goyang-si	accep	37.65639	07/30/2018, 00:00:00	126.835
Asia/Yekaterinburg	Tavda	accep	58.04254	2021/06/01	65.27258
Europe/Moscow	Arzamas	excellent	55.39485	2014/10/18	43.83992
Asia/Kolkata	Kalavoor	maintenance	9.57046	08/11/2017, 00:00:00	76.32756
Asia/Kolkata	Haldwani	accep	29.22254	2013/10/25	79.5286
America/Los_Angeles	Troutdale	good	45.53929	03/30/2015, 00:00:00	-122.38731
Europe/Madrid	Reus	accep	41.15612	2013/10/13	1.10687
America/Bahia	Muritiba	accep	-12.91667	20 Nov 2017	-39.25
America/Chicago	Rolla	accep	37.95143	08 Sep 2019	-91.77127
Europe/London	Clacton-on-Sea	accep	51.78967	13 Jan 2013	1.15597
America/Chicago	Fairview Heights	building	38.58894	2019/04/30	-89.99038
America/Los_Angeles	Visitacion Valley	good	37.71715	2021/08/28	-122.40433
America/Indiana/Indianapolis	Greenfield	accep	39.78504	05/08/2017, 00:00:00	-85.76942
Europe/Rome	Novara	good	45.44694	07/22/2022, 00:00:00	8.62118
Europe/Berlin	Neuburg an der Donau	average	48.73218	2013-05-12	11.18709
Africa/Brazzaville	Brazzaville	building	-4.26613	2012-10-11	15.28318
America/Recife	Recife	good	-8.05389	2021/11/06	-34.88111
America/Port_of_Spain	Port of Spain	excellent	10.66668	11/15/2012, 00:00:00	-61.51889
America/Los_Angeles	Watsonville	average	36.91023	2015-01-15	-121.75689
America/Denver	Carlsbad	building	32.42067	05/10/2021, 00:00:00	-104.22884
Asia/Karachi	Larkana	accep	27.55898	2021/06/29	68.21204
Europe/Berlin	Ehingen	good	48.28259	09 Jun 2017	9.72749
America/Caracas	Ciudad Guayana	building	8.35122	2013-01-19	-62.64102
Europe/Berlin	Verl	excellent	51.88333	2021/04/13	8.51667
America/Chicago	Hutchinson	good	38.06084	07/16/2017, 00:00:00	-97.92977
Asia/Jakarta	Besuki	good	-7.73379	2022/01/10	113.69785
Asia/Jakarta	Sukabumi	excellent	-6.91806	2019/12/21	106.92667
Europe/Istanbul	Edremit	excellent	39.59611	2015/11/26	27.02444
America/Maceio	Barra dos Coqueiros	excellent	-10.90889	03/24/2021, 00:00:00	-37.03861
Europe/Moscow	Volokolamsk	excellent	56.03361	16 Aug 2021	35.96944
Asia/Manila	Santa Catalina	good	9.3337	2017/08/26	122.8637
America/New_York	North Lauderdale	accep	26.2173	2015/05/31	-80.22588
America/New_York	Milledgeville	good	33.08014	2013/06/18	-83.2321
Asia/Yangon	Dawei	building	14.0823	06/01/2016, 00:00:00	98.19151
Asia/Manila	Manaoag	accep	16.0438	24 Dec 2019	120.4861
Europe/Kiev	Hlukhiv	maintenance	51.67822	2017/12/16	33.9162
America/Argentina/Buenos_Aires	Tandil	average	-37.32167	2019/07/03	-59.13316
Asia/Seoul	Sinhyeon	excellent	34.8825	22 Mar 2018	128.62667
Asia/Kolkata	Gorakhpur	excellent	26.76628	09 Mar 2014	83.36889
America/New_York	Woodlawn	building	39.32288	05/27/2013, 00:00:00	-76.72803
Europe/Paris	Pamiers	accep	43.11667	2017/03/24	1.6
America/Argentina/Buenos_Aires	Tandil	maintenance	-37.32167	02 Nov 2018	-59.13316
America/Chicago	Independence	accep	39.09112	2018-07-26	-94.41551
Asia/Manila	Tupi	building	6.33444	2016/12/23	124.95278
Africa/Dar_es_Salaam	Mwandiga	maintenance	-4.83	2020-03-30	29.65806
America/Puerto_Rico	Yauco	building	18.03496	11/18/2012, 00:00:00	-66.8499
Europe/Berlin	Finnentrop	average	51.168	2018-05-04	7.973
Africa/Algiers	Ksar Chellala	excellent	35.21222	2021/04/08	2.31889
America/Toronto	Dorval	accep	45.4473	2021-03-26	-73.75335
Asia/Kuala_Lumpur	Kampung Ayer Molek	average	2.2139	2013-09-29	102.3278
Asia/Tokyo	Ina	excellent	35.82756	2013/05/24	137.95378
Asia/Hong_Kong	Tsuen Wan	accep	22.37066	07/15/2015, 00:00:00	114.10479
America/Sao_Paulo	Guapimirim	building	-22.53722	2021/10/19	-42.98194
America/Santo_Domingo	Santa Cruz de Barahona	excellent	18.20854	17 Jun 2016	-71.10077
America/Maceio	Barra dos Coqueiros	building	-10.90889	2016/06/20	-37.03861
America/Puerto_Rico	Yauco	good	18.03496	2015-06-03	-66.8499
Asia/Kolkata	Patti	average	31.28092	2014-07-08	74.85849
Europe/London	Belper	accep	53.0233	2021/05/20	-1.48119
America/Argentina/Ushuaia	Ushuaia	average	-54.8	10/13/2017, 00:00:00	-68.3
Australia/Melbourne	Carnegie	average	-37.88333	01/17/2015, 00:00:00	145.06667
Africa/Lubumbashi	Beni	excellent	0.49113	07/16/2018, 00:00:00	29.47306
Europe/Warsaw	Brzeg	average	50.86079	08/29/2020, 00:00:00	17.4674
America/Toronto	Pointe-Claire	acceptable	45.44868	2018/03/05	-73.81669
Europe/Moscow	Yeysk	average	46.7055	2012/11/02	38.2739
America/Chicago	Searcy	average	35.25064	2020/01/28	-91.73625
Africa/Johannesburg	Standerton	accep	-26.93366	06/30/2016, 00:00:00	29.24152
America/New_York	Mechanicsville	building	37.60876	2019/11/04	-77.37331
Europe/Berlin	Stade	good	53.59337	10 Mar 2020	9.47629
Europe/Vilnius	Ukmerge	average	55.25	23 Feb 2018	24.75
America/Sao_Paulo	Itabirito	accep	-20.25333	05/24/2019, 00:00:00	-43.80139
America/Lima	Chosica	average	-11.94306	2019-01-22	-76.70944
Europe/Berlin	Bensheim	excellent	49.68369	2015/07/22	8.61839
Europe/Kiev	Lutsk	average	50.75932	18 Mar 2016	25.34244
America/Bogota	Andes	average	5.6561	2022/06/15	-75.87877
Asia/Bangkok	Nakhon Si Thammarat	maintenance	8.43333	2014-03-12	99.96667
America/Guayaquil	Milagro	average	-2.13404	08 Nov 2013	-79.59415
America/Los_Angeles	American Canyon	accep	38.17492	2014/12/13	-122.2608
Asia/Yangon	Kyaikto	maintenance	17.30858	2019-09-29	97.01124
America/New_York	East Haven	excellent	41.27621	2022-07-15	-72.86843
Europe/Istanbul	Gaziantep	good	37.05944	2019-06-20	37.3825
Europe/Istanbul	Silvan	good	38.13708	2021-06-08	41.00817
Asia/Bangkok	Thap Than	average	15.46063	24 Sep 2021	99.89166
Asia/Kolkata	Dombivli	excellent	19.21667	04/09/2013, 00:00:00	73.08333
Europe/Amsterdam	Schiebroek	excellent	51.95838	2020/06/23	4.47124
America/Chicago	Estelle	average	29.84576	2015-07-05	-90.10674
Europe/Madrid	Caravaca	average	38.10558	2017-11-30	-1.86343
Europe/Amsterdam	Barneveld	acceptable	52.14	12/29/2015, 00:00:00	5.58472
America/Fortaleza	Pedro II	average	-4.42472	21 Jul 2017	-41.45861
Europe/Skopje	Saraj	excellent	42	02/05/2016, 00:00:00	21.32778
America/Los_Angeles	Opportunity	average	47.64995	2020/04/12	-117.23991
Australia/Sydney	Strathfield	good	-33.88096	2015/08/29	151.07986
America/New_York	Port Richmond	average	40.63316	04/05/2022, 00:00:00	-74.13653
America/Mexico_City	Santa Rosa Jauregui	excellent	20.74122	11/27/2018, 00:00:00	-100.44843
Asia/Kolkata	Chharra	excellent	27.9247	2020/03/05	78.40102
Europe/Berlin	Gronau	maintenance	52.21099	2021/01/07	7.02238
America/New_York	Bon Air	good	37.52487	15 Nov 2014	-77.55777
Asia/Karachi	Larkana	accep	27.55898	2014/04/06	68.21204
Europe/Kiev	Voznesensk	building	47.56494	09 Aug 2017	31.33078
America/Chicago	Hutchinson	average	38.06084	07/18/2014, 00:00:00	-97.92977
America/Los_Angeles	Aloha	excellent	45.49428	24 Dec 2012	-122.86705
Europe/Moscow	Naro-Fominsk	excellent	55.38752	07/06/2014, 00:00:00	36.73307
Europe/Istanbul	Silvan	good	38.13708	2018/05/23	41.00817
Europe/Madrid	Cardedeu	average	41.63976	27 Jan 2014	2.35739
Europe/Berlin	Stuttgart	good	48.78232	08/20/2018, 00:00:00	9.17702
Asia/Jerusalem	Ganei Tikva	maintenance	32.05971	2016-11-08	34.8732
Asia/Shanghai	Zhoucun	average	36.81667	08/30/2019, 00:00:00	117.81667
America/New_York	Collinwood	excellent	41.55838	2021-09-11	-81.56929
Europe/Rome	Campobasso	average	41.55947	2022/03/27	14.66737
Asia/Karachi	Hasilpur	maintenance	29.69221	10/11/2020, 00:00:00	72.54566
Asia/Makassar	Tarakan	accep	3.31332	2018-11-11	117.59152
Europe/Madrid	Villaquilambre	excellent	42.64685	2019-11-09	-5.55835
America/Mexico_City	San Lorenzo Acopilco	accep	19.32889	2022/08/17	-99.32556
Africa/Casablanca	Jerada	maintenance	34.31	2017-01-12	-2.16
America/Tegucigalpa	Olanchito	maintenance	15.48131	2018/02/05	-86.57415
Asia/Jakarta	Pekanbaru	good	0.51667	2021-10-24	101.44167
Asia/Tokyo	Annaka	excellent	36.33011	25 Nov 2018	138.89585
Asia/Shanghai	Zhoucun	good	36.81667	05/01/2022, 00:00:00	117.81667
Asia/Manila	Jagna	building	9.6531	2018-04-29	124.3697
Asia/Jakarta	Muncar	accep	-8.43333	06 Apr 2020	114.33333
Europe/London	Great Wyrley	average	52.66277	07/13/2018, 00:00:00	-2.01111
Europe/Zaporozhye	Svatove	good	49.41029	2020/07/16	38.15035
Asia/Karachi	Fazilpur	building	32.17629	27 Jun 2013	75.06583
Asia/Kolkata	Chamba	accep	32.55531	23 Jun 2015	76.12647
America/Chicago	Lino Lakes	good	45.16024	14 Jan 2021	-93.08883
America/Mexico_City	Oaxaca	good	17.06542	10 Jan 2016	-96.72365
Asia/Jakarta	Kediri	excellent	-7.81667	08 Apr 2019	112.01667
Asia/Manila	Pilar	average	14.66	05/28/2021, 00:00:00	120.56528
Africa/Algiers	Frenda	average	35.06544	2016/07/20	1.04945
Asia/Kolkata	Elamanchili	good	17.54907	2019-10-11	82.85749
Asia/Riyadh	Al Jubayl	maintenance	27.0174	07 Jul 2018	49.62251
America/New_York	Yonkers	maintenance	40.93121	16 Jul 2013	-73.89875
America/Caracas	Ciudad Guayana	accep	8.35122	2015-04-02	-62.64102
Asia/Kolkata	Deoli	maintenance	25.75728	01 Mar 2014	75.37991
Australia/Perth	Perth	maintenance	-31.95224	2014/11/05	115.8614
America/New_York	Harrisburg	accep	40.2737	02/05/2017, 00:00:00	-76.88442
Africa/Lagos	Biu	accep	10.61285	22 May 2017	12.19458
Australia/Sydney	Strathfield	average	-33.88096	09 Dec 2021	151.07986
Australia/Perth	Perth	accep	-31.95224	26 May 2013	115.8614
America/Denver	Carlsbad	excellent	32.42067	06/05/2017, 00:00:00	-104.22884
America/Chicago	South Lawndale	good	41.84364	26 Sep 2021	-87.71255
Asia/Jakarta	Pekanbaru	accep	0.51667	2017-02-03	101.44167
Asia/Manila	Burgos	accep	15.72892	2020/02/11	120.57224
Europe/Moscow	Alatyr‚Äô	average	54.8421	08/15/2016, 00:00:00	46.5813
Asia/Tokyo	Namerikawa	average	36.75965	2018/10/25	137.36215
America/Manaus	Itacoatiara	average	-3.14306	07/11/2015, 00:00:00	-58.44417
Indian/Antananarivo	Sakaraha	excellent	-22.9	2021-12-09	44.53333
Asia/Kolkata	Supaul	average	26.11527	2013-05-16	86.59509
Africa/Nairobi	Lodwar	average	3.11988	01/27/2014, 00:00:00	35.59642
Asia/Makassar	Tarakan	accep	3.31332	08/09/2020, 00:00:00	117.59152
America/Chicago	Columbia Heights	accep	45.0408	2013/09/15	-93.263
Africa/Tunis	El Alia	accep	37.16911	04/30/2018, 00:00:00	10.03478
America/Fortaleza	Barras	excellent	-4.24444	2021/03/15	-42.29444
America/Chicago	Hueytown	accep	33.45122	18 May 2016	-86.99666
Asia/Hebron	East Jerusalem	good	31.78336	12 Feb 2018	35.23388
Europe/Moscow	Yeysk	maintenance	46.7055	2021/11/11	38.2739
Asia/Tokyo	Iwade	good	34.25	2017-12-03	135.31667
America/Puerto_Rico	Aguadilla	maintenance	18.42745	2019-12-05	-67.15407
Africa/Cairo	Juhaynah	average	26.67319	10/27/2021, 00:00:00	31.4976
Asia/Seoul	Nonsan	average	36.20389	2022-05-28	127.08472
Africa/Dar_es_Salaam	Magomeni	excellent	-6.8	2015/08/13	39.25
America/Chicago	Brentwood Estates	maintenance	36.02506	2013/04/01	-86.77917
America/Chicago	Evergreen Park	average	41.72059	07/19/2013, 00:00:00	-87.70172
Asia/Aqtobe	Shalqar	good	47.83333	18 Dec 2012	59.6
Asia/Tokyo	Toba	accep	34.4833	20 Apr 2018	136.84186
Asia/Urumqi	Hoxtolgay	accep	46.51872	10/27/2013, 00:00:00	86.00214
America/Argentina/Buenos_Aires	Barracas	accep	-34.64966	21 Sep 2021	-58.38341
Europe/London	Belper	building	53.0233	07/05/2017, 00:00:00	-1.48119
Asia/Aqtobe	Shalqar	good	47.83333	06/14/2015, 00:00:00	59.6
Europe/Moscow	Gavrilov-Yam	maintenance	57.30185	2019/05/14	39.85331
Asia/Bangkok	Roi Et	excellent	16.0567	2018-05-14	103.65309
Asia/Bangkok	Thap Than	excellent	15.46063	2018-03-05	99.89166
Asia/Phnom_Penh	Paoy Paet	average	13.65805	12 Mar 2019	102.56365
America/Chicago	Brenham	maintenance	30.16688	2012/12/03	-96.39774
America/New_York	Scarsdale	average	41.0051	01/14/2017, 00:00:00	-73.78458
Europe/Minsk	Dobrush	accep	52.4089	08/03/2017, 00:00:00	31.3237
Asia/Jakarta	Pekanbaru	maintenance	0.51667	09/10/2020, 00:00:00	101.44167
America/Toronto	Pointe-Claire	accep	45.44868	10 Aug 2014	-73.81669
America/New_York	Taunton	building	41.9001	05/30/2014, 00:00:00	-71.08977
Asia/Urumqi	Hoxtolgay	average	46.51872	2020/09/18	86.00214
Europe/Warsaw	Jaworzno	maintenance	50.20528	2014/01/12	19.27498
Asia/Riyadh	Al Jubayl	average	27.0174	2019-07-30	49.62251
America/Chicago	Searcy	good	35.25064	03 Oct 2021	-91.73625
Asia/Kolkata	Hungund	average	16.06213	08/29/2022, 00:00:00	76.0586
Europe/Paris	Marly-le-Roi	accep	48.86667	14 Aug 2015	2.08333
Europe/Tallinn	Narva	excellent	59.37722	2013/02/24	28.19028
America/New_York	East Haven	building	41.27621	2020-02-06	-72.86843
Europe/London	Devizes	accep	51.35084	15 Jan 2021	-1.99421
Europe/Helsinki	Tornio	good	65.84811	20 Jun 2022	24.14662
Asia/Kolkata	Elamanchili	maintenance	17.54907	01 Feb 2015	82.85749
Asia/Kolkata	Meerut	good	28.98002	07/24/2016, 00:00:00	77.70636
America/Caracas	Tinaquillo	average	9.91861	2018/09/25	-68.30472
Africa/Khartoum	Ar Ruseris	average	11.8659	04/16/2020, 00:00:00	34.3869
Europe/Paris	Pamiers	excellent	43.11667	09/10/2021, 00:00:00	1.6
America/Los_Angeles	Bryn Mawr-Skyway	excellent	47.4943	10/23/2020, 00:00:00	-122.24092
Europe/Paris	Colomiers	excellent	43.61058	2017-08-08	1.33467
Europe/Rome	Campobasso	accep	41.55947	2015/01/05	14.66737
Indian/Antananarivo	Ikalamavony	good	-21.15	03 Apr 2014	46.58333
Europe/Berlin	Barmbek-Nord	excellent	53.6052	2021/11/08	10.03988
America/Bogota	Andes	average	5.6561	25 Dec 2017	-75.87877
America/Matamoros	Heroica Matamoros	good	25.87972	04 Sep 2020	-97.50417
Europe/London	Poulton-le-Fylde	accep	53.83333	21 Mar 2015	-2.98333
Asia/Shanghai	Yingkou	maintenance	40.66482	2014-12-24	122.22833
Asia/Kuala_Lumpur	Teluk Intan	building	4.02219	2016-08-29	101.02083
Asia/Kolkata	Dharmapuri	accep	12.1277	2014-07-07	78.15794
Europe/Berlin	Bretten	accep	49.03685	11/12/2017, 00:00:00	8.70745
Asia/Kolkata	Kheda	excellent	22.75218	05/07/2018, 00:00:00	72.68533
America/New_York	Utica	excellent	43.1009	2021-01-27	-75.23266
Asia/Bangkok	Damnoen Saduak	excellent	13.51825	2017-07-22	99.95469
America/New_York	Belle Glade	excellent	26.68451	24 Oct 2016	-80.66756
America/New_York	Martinsburg	accep	39.45621	2022-09-25	-77.96389
Europe/Paris	Montpellier	excellent	43.61092	20 Feb 2020	3.87723
Europe/Amsterdam	Barneveld	good	52.14	08/10/2013, 00:00:00	5.58472
Africa/Bamako	Kati	excellent	12.74409	2020-01-24	-8.07257
Europe/Moscow	Volokolamsk	good	56.03361	06/02/2017, 00:00:00	35.96944
Asia/Bangkok	Thap Than	good	15.46063	04/06/2013, 00:00:00	99.89166
Asia/Kuala_Lumpur	Ulu Tiram	maintenance	1.6	2019/10/03	103.81667
America/Santarem	Altamira	good	-3.20333	2014/04/11	-52.20639
Asia/Kolkata	Malaut	good	30.21121	2021-05-20	74.4818
Europe/London	Rhosllanerchrugog	good	53.00974	2022/07/31	-3.05814
Australia/Sydney	Griffith	accep	-34.28853	15 Jul 2019	146.05093
Europe/Rome	Perugia	accep	43.1122	08/15/2021, 00:00:00	12.38878
Atlantic/Azores	Ponta Delgada	accep	37.74615	2016-10-11	-25.66689
Europe/Berlin	Landshut	excellent	48.52961	06 Jun 2013	12.16179
America/Sao_Paulo	Curitiba	average	-25.42778	28 Jul 2021	-49.27306
America/Denver	Aurora	good	39.72943	2019-02-04	-104.83192
America/Mexico_City	San Lorenzo Acopilco	average	19.32889	2013-10-18	-99.32556
Asia/Colombo	Hendala	excellent	6.9909	2015-10-20	79.883
Asia/Kuching	Donggongon	maintenance	5.90702	10 Aug 2019	116.10146
Australia/Melbourne	Wheelers Hill	good	-37.9	08/29/2022, 00:00:00	145.18333
Asia/Baghdad	Karbala	building	32.61603	2022-08-22	44.02488
America/New_York	Fort Washington	good	38.70734	2016/05/22	-77.02303
Asia/Kuala_Lumpur	Gua Musang	maintenance	4.88441	2015-12-14	101.96857
America/New_York	Chillum	average	38.96372	2015/06/07	-76.99081
Asia/Urumqi	Hoxtolgay	good	46.51872	11 Feb 2017	86.00214
America/Port-au-Prince	Thomazeau	good	18.65297	10/30/2019, 00:00:00	-72.09391
Europe/London	Strood	accep	51.39323	2014/05/28	0.47713
Australia/Sydney	Griffith	good	-34.28853	28 Jan 2022	146.05093
Asia/Shanghai	Jingzhou	average	30.35028	07/03/2014, 00:00:00	112.19028
Asia/Kolkata	Osmanabad	excellent	18.18158	2014/04/20	76.03889
Africa/Dar_es_Salaam	Mvomero	maintenance	-6.25	09/11/2018, 00:00:00	38.66667
America/Chicago	South Lawndale	good	41.84364	03/08/2018, 00:00:00	-87.71255
Asia/Dhaka	Kushtia	building	23.9028	2018/03/08	89.11943
Asia/Kolkata	Rajaori	excellent	33.37526	20 Feb 2013	74.3092
America/Merida	Progreso	accep	21.28306	2013-08-06	-89.66123
Asia/Tehran	Shahre Jadide Andisheh	accep	35.6803	01/02/2016, 00:00:00	51.0193
Africa/Kampala	Arua	accep	3.02013	07/16/2017, 00:00:00	30.91105
Africa/Addis_Ababa	Debre Tabor	accep	11.85	07/01/2022, 00:00:00	38.01667
Asia/Kolkata	Pune	average	18.51957	02/07/2016, 00:00:00	73.85535
America/Los_Angeles	Bryn Mawr-Skyway	good	47.4943	2012-10-07	-122.24092
Europe/Rome	Catania	good	37.49223	2021/06/23	15.07041
Europe/Bratislava	Skalica	good	48.8449	2017/02/06	17.22635
Asia/Tokyo	Toba	good	34.4833	17 Nov 2012	136.84186
Europe/Berlin	Oschatz	good	51.30001	09/20/2022, 00:00:00	13.10984
Europe/Vilnius	Ukmerge	excellent	55.25	16 Mar 2017	24.75
Europe/Rome	Lanciano	excellent	42.22718	20 Oct 2015	14.39024
America/Santiago	Ovalle	building	-30.60106	11/01/2016, 00:00:00	-71.19901
Europe/Zurich	Onex	average	46.18396	10 Aug 2019	6.10237
Europe/Brussels	Mouscron	maintenance	50.74497	2019-06-18	3.20639
America/El_Salvador	Sonzacate	accep	13.73417	06/23/2017, 00:00:00	-89.71472
Asia/Almaty	Zaysan	maintenance	47.46657	15 Jul 2019	84.87144
Asia/Kolkata	Gingee	maintenance	12.25282	2016/03/25	79.41727
America/Denver	Ken Caryl	average	39.57582	2020-06-23	-105.11221
Europe/London	Southsea	accep	50.79205	09/12/2015, 00:00:00	-1.08593
Europe/Warsaw	Strzelce Opolskie	building	50.5107	2016-10-25	18.30056
Asia/Tokyo	Gero	building	35.8	19 Jun 2020	137.23333
Europe/Berlin	Weimar	average	50.9803	2020/04/22	11.32903
America/New_York	Punta Gorda Isles	average	26.91756	2016/07/06	-82.07842
Asia/Kolkata	Sirsi	accep	14.62072	31 Aug 2019	74.83554
Europe/Madrid	Caravaca	good	38.10558	2017-01-03	-1.86343
Africa/Accra	Tarkwa	maintenance	5.30383	28 Jul 2019	-1.98956
America/Chicago	Kaukauna	average	44.27804	2020-09-15	-88.27205
Asia/Tokyo	Shinshiro	good	34.9	2020-09-03	137.5
Asia/Karachi	Khairpur Mir‚Äôs	accep	27.52948	05/09/2019, 00:00:00	68.75915
Asia/Manila	Santa Catalina	accep	9.3337	2022/06/11	122.8637
America/Tegucigalpa	Olanchito	accep	15.48131	2017-12-27	-86.57415
Europe/Zurich	Adliswil	building	47.30997	2019/01/14	8.52462
Asia/Tokyo	Hakodate	excellent	41.77583	2020/06/13	140.73667
Africa/Windhoek	Okahandja	accep	-21.98333	2019/03/04	16.91667
Asia/Tokyo	Iwade	average	34.25	17 Sep 2013	135.31667
America/Puerto_Rico	Yauco	excellent	18.03496	04/03/2016, 00:00:00	-66.8499
Asia/Tokyo	Annaka	building	36.33011	01 Oct 2013	138.89585
America/Los_Angeles	Claremont	average	34.09668	2014-08-03	-117.71978
America/Port-au-Prince	Croix-des-Bouquets	good	18.57677	2021-06-26	-72.22625
Asia/Aden	Ataq	maintenance	14.53767	04/14/2014, 00:00:00	46.83187
America/Bogota	Socorro	maintenance	6.46838	01/12/2021, 00:00:00	-73.26022
Europe/Zaporozhye	Polohy	excellent	47.48444	07/22/2017, 00:00:00	36.25361
America/Bogota	Madrid	good	4.73245	01/01/2015, 00:00:00	-74.26419
Asia/Seoul	Sinhyeon	accep	34.8825	2013-03-29	128.62667
Asia/Manila	Manaoag	excellent	16.0438	03 Feb 2017	120.4861
America/Mexico_City	Jocotepec	good	20.28527	06 Apr 2013	-103.42897
Europe/Madrid	Talavera de la Reina	excellent	39.96348	2019/05/31	-4.83076
Europe/Moscow	Valday	accep	57.97472	12/06/2021, 00:00:00	33.2525
Europe/Paris	Colomiers	excellent	43.61058	2022/03/24	1.33467
Asia/Tokyo	Namerikawa	accep	36.75965	2021-07-16	137.36215
Asia/Colombo	Hendala	accep	6.9909	2019/03/15	79.883
America/Argentina/Buenos_Aires	Barracas	maintenance	-34.64966	2022/01/12	-58.38341
Asia/Dili	Maliana	accep	-8.99167	01/27/2018, 00:00:00	125.21972
Australia/Melbourne	Frankston South	good	-38.16604	2014/11/27	145.13643
Europe/Berlin	Wittenau	excellent	52.59319	23 Sep 2019	13.32127
Asia/Kolkata	Amreli	maitennce	21.59983	2015/11/28	71.21169
Indian/Antananarivo	Ikalamavony	maintenance	-21.15	2016/08/01	46.58333
Asia/Tehran	Darreh Shahr	average	33.14447	08/16/2021, 00:00:00	47.3799
Asia/Tokyo	Ueno-ebisumachi	average	34.75856	2021-02-16	136.13108
Europe/Rome	Francavilla Fontana	good	40.53123	26 Sep 2021	17.58522
Asia/Riyadh	Al Jubayl	good	27.0174	16 May 2017	49.62251
Asia/Urumqi	Hoxtolgay	average	46.51872	2014-07-02	86.00214
Australia/Sydney	Nowra	good	-34.88422	21 Sep 2022	150.60036
Asia/Tokyo	Ina	excellent	35.82756	2021-10-28	137.95378
Asia/Karachi	Sillanwali	good	31.82539	10/16/2012, 00:00:00	72.54064
America/Argentina/Buenos_Aires	Pontevedra	accep	-34.74785	2018/06/23	-58.70072
America/Belem	Soure	accep	-0.71667	2014-01-12	-48.52333
Asia/Bangkok	Bua Yai	maintenance	15.58552	02/22/2020, 00:00:00	102.42587
Asia/Bangkok	Yasothon	excellent	15.79408	2022/08/23	104.1451
Europe/Kiev	Artsyz	maintenance	45.99194	2015/04/02	29.41824
America/New_York	Woodbridge	average	40.5576	15 Jun 2017	-74.28459
America/New_York	Scarsdale	average	41.0051	2013/06/29	-73.78458
America/New_York	Taunton	building	41.9001	01/26/2015, 00:00:00	-71.08977
America/Port_of_Spain	Port of Spain	average	10.66668	03/13/2013, 00:00:00	-61.51889
Europe/Moscow	Petrozavodsk	average	61.78491	2015-05-03	34.34691
America/Los_Angeles	Aloha	average	45.49428	2016/03/23	-122.86705
Africa/Nairobi	Nyahururu	accep	0.03813	02/07/2013, 00:00:00	36.36339
America/Sao_Paulo	Itabirito	excellent	-20.25333	13 Jun 2017	-43.80139
America/New_York	West Chester	building	39.96097	2022/04/05	-75.60804
America/New_York	Clermont	average	28.54944	2022/03/22	-81.77285
Europe/Rome	Catania	average	37.49223	2019/09/13	15.07041
America/New_York	Newburgh	average	41.50343	2014-02-27	-74.01042
Australia/Sydney	Nowra	good	-34.88422	03/23/2022, 00:00:00	150.60036
Pacific/Auckland	Gisborne	good	-38.65333	2020-10-26	178.00417
Africa/Lagos	Shagamu	good	6.8485	2021-12-03	3.64633
Europe/Paris	Gonesse	maintenance	48.98693	12/11/2020, 00:00:00	2.44892
America/Glace_Bay	Sydney	excellent	46.1351	03 Sep 2013	-60.1831
Europe/Paris	Gonesse	average	48.98693	25 Mar 2014	2.44892
Europe/Madrid	Novelda	good	38.38479	05/22/2016, 00:00:00	-0.76773
America/El_Salvador	Sonzacate	building	13.73417	08/03/2022, 00:00:00	-89.71472
Asia/Kolkata	Aklera	maintenance	24.41288	05/23/2016, 00:00:00	76.56719
Europe/Berlin	Rudolstadt	good	50.72043	11/25/2013, 00:00:00	11.34046
Europe/Rome	Cordenons	good	45.9836	01 Feb 2021	12.70038
Asia/Shanghai	Meizhou	average	24.28859	12 Oct 2012	116.11768
Europe/Berlin	Kirchlengern	maintenance	52.2	2013-03-31	8.63333
America/New_York	Utica	building	43.1009	2015-03-07	-75.23266
Africa/Porto-Novo	Tchaourou	average	8.88649	26 Aug 2018	2.59753
Europe/Dublin	Athlone	average	53.43333	02/12/2020, 00:00:00	-7.95
Europe/Berlin	Reutlingen	maintenance	48.49144	02/07/2015, 00:00:00	9.20427
America/Jamaica	New Kingston	building	18.00747	08/29/2019, 00:00:00	-76.78319
Africa/Johannesburg	Vryheid	maintenance	-27.76952	09/02/2015, 00:00:00	30.79165
Europe/Berlin	Radevormwald	excellent	51.20219	19 Mar 2019	7.36027
Europe/Berlin	Finnentrop	average	51.168	2020-05-12	7.973
Europe/Madrid	San Juan de Aznalfarache	average	37.35813	2019/05/26	-6.03731
Europe/Kiev	Kherson	accep	46.65581	2017-02-08	32.6178
America/Lima	Yunguyo	good	-16.25	05 Oct 2015	-69.08333
Europe/Paris	Saint-Genis-Laval	average	45.69558	25 Jan 2018	4.7934
Asia/Jakarta	Pameungpeuk	excellent	-7.01833	2015/09/03	107.60389
Asia/Taipei	Magong	accep	23.5654	10 Mar 2021	119.58627
Europe/Kiev	Krasyliv	good	49.65186	2015-01-02	26.97253
Asia/Kuala_Lumpur	Kampung Ayer Molek	excellent	2.2139	2019-04-01	102.3278
America/New_York	Martinsburg	good	39.45621	04 Jan 2021	-77.96389
Asia/Kolkata	Kheda	maintenance	22.75218	02/05/2019, 00:00:00	72.68533
Asia/Bangkok	Yasothon	accep	15.79408	24 Nov 2012	104.1451
Europe/London	Strood	accep	51.39323	2019-02-22	0.47713
Europe/Rome	Falconara Marittima	accep	43.62558	2017-08-05	13.39954
America/Chicago	Odessa	good	31.84568	23 Aug 2021	-102.36764
America/Chicago	Rolla	building	37.95143	2014-05-03	-91.77127
Europe/Berlin	Marburg an der Lahn	excellent	50.80904	09 Jul 2015	8.77069
Asia/Shanghai	Hengshui	average	37.73222	04/23/2018, 00:00:00	115.70111
Asia/Kuala_Lumpur	Ulu Tiram	good	1.6	2013-11-23	103.81667
America/Argentina/Buenos_Aires	Chacabuco	building	-34.64167	07 Jun 2016	-60.47389
Europe/Moscow	Volokolamsk	good	56.03361	10/03/2014, 00:00:00	35.96944
Asia/Shanghai	Foshan	good	23.02677	2014-12-23	113.13148
Europe/Berlin	Memmingen	excellent	47.98372	07 Sep 2015	10.18527
Africa/Tripoli	Ajdabiya	excellent	30.75545	2015/11/10	20.22625
Europe/Berlin	Zeitz	good	51.04962	2014-01-22	12.1369
Europe/Kiev	Artsyz	average	45.99194	2021/09/04	29.41824
Asia/Karachi	Larkana	excellent	27.55898	14 Jan 2015	68.21204
Atlantic/Canary	Maspalomas	good	27.76056	2021-12-17	-15.58602
Africa/Casablanca	Azrou	accep	33.43443	25 Jul 2018	-5.22126
Asia/Kolkata	Gorakhpur	accep	26.76628	2016/06/06	83.36889
Asia/Shanghai	Hushitai	excellent	41.94175	2021/10/16	123.50266
Australia/Melbourne	Frankston South	good	-38.16604	2022/06/09	145.13643
Europe/Berlin	Trossingen	excellent	48.07667	12/17/2015, 00:00:00	8.64409
Europe/Rome	Falconara Marittima	excellent	43.62558	2019-11-28	13.39954
Europe/Brussels	Wevelgem	good	50.8	2022-04-06	3.16667
Europe/Moscow	Stupino	excellent	54.90083	12/04/2017, 00:00:00	38.07083
Asia/Tokyo	Kamakura	average	35.30889	09/19/2014, 00:00:00	139.55028
Australia/Perth	Willetton	maintenance	-32.05251	23 Aug 2016	115.88782
Africa/Algiers	Thenia	good	36.72544	2014/09/29	3.55665
Europe/Rome	Malnate	excellent	45.79377	20 Aug 2013	8.88104
Europe/Moscow	Arzamas	average	55.39485	31 Jan 2021	43.83992
America/Santiago	Chiguayante	excellent	-36.9256	2022/05/17	-73.02841
Asia/Bangkok	Kantharalak	average	14.64056	19 Oct 2014	104.64992
Europe/Bratislava	Hlohovec	excellent	48.43174	2022-01-12	17.8031
Europe/Berlin	Weimar	maintenance	50.9803	05/01/2019, 00:00:00	11.32903
America/Fortaleza	Pedro II	excellent	-4.42472	05 May 2019	-41.45861
Asia/Hong_Kong	Tsuen Wan	good	22.37066	05/09/2015, 00:00:00	114.10479
Asia/Kolkata	Rangia	accep	26.44931	22 May 2019	91.61356
Europe/Berlin	Rudolstadt	excellent	50.72043	04 Jun 2015	11.34046
Europe/Amsterdam	Zeist	average	52.09	04/27/2015, 00:00:00	5.23333
America/Chicago	Greenville	accep	33.41012	2015-12-13	-91.06177
Europe/Warsaw	Reda	excellent	54.60528	2015/05/19	18.34717
Asia/Kolkata	Deoli	average	25.75728	20 Aug 2017	75.37991
Asia/Tokyo	Gero	good	35.8	04 Nov 2020	137.23333
America/Bogota	Socorro	average	6.46838	09/23/2016, 00:00:00	-73.26022
Asia/Kolkata	Robertsonpet	excellent	12.95629	2019/05/18	78.27539
America/Los_Angeles	Aloha	maintenance	45.49428	07/14/2020, 00:00:00	-122.86705
Asia/Kolkata	Kheda	accep	22.75218	2018/06/05	72.68533
Europe/Berlin	Gauting	building	48.06919	12 Oct 2018	11.37703
Asia/Urumqi	Hoxtolgay	average	46.51872	2017-09-27	86.00214
Europe/Kiev	Hlukhiv	accep	51.67822	05/12/2017, 00:00:00	33.9162
America/Los_Angeles	Sunnyside	excellent	46.32374	2021-08-16	-120.00865
America/Santiago	Chiguayante	excellent	-36.9256	2018-07-18	-73.02841
Europe/Vienna	Sankt Peter	average	47.05	2019-04-25	15.46667
Asia/Karachi	Hasilpur	accep	29.69221	2018-12-26	72.54566
Europe/Paris	Pamiers	excellent	43.11667	11/19/2013, 00:00:00	1.6
Europe/London	Kingston upon Hull	excellent	53.7446	2018-09-13	-0.33525
America/Cuiaba	Nova Xavantina	excellent	-14.66463	05/08/2019, 00:00:00	-52.35558
America/New_York	Pottstown	accep	40.24537	10/07/2021, 00:00:00	-75.64963
Europe/Berlin	Charlottenburg-Nord	good	52.53048	2014-09-09	13.29371
America/New_York	West Chester	excellent	39.96097	12/31/2017, 00:00:00	-75.60804
Europe/Moscow	Malakhovka	excellent	55.64776	07/04/2019, 00:00:00	38.02486
Asia/Manila	Talisay	maintenance	10.7375	29 Apr 2021	122.9666
Australia/Sydney	Strathfield	maintenance	-33.88096	2014-11-11	151.07986
Africa/Lubumbashi	Yangambi	excellent	0.76755	2018-10-21	24.43973
Australia/Sydney	Griffith	average	-34.28853	13 Sep 2022	146.05093
Europe/Madrid	Talavera de la Reina	excellent	39.96348	2018-06-18	-4.83076
Europe/Berlin	Stade	average	53.59337	2022/03/22	9.47629
Europe/Paris	Pamiers	average	43.11667	07/12/2019, 00:00:00	1.6
Asia/Kolkata	Adra	excellent	23.49668	2020/01/01	86.68363
Europe/Madrid	Novelda	good	38.38479	2015-11-02	-0.76773
Asia/Manila	Jagna	excellent	9.6531	2015/12/22	124.3697
America/New_York	Sterling	maintenance	39.00622	04/20/2018, 00:00:00	-77.4286
Asia/Tokyo	Suzaka	excellent	36.65	09/03/2019, 00:00:00	138.31667
America/Costa_Rica	Liberia	maintenance	10.63504	26 May 2017	-85.43772
Australia/Brisbane	Maryborough	excellent	-25.54073	01/10/2020, 00:00:00	152.70493
Asia/Kolkata	Aklera	average	24.41288	2018-06-25	76.56719
Europe/Minsk	Novogrudok	excellent	53.5942	2014/07/20	25.8191
America/Recife	Cabo	building	-8.28333	2016/05/22	-35.03333
America/New_York	Acworth	excellent	34.06635	09/23/2016, 00:00:00	-84.67837
Europe/Berlin	Schleswig	accep	54.52156	05/04/2016, 00:00:00	9.5586
America/Sao_Paulo	Soledade	accep	-28.81833	10/19/2012, 00:00:00	-52.51028
America/Los_Angeles	Lompoc	good	34.63915	2013-02-12	-120.45794
Asia/Kolkata	Sambalpur	good	21.46527	2014/03/22	83.97573
America/Los_Angeles	Troutdale	good	45.53929	2017/03/25	-122.38731
Europe/Rome	Cordenons	accep	45.9836	17 Sep 2016	12.70038
Asia/Manila	Guyong	good	14.8361	28 May 2014	120.97844
Europe/Amsterdam	Emmeloord	excellent	52.71083	11/12/2015, 00:00:00	5.74861
Asia/Karachi	Alipur	excellent	29.38242	11/17/2015, 00:00:00	70.91106
Europe/Rome	Roseto degli Abruzzi	good	42.67164	04/20/2014, 00:00:00	14.01481
Asia/Manila	Maasin	excellent	10.13361	2020-09-14	124.84472
Europe/Berlin	Albstadt	good	48.21644	2017-07-31	9.02596
Europe/London	Belper	excellent	53.0233	2022/05/06	-1.48119
Europe/Berlin	Neuburg an der Donau	maintenance	48.73218	2021/10/28	11.18709
America/New_York	Malden	good	42.4251	2018/12/31	-71.06616
Asia/Baku	Qazax	excellent	41.09246	2016-09-21	45.36561
Europe/Warsaw	Brzeg	average	50.86079	18 Dec 2017	17.4674
Europe/Kiev	Shepetivka	excellent	50.18545	10/01/2012, 00:00:00	27.06365
Asia/Karachi	Bhit Shah	building	25.80565	2021/02/08	68.49143
America/Bahia	Rio Real	building	-11.48472	10/03/2017, 00:00:00	-37.93278
Africa/Abidjan	Lakota	excellent	5.84752	02/25/2015, 00:00:00	-5.682
Asia/Kolkata	Pilkhua	excellent	28.71271	09/16/2022, 00:00:00	77.656
Europe/Paris	Elbeuf	good	49.28669	28 Jun 2013	1.00288
Europe/Paris	Gonesse	average	48.98693	04 Jul 2017	2.44892
America/Recife	Cabo	average	-8.28333	16 Apr 2018	-35.03333
Asia/Kolkata	Jashpurnagar	maintenance	22.88783	07/24/2014, 00:00:00	84.13864
Europe/London	Barnet	good	51.65	13 Jun 2020	-0.2
Asia/Bangkok	Damnoen Saduak	maintenance	13.51825	2018-06-16	99.95469
Africa/Accra	Bibiani	good	6.46346	2015/06/28	-2.31938
Europe/Berlin	Losheim	average	49.5099	2019-02-23	6.74549
Europe/Tallinn	Narva	average	59.37722	11/14/2012, 00:00:00	28.19028
Europe/Warsaw	Ustka	accep	54.58048	10 May 2013	16.86194
Asia/Kuala_Lumpur	Teluk Intan	building	4.02219	2017/07/31	101.02083
Europe/Berlin	Friedberg	good	48.35693	2021/01/19	10.98461
Indian/Antananarivo	Ikalamavony	good	-21.15	2017-08-11	46.58333
America/Chicago	Searcy	building	35.25064	2020/01/11	-91.73625
Africa/Casablanca	Temara	average	33.92866	2016/12/16	-6.90656
Asia/Kolkata	Parola	excellent	20.88098	07/24/2017, 00:00:00	75.11937
Asia/Shanghai	Hushitai	average	41.94175	03/29/2018, 00:00:00	123.50266
Asia/Manila	Maasin	good	10.13361	2013/02/11	124.84472
Europe/Amsterdam	Tongelre	good	51.44889	2016/01/25	5.51978
Europe/Amsterdam	Culemborg	excellent	51.955	04/20/2021, 00:00:00	5.22778
Europe/Brussels	Beveren	building	51.21187	2021/12/24	4.25633
Africa/Algiers	El Achir	excellent	36.06386	12/29/2018, 00:00:00	4.62744
Asia/Tehran	Nowshahr	building	36.64852	2016-08-03	51.49621
Asia/Bangkok	Kantharalak	average	14.64056	04 Sep 2022	104.64992
Asia/Jakarta	Jambi City	building	-1.6	02/07/2014, 00:00:00	103.61667
Asia/Kolkata	Bhayandar	good	19.30157	2017/09/09	72.85107
Europe/Berlin	Burscheid	accep	51.08468	07/09/2013, 00:00:00	7.11393
Europe/Amsterdam	Emmeloord	good	52.71083	26 Jul 2014	5.74861
Asia/Karachi	Alipur	average	29.38242	28 Jul 2022	70.91106
Asia/Bangkok	Roi Et	good	16.0567	2018/03/23	103.65309
America/Bogota	San Carlos	average	8.79577	13 Jul 2022	-75.69947
Europe/Rome	Gorgonzola	maintenance	45.53069	2020/10/02	9.40531
Africa/Lagos	Lagos	accep	6.45407	2018/11/25	3.39467
Asia/Makassar	Balikpapan	excellent	-1.26753	18 Jul 2014	116.82887
America/Mexico_City	Tuxtla	maintenance	16.75973	10/11/2017, 00:00:00	-93.11308
Europe/Moscow	Yeysk	good	46.7055	03/05/2020, 00:00:00	38.2739
Europe/Helsinki	Tornio	average	65.84811	04/28/2019, 00:00:00	24.14662
America/Chicago	Abilene	excellent	32.44874	04 Nov 2016	-99.73314
Asia/Yekaterinburg	Kachkanar	excellent	58.7002	2013/05/28	59.4839
Africa/Gaborone	Tonota	excellent	-21.44236	2017/06/11	27.46153
Asia/Shanghai	Huangshi	average	30.24706	11 Jul 2013	115.04814
Europe/Berlin	Rudolstadt	good	50.72043	2013/11/04	11.34046
America/La_Paz	Tupiza	accep	-21.44345	2021/05/09	-65.71875
Asia/Shanghai	Dongfeng	maintenance	42.64031	2020-12-29	125.51176
Asia/Kuala_Lumpur	Kampung Ayer Molek	accep	2.2139	2014-11-08	102.3278
America/Chicago	Bourbonnais	good	41.15376	2018/03/16	-87.88754
Asia/Tokyo	Toba	average	34.4833	14 May 2016	136.84186
America/Los_Angeles	Davis	excellent	38.54491	15 Feb 2013	-121.74052
Europe/London	Rhosllanerchrugog	good	53.00974	2013/05/15	-3.05814
Europe/London	Devizes	maintenance	51.35084	2018-03-28	-1.99421
Asia/Kolkata	Chamba	good	32.55531	06/21/2016, 00:00:00	76.12647
Europe/Madrid	Gandia	good	38.96667	2013/11/18	-0.18333
America/New_York	Brighton Beach	accep	40.57788	2015/08/22	-73.95958
Europe/Sofia	Smolyan	good	41.57439	27 Oct 2013	24.71204
Europe/Berlin	Walsrode	accep	52.86147	2022-03-13	9.5926
Africa/Dar_es_Salaam	Mwandiga	excellent	-4.83	2013/01/21	29.65806
Asia/Tokyo	Annaka	maintenance	36.33011	2013-10-19	138.89585
Asia/Shanghai	Beidao	accep	34.56861	02 May 2016	105.89333
Asia/Jakarta	Kediri	accep	-7.81667	22 Sep 2013	112.01667
America/Denver	Kearns	excellent	40.65995	2015-11-12	-111.99633
Europe/Helsinki	Kallio	average	60.18427	09 Mar 2016	24.95034
America/Sao_Paulo	Palmeira	excellent	-25.42944	04/26/2022, 00:00:00	-50.00639
Africa/Freetown	Freetown	average	8.48714	2013-09-13	-13.2356
Asia/Manila	Pilar	excellent	14.66	04/22/2018, 00:00:00	120.56528
America/New_York	Martinsburg	accep	39.45621	17 Jun 2016	-77.96389
Asia/Tokyo	Shinshiro	excellent	34.9	2015-10-30	137.5
Asia/Kolkata	Osmanabad	good	18.18158	2020-09-26	76.03889
Australia/Brisbane	Carindale	excellent	-27.50578	2015/06/22	153.10236
Asia/Yangon	Dawei	building	14.0823	10/14/2013, 00:00:00	98.19151
America/Chicago	Murray	excellent	36.61033	06/10/2014, 00:00:00	-88.31476
Africa/Lagos	Yenagoa	excellent	4.92675	07 Oct 2015	6.26764
Europe/Paris	Saint-Omer	building	50.75	06/25/2019, 00:00:00	2.25
Australia/Melbourne	Wheelers Hill	accep	-37.9	24 Mar 2015	145.18333
Asia/Yekaterinburg	Ozersk	maintenance	55.75556	2022-04-03	60.70278
Asia/Krasnoyarsk	Sharypovo	good	55.54028	12/16/2016, 00:00:00	89.20083
Asia/Tokyo	Shinshiro	excellent	34.9	19 Sep 2022	137.5
Europe/Istanbul	Mudanya	good	40.37528	2021-05-22	28.88222
America/Lima	Minas de Marcona	excellent	-15.21194	2021/01/01	-75.11028
Europe/Dublin	Athlone	average	53.43333	2022-05-19	-7.95
America/Los_Angeles	Glendale	maintenance	34.14251	08/13/2014, 00:00:00	-118.25508
Europe/Paris	Rueil-Malmaison	accep	48.8765	2019/10/23	2.18967
Europe/Berlin	Friedberg	average	48.35693	11/14/2020, 00:00:00	10.98461
Asia/Dhaka	Manikchari	good	22.83957	11/03/2018, 00:00:00	91.84128
Asia/Shanghai	Boli	average	45.75279	19 Jun 2015	130.57211
Asia/Kolkata	Elamanchili	maintenance	17.54907	2019/12/12	82.85749
Asia/Urumqi	Hoxtolgay	accep	46.51872	2021/04/10	86.00214
Africa/Luanda	Luena	excellent	-11.78333	2018/09/28	19.91667
Europe/Moscow	Stupino	building	54.90083	2019-03-11	38.07083
Asia/Yekaterinburg	Saraktash	average	51.78771	03 Sep 2016	56.36091
Asia/Karachi	Hasilpur	good	29.69221	2018/08/28	72.54566
America/New_York	Peabody	excellent	42.52787	2020/05/23	-70.92866
Asia/Kuching	Donggongon	accep	5.90702	2020-07-10	116.10146
America/Denver	Aurora	accep	39.72943	06/13/2016, 00:00:00	-104.83192
Europe/Oslo	Harstad	accep	68.79833	07/14/2021, 00:00:00	16.54165
Asia/Kuala_Lumpur	Batu Feringgi	building	5.4709	2017-08-21	100.24529
America/Chicago	Murray	excellent	36.61033	11/19/2021, 00:00:00	-88.31476
Europe/Brussels	Temse	excellent	51.12794	2013-07-24	4.21372
Europe/Berlin	Wittenau	good	52.59319	04/11/2013, 00:00:00	13.32127
America/Mexico_City	Jocotepec	building	20.28527	2015-03-16	-103.42897
Asia/Shanghai	Zhuangyuan	building	37.30553	2021-08-29	120.82747
Europe/Moscow	Petrozavodsk	average	61.78491	09/06/2018, 00:00:00	34.34691
Europe/Istanbul	Mudanya	maintenance	40.37528	2018-12-16	28.88222
Asia/Kolkata	Pilkhua	average	28.71271	2021/08/22	77.656
America/Chicago	Evergreen Park	excellent	41.72059	2015-02-25	-87.70172
America/New_York	Lexington	good	33.98154	12/25/2012, 00:00:00	-81.23621
Asia/Kolkata	Diamond Harbour	good	22.19303	03 Nov 2018	88.18466
America/Denver	Aurora	accep	39.72943	2014/02/23	-104.83192
Europe/Moscow	Solntsevo	good	55.63711	2013/12/23	37.38115
America/Sao_Paulo	Palmeira	excellent	-25.42944	02/23/2022, 00:00:00	-50.00639
Asia/Shanghai	Danjiangkou	excellent	32.54278	2014-11-26	111.50861
Asia/Shanghai	Changzhi	excellent	35.20889	26 Aug 2013	111.73861
Africa/Accra	Mampong	good	7.06273	2014/09/18	-1.4001
Asia/Kolkata	Tiruppuvanam	excellent	9.82564	2016-08-25	78.25795
America/Argentina/Cordoba	Rafaela	average	-31.25033	05/04/2020, 00:00:00	-61.4867
Europe/Moscow	Malakhovka	accep	55.64776	01/26/2022, 00:00:00	38.02486
Europe/Rome	Castelfranco Emilia	average	44.59445	02/25/2016, 00:00:00	11.04979
America/Los_Angeles	Davis	excellent	38.54491	2019-02-14	-121.74052
America/New_York	Port Richmond	accep	40.63316	2018/05/09	-74.13653
Europe/Moscow	Arzamas	excellent	55.39485	2021/07/15	43.83992
Europe/Brussels	Lille	accep	51.24197	08/24/2014, 00:00:00	4.82313
Europe/Moscow	Tver	accep	56.85836	07 Oct 2020	35.90057
Europe/Moscow	Kovylkino	building	54.03876	2020/08/27	43.91385
Asia/Dhaka	Manikchari	maintenance	22.83957	2015/03/09	91.84128
Europe/Madrid	San Juan de Aznalfarache	accep	37.35813	2017-09-10	-6.03731
Europe/Skopje	Saraj	good	42	2020-11-20	21.32778
Asia/Kolkata	Adra	good	23.49668	11/11/2021, 00:00:00	86.68363
America/Chicago	Grand Forks	good	47.92526	2012-12-30	-97.03285
Asia/Ulaanbaatar	Ulan Bator	excellent	47.90771	01/17/2014, 00:00:00	106.88324
America/Santo_Domingo	Santa Cruz de Barahona	average	18.20854	07/19/2015, 00:00:00	-71.10077
Europe/Paris	Ajaccio	excellent	41.91886	2014/11/17	8.73812
Europe/Vienna	Sankt Peter	accep	47.05	2020-04-19	15.46667
Europe/Helsinki	Espoo	acceptable	60.2052	2015-12-28	24.6522
Asia/Manila	Sorsogon	accep	12.97389	12/17/2012, 00:00:00	123.99333
Africa/Tripoli	Ajdabiya	good	30.75545	2018-07-10	20.22625
Europe/Paris	Marly-le-Roi	excellent	48.86667	2019-02-11	2.08333
Asia/Shanghai	Taozhuang	maintenance	34.85	2017/05/15	117.33333
Europe/Berlin	Bretten	good	49.03685	01/11/2020, 00:00:00	8.70745
Europe/Rome	San Giuliano Milanese	acceptable	45.39402	10/18/2016, 00:00:00	9.29109
America/Mexico_City	Zacoalco de Torres	average	20.22816	13 Nov 2019	-103.5687
Africa/Nairobi	Nyahururu	building	0.03813	2016/07/05	36.36339
Asia/Seoul	Goyang-si	accep	37.65639	01/01/2015, 00:00:00	126.835
Asia/Kolkata	Dalsingh Sarai	building	25.66795	2017-07-07	85.83636
Australia/Sydney	Griffith	good	-34.28853	24 Mar 2021	146.05093
America/Menominee	Iron River	building	46.09273	17 Feb 2019	-88.64235
Asia/Seoul	T‚Äôaebaek	excellent	37.1759	2018-12-13	128.9889
Europe/Rome	Ventimiglia	good	43.78956	2020/11/29	7.60872
Europe/Paris	Fontenay-aux-Roses	accep	48.79325	18 Nov 2016	2.29275
Europe/Paris	Bron	accep	45.73333	01/20/2020, 00:00:00	4.91667
America/New_York	Brighton Beach	building	40.57788	2015-01-04	-73.95958
America/Caracas	Tinaquillo	accep	9.91861	2018/12/21	-68.30472
Europe/Paris	Valence	excellent	44.92801	12/06/2016, 00:00:00	4.8951
America/Chicago	Longview	building	32.5007	2022/04/26	-94.74049
Europe/Moscow	Kovylkino	excellent	54.03876	2019/09/03	43.91385
Africa/Tripoli	Ajdabiya	average	30.75545	2013-09-13	20.22625
America/Puerto_Rico	Aguadilla	building	18.42745	08 Jul 2016	-67.15407
Europe/London	Strood	good	51.39323	16 Aug 2018	0.47713
America/New_York	Belle Glade	accep	26.68451	08/20/2022, 00:00:00	-80.66756
America/Chicago	Vestavia Hills	average	33.44872	2017-11-16	-86.78777
Africa/Nairobi	Nyahururu	average	0.03813	11/21/2017, 00:00:00	36.36339
Europe/Dublin	An Muileann gCearr	accep	53.53333	19 Nov 2021	-7.35
America/New_York	East Haven	excellent	41.27621	11/28/2016, 00:00:00	-72.86843
America/Managua	Jinotepe	accep	11.84962	2018/09/04	-86.19903
Europe/London	East Dereham	average	52.68333	2015-09-29	0.93333
Asia/Shanghai	Licheng	excellent	23.29549	10/23/2021, 00:00:00	113.82465
Australia/Perth	Willetton	accep	-32.05251	2016-11-03	115.88782
Europe/Rome	Villabate	excellent	38.07789	07/20/2018, 00:00:00	13.44275
Europe/Brussels	Temse	excellent	51.12794	2022/01/02	4.21372
Europe/London	East Dereham	average	52.68333	06/28/2013, 00:00:00	0.93333
Europe/Berlin	Trossingen	average	48.07667	2013/09/08	8.64409
America/Mexico_City	San Lorenzo Acopilco	average	19.32889	2015/08/01	-99.32556
Africa/Algiers	Cheraga	maintenance	36.76775	06 Sep 2016	2.95924
America/Mexico_City	Casa Blanca	excellent	19.04222	2020-09-23	-98.11889
America/Los_Angeles	Riverbank	good	37.73604	2014/04/15	-120.93549
America/Los_Angeles	South Whittier	average	33.95015	2014-03-23	-118.03917
America/Argentina/Buenos_Aires	Barracas	maintenance	-34.64966	2017/04/29	-58.38341
Europe/Paris	Cavaillon	building	43.83125	2021-02-01	5.03586
Asia/Shanghai	Xiangtan	average	27.85	2015-09-16	112.9
America/Panama	Veracruz	average	8.88988	29 Jun 2017	-79.62603
Europe/Moscow	Gudermes	excellent	43.35071	15 May 2018	46.10925
Asia/Tehran	Aleshtar	maintenance	33.86419	08/08/2019, 00:00:00	48.26258
Europe/London	Walton-on-the-Naze	excellent	51.84819	2013/04/18	1.26738
Europe/Kiev	Zvenihorodka	average	49.07866	2013-06-02	30.96755
Europe/Madrid	Puertollano	accep	38.68712	08/24/2016, 00:00:00	-4.10734
America/New_York	Front Royal	accep	38.91817	2022/07/30	-78.19444
America/Toronto	Dorval	maintenance	45.4473	2019/02/01	-73.75335
Asia/Dili	Maliana	excellent	-8.99167	2014/10/29	125.21972
America/New_York	Harrisburg	average	40.2737	07 Oct 2016	-76.88442
Asia/Kolkata	Alwaye	excellent	10.10649	11/04/2015, 00:00:00	76.35484
Europe/Amsterdam	Hardenberg	average	52.57583	09 Aug 2019	6.61944
Africa/Johannesburg	Mokopane	building	-24.19436	02/06/2017, 00:00:00	29.00974
America/Chicago	Tupelo	average	34.25807	31 Aug 2022	-88.70464
America/Los_Angeles	Sunnyside	excellent	46.32374	29 Jul 2015	-120.00865
Asia/Kolkata	Kenda	excellent	23.1959	04 Aug 2015	86.51499
America/Los_Angeles	Lompoc	maintenance	34.63915	2019-06-29	-120.45794
America/Cuiaba	Nova Xavantina	average	-14.66463	2018-11-25	-52.35558
America/Chicago	Searcy	building	35.25064	2022/06/03	-91.73625
Europe/Moscow	Stupino	good	54.90083	2017/04/13	38.07083
Europe/London	Kingston upon Hull	average	53.7446	2018/03/30	-0.33525
America/Los_Angeles	North Tustin	good	33.76446	2014/02/21	-117.79394
Asia/Manila	Jagna	excellent	9.6531	2018/10/05	124.3697
America/Los_Angeles	Visitacion Valley	average	37.71715	04/15/2019, 00:00:00	-122.40433
Asia/Yerevan	Hrazdan	maintenance	40.49748	2016-07-28	44.7662
Asia/Tehran	Aleshtar	excellent	33.86419	09 Aug 2021	48.26258
Asia/Dhaka	Manikchari	good	22.83957	03 Oct 2020	91.84128
America/Cuiaba	Nova Xavantina	accep	-14.66463	22 May 2018	-52.35558
Europe/London	Aberdeen	building	57.14369	2021/01/17	-2.09814
America/Chicago	South Lawndale	good	41.84364	10/14/2017, 00:00:00	-87.71255
Europe/Moscow	Roslavl‚Äô	maintenance	53.95278	2022-05-08	32.86389
Asia/Yekaterinburg	Kachkanar	accep	58.7002	2014-01-04	59.4839
Europe/Berlin	Kirchlengern	excellent	52.2	2016-02-27	8.63333
America/Merida	Progreso	maintenance	21.28306	2013-04-07	-89.66123
Asia/Kolkata	Gorakhpur	good	26.76628	07 May 2014	83.36889
Asia/Manila	Antipolo	accep	14.62578	21 Nov 2021	121.12251
Africa/Dar_es_Salaam	Mwandiga	average	-4.83	2020-01-03	29.65806
Europe/Zaporozhye	Polohy	average	47.48444	2020-01-07	36.25361
America/Fortaleza	Guaraciaba do Norte	accep	-4.16694	2016/06/26	-40.7475
Africa/Monrovia	New Yekepa	excellent	7.57944	11/15/2014, 00:00:00	-8.53778
America/Sao_Paulo	Caldas Novas	excellent	-17.74431	2021/08/05	-48.62789
Europe/Sofia	Aytos	good	42.7	12/23/2021, 00:00:00	27.25
America/Chicago	New City	average	41.80753	2017/06/19	-87.65644
Europe/Berlin	Weimar	maintenance	50.9803	07/29/2021, 00:00:00	11.32903
America/Lima	Iquitos	building	-3.74912	2014-12-26	-73.25383
Europe/Brussels	Rixensart	average	50.71229	2013-08-07	4.52529
Asia/Tokyo	Kamakura	average	35.30889	2012/11/15	139.55028
Asia/Kolkata	Barbil	maintenance	22.10194	2019-07-04	85.37752
Europe/Madrid	Las Gabias	accep	37.13548	02/16/2017, 00:00:00	-3.67029
Asia/Vladivostok	Nikolayevsk-on-Amure	accep	53.14657	2014/12/14	140.72287
America/Chicago	Vestavia Hills	good	33.44872	07/01/2020, 00:00:00	-86.78777
Europe/Brussels	Beveren	accep	51.21187	10/27/2014, 00:00:00	4.25633
America/Chicago	Evergreen Park	average	41.72059	2021-07-14	-87.70172
Europe/London	Lower Earley	good	51.42708	09/01/2016, 00:00:00	-0.91979
Europe/Paris	Mitry-Mory	building	48.98333	26 May 2020	2.61667
Asia/Manila	Calauan	building	14.14989	2016-12-13	121.3152
Asia/Manila	Tupi	good	6.33444	2016/08/14	124.95278
America/El_Salvador	Ilopango	excellent	13.70167	11/17/2013, 00:00:00	-89.10944
America/Havana	Varadero	building	23.15678	2018/02/21	-81.24441
Asia/Baghdad	Karbala	maintenance	32.61603	09/08/2015, 00:00:00	44.02488
Africa/Johannesburg	Mokopane	accep	-24.19436	20 Feb 2019	29.00974
Europe/Sofia	Montana	excellent	43.4125	09/21/2014, 00:00:00	23.225
America/Bahia	Rio Real	accep	-11.48472	03/14/2016, 00:00:00	-37.93278
Asia/Kolkata	Kheda	average	22.75218	2018/12/13	72.68533
Europe/Kiev	Krasyliv	good	49.65186	2020-07-09	26.97253
America/Tegucigalpa	Olanchito	accep	15.48131	2015/01/29	-86.57415
Europe/Warsaw	Strzelce Opolskie	accep	50.5107	28 Feb 2021	18.30056
Africa/Algiers	Thenia	average	36.72544	09/12/2016, 00:00:00	3.55665
Asia/Tokyo	Inawashiro	excellent	37.56667	06 Dec 2015	140.11667
America/Chicago	Fresno	accep	29.53885	07/08/2020, 00:00:00	-95.44744
Europe/Madrid	Tudela	average	42.06166	02 Nov 2016	-1.60452
Asia/Kolkata	Bhuban	accep	20.88197	30 Jan 2018	85.83334
Asia/Baku	Qazax	accep	41.09246	27 Jan 2013	45.36561
Asia/Jakarta	Kudus	maintenance	-6.8048	07/20/2017, 00:00:00	110.8405
Asia/Shanghai	Haicheng	average	40.85158	2019-03-26	122.74754
Asia/Bangkok	Phanat Nikhom	good	13.44581	03 Sep 2016	101.18445
Europe/Amsterdam	Oldenzaal	building	52.31333	08/01/2021, 00:00:00	6.92917
America/Cuiaba	Nova Xavantina	average	-14.66463	2014-11-02	-52.35558
Europe/Istanbul	Sungurlu	maintenance	40.1675	2020-01-19	34.37389
Europe/London	Devizes	excellent	51.35084	2019/12/16	-1.99421
America/Chicago	Copperas Cove	good	31.12406	2015/12/20	-97.90308
