longitude	latitude	location	station	revision	QoS
11.34046	50.72043	Europe/Berlin	Rudolstadt	2017-05-05	average
-46.99583	-22.97056	America/Sao_Paulo	Valinhos	03/26/2018, 00:00:00	good
11.18709	48.73218	Europe/Berlin	Neuburg an der Donau	2014-06-06	average
37.99117	44.92934	Europe/Moscow	Krymsk	2018/08/27	good
17.8031	48.43174	Europe/Bratislava	Hlohovec	21 Dec 2021	accep
86.59509	26.11527	Asia/Kolkata	Supaul	23 Apr 2017	average
99.96667	8.43333	Asia/Bangkok	Nakhon Si Thammarat	2021/09/22	good
77.70636	28.98002	Asia/Kolkata	Meerut	06/11/2021, 00:00:00	building
130.57211	45.75279	Asia/Shanghai	Boli	2020-06-06	accep
72.68533	22.75218	Asia/Kolkata	Kheda	06/22/2021, 00:00:00	good
-87.882	41.85059	America/Chicago	Westchester	2019-02-21	excellent
120.03308	28.88162	Asia/Shanghai	Guli	2014-11-16	good
-81.23621	33.98154	America/New_York	Lexington	09/15/2021, 00:00:00	average
0.47713	51.39323	Europe/London	Strood	11/28/2021, 00:00:00	maintenance
-6.03731	37.35813	Europe/Madrid	San Juan de Aznalfarache	2022/01/20	excellent
-82.46148	28.15112	America/New_York	Lutz	2013-05-27	excellent
97.01124	17.30858	Asia/Yangon	Kyaikto	12/08/2012, 00:00:00	accep
86.00214	46.51872	Asia/Urumqi	Hoxtolgay	05 Sep 2014	excellent
70.91106	29.38242	Asia/Karachi	Alipur	2022/09/11	average
33.72798	53.53395	Europe/Moscow	Zhukovka	2013/10/05	good
-48.52333	-0.71667	America/Belem	Soure	2017/10/16	average
7.20769	50.80019	Europe/Berlin	Siegburg	28 Sep 2013	average
117.81667	36.81667	Asia/Shanghai	Zhoucun	09/04/2020, 00:00:00	maintenance
43.38531	9.89206	Africa/Mogadishu	Baki	11/06/2013, 00:00:00	excellent
77.70636	28.98002	Asia/Kolkata	Meerut	2018/02/02	average
29.24152	-26.93366	Africa/Johannesburg	Standerton	2022-09-22	good
-121.75689	36.91023	America/Los_Angeles	Watsonville	2018/05/11	average
65.93249	36.21544	Asia/Kabul	Sar-e Pul	04/12/2013, 00:00:00	building
13.57661	37.31065	Europe/Rome	Agrigento	11/27/2016, 00:00:00	good
-1.29772	50.76306	Europe/London	Cowes	2013-12-26	accep
-73.9625	40.81	America/New_York	Morningside Heights	2020-11-02	average
-81.56929	41.55838	America/New_York	Collinwood	25 Apr 2018	good
65.27258	58.04254	Asia/Yekaterinburg	Tavda	2016-09-10	excellent
86.79271	25.92127	Asia/Kolkata	Madhipura	2018-03-31	accep
2.59753	8.88649	Africa/Porto-Novo	Tchaourou	2021/01/17	accep
146.05093	-34.28853	Australia/Sydney	Griffith	2018/11/15	excellent
34.11169	0.46005	Africa/Nairobi	Busia	05/09/2019, 00:00:00	accep
8.2926	9.58126	Africa/Lagos	Kafanchan	2014-06-20	excellent
103.6032	1.6561	Asia/Kuala_Lumpur	Kulai	2019/08/08	maintenance
-0.33525	53.7446	Europe/London	Kingston upon Hull	08 Nov 2020	average
86.68363	23.49668	Asia/Kolkata	Adra	2019-10-29	maintenance
36.25361	47.48444	Europe/Zaporozhye	Polohy	2013-06-23	good
137.5	34.9	Asia/Tokyo	Shinshiro	10/24/2016, 00:00:00	maintenance
18.84	42.28639	Europe/Podgorica	Budva	07 Nov 2012	accep
57.3552	51.4781	Asia/Yekaterinburg	Kuvandyk	20 Dec 2019	maintenance
129.96972	33.4425	Asia/Tokyo	Karatsu	30 Apr 2015	good
139.55722	36	Asia/Tokyo	Okegawa	2016/02/13	average
-51.50361	-29.2975	America/Sao_Paulo	Carlos Barbosa	2015/06/13	excellent
117.7	35.85	Asia/Shanghai	Dongdu	2019/09/30	maintenance
-87.71255	41.84364	America/Chicago	South Lawndale	06/17/2013, 00:00:00	excellent
-122.24064	47.80527	America/Los_Angeles	Bothell West	24 Aug 2021	excellent
51.67462	32.65246	Asia/Tehran	Isfahan	2020/07/23	accep
73.08333	19.21667	Asia/Kolkata	Dombivli	20 Nov 2018	accep
103.65309	16.0567	Asia/Bangkok	Roi Et	2017-12-11	accep
34.75699	31.39547	Asia/Jerusalem	Rahat	04/04/2016, 00:00:00	good
-82.32483	29.65163	America/New_York	Gainesville	17 Jan 2019	excellent
-68.30472	9.91861	America/Caracas	Tinaquillo	2019/06/24	excellent
-120.00865	46.32374	America/Los_Angeles	Sunnyside	11/23/2018, 00:00:00	accep
-74.13653	40.63316	America/New_York	Port Richmond	01/31/2019, 00:00:00	average
104.1451	15.79408	Asia/Bangkok	Yasothon	28 Mar 2019	maintenance
111.73861	35.20889	Asia/Shanghai	Changzhi	2012-12-10	excellent
-81.23621	33.98154	America/New_York	Lexington	16 Dec 2015	good
-102.36764	31.84568	America/Chicago	Odessa	2017-11-26	average
-120.00865	46.32374	America/Los_Angeles	Sunnyside	2013-06-23	good
123.50266	41.94175	Asia/Shanghai	Hushitai	02/03/2017, 00:00:00	excellent
-93.71133	41.57721	America/Chicago	West Des Moines	2019/02/12	building
73.08333	19.21667	Asia/Kolkata	Dombivli	2020-11-04	excellent
2.1699	48.98994	Europe/Paris	Herblay	06 Mar 2018	accep
-120.43572	34.95303	America/Los_Angeles	Santa Maria	2022/04/03	maintenance
139.6853	35.815	Asia/Tokyo	Shimotoda	2013/03/20	average
-97.35992	19.8173	America/Mexico_City	Teziutlan	28 Sep 2016	good
120.56528	14.66	Asia/Manila	Pilar	2014/08/13	average
-117.79394	33.76446	America/Los_Angeles	North Tustin	2022-04-13	accep
74.83554	14.62072	Asia/Kolkata	Sirsi	10/30/2021, 00:00:00	average
2.44892	48.98693	Europe/Paris	Gonesse	2016/08/26	building
71.21169	21.59983	Asia/Kolkata	Amreli	2017-03-13	average
130.94098	33.3213	Asia/Tokyo	Hita	16 Jul 2016	accep
-74.38987	40.65538	America/New_York	Scotch Plains	06/17/2016, 00:00:00	accep
111.4834	65.93381	Asia/Yakutsk	Aykhal	2018/07/16	average
101.44167	0.51667	Asia/Jakarta	Pekanbaru	2015/08/16	excellent
4.69889	50.56149	Europe/Brussels	Gembloux	11/06/2012, 00:00:00	accep
-69.96533	43.91452	America/New_York	Brunswick	21 Jan 2016	average
88.18466	22.19303	Asia/Kolkata	Diamond Harbour	01/05/2021, 00:00:00	building
140.73667	41.77583	Asia/Tokyo	Hakodate	12/08/2020, 00:00:00	accep
-75.23266	43.1009	America/New_York	Utica	12 Dec 2014	good
-88.64235	46.09273	America/Menominee	Iron River	2019-11-03	good
73.06784	25.13915	Asia/Kolkata	Sheoganj	2020-11-10	good
-48.29694	-20.87306	America/Sao_Paulo	Viradouro	2014-03-09	accep
-82.00919	23.04419	America/Havana	Jaruco	11/30/2019, 00:00:00	building
-77.02303	38.70734	America/New_York	Fort Washington	2017/07/06	excellent
37.99117	44.92934	Europe/Moscow	Krymsk	03/24/2015, 00:00:00	acceptable
-73.58248	45.40008	America/Toronto	Sainte-Catherine	10 May 2016	accep
39.25	-6.8	Africa/Dar_es_Salaam	Magomeni	2019-09-24	excellent
103.61667	-1.6	Asia/Jakarta	Jambi City	03 May 2013	average
18.84	42.28639	Europe/Podgorica	Budva	2012/10/05	average
-73.78458	41.0051	America/New_York	Scarsdale	11/19/2019, 00:00:00	good
86.79271	25.92127	Asia/Kolkata	Madhipura	11 Sep 2022	good
-44.31389	-19.7625	America/Sao_Paulo	Esmeraldas	2017/06/15	excellent
11.412	45.50369	Europe/Rome	Montecchio Maggiore-Alte Ceccato	29 Oct 2020	average
122.74754	40.85158	Asia/Shanghai	Haicheng	2014-07-24	accep
43.91385	54.03876	Europe/Moscow	Kovylkino	2019/12/12	good
109.05389	-7.51611	Asia/Jakarta	Wangon	2014-09-17	good
-82.90375	32.54044	America/New_York	Dublin	2020/09/03	excellent
78.95693	29.21399	Asia/Kolkata	Kashipur	2021/12/10	acceptable
127.08472	36.20389	Asia/Seoul	Nonsan	26 Mar 2019	building
-72.47417	7.83389	America/Bogota	Villa del Rosario	2018-08-01	excellent
34.8732	32.05971	Asia/Jerusalem	Ganei Tikva	2020-09-24	excellent
-52.2	-28.44917	America/Sao_Paulo	Marau	05/25/2016, 00:00:00	average
122.05228	37.19723	Asia/Shanghai	Tianfu	02/23/2022, 00:00:00	average
73	40.93333	Asia/Bishkek	Jalal-Abad	2014-10-28	building
-1.06667	53.78333	Europe/London	Selby	29 Aug 2018	accep
12.87117	50.23271	Europe/Prague	Karlovy Vary	2019/02/02	excellent
20.89389	42.62833	Europe/Belgrade	Glogovac	2021-09-28	average
43.2379	50.06	Europe/Volgograd	Mikhaylovka	2017-05-29	accep
5.58472	52.14	Europe/Amsterdam	Barneveld	26 Oct 2014	excellent
15.00835	51.14942	Europe/Warsaw	Zgorzelec	2015/02/07	maintenance
114.33333	-8.43333	Asia/Jakarta	Muncar	2018/10/08	maintenance
139.55722	36	Asia/Tokyo	Okegawa	2019/03/05	excellent
-58.38341	-34.64966	America/Argentina/Buenos_Aires	Barracas	2021/12/01	accep
85.83636	25.66795	Asia/Kolkata	Dalsingh Sarai	2017/12/31	maintenance
103.81667	1.6	Asia/Kuala_Lumpur	Ulu Tiram	01/07/2014, 00:00:00	maintenance
39.25	-6.8	Africa/Dar_es_Salaam	Magomeni	2015/06/21	accep
31.33078	47.56494	Europe/Kiev	Voznesensk	07 Feb 2017	average
-93.71133	41.57721	America/Chicago	West Des Moines	2020-02-01	accep
-84.23381	33.54428	America/New_York	Stockbridge	2019/06/21	accep
86.00214	46.51872	Asia/Urumqi	Hoxtolgay	08/06/2018, 00:00:00	excellent
115.8614	-31.95224	Australia/Perth	Perth	2021/09/18	excellent
-88.42814	42.16808	America/Chicago	Huntley	2022-05-30	excellent
74.4818	30.21121	Asia/Kolkata	Malaut	26 Feb 2022	excellent
-111.99633	40.65995	America/Denver	Kearns	2017-08-12	average
37.73333	-4.06667	Africa/Dar_es_Salaam	Same	2015/03/17	good
44.53333	-22.9	Indian/Antananarivo	Sakaraha	30 Nov 2015	building
28.28489	48.15659	Europe/Chisinau	Soroca	12/11/2012, 00:00:00	average
4.18333	7.6	Africa/Lagos	Olupona	2020/08/05	accep
-0.59543	44.80477	Europe/Paris	Talence	30 Apr 2013	excellent
-82.90375	32.54044	America/New_York	Dublin	12 Dec 2021	excellent
-85.76942	39.78504	America/Indiana/Indianapolis	Greenfield	2014-01-03	accep
-45.94722	-21.42917	America/Sao_Paulo	Alfenas	06/17/2018, 00:00:00	excellent
-95.36969	35.74788	America/Chicago	Muskogee	05 Apr 2020	good
-79.62098	9.15093	America/Panama	Chilibre	2021-04-08	good
55.4504	-20.88231	Indian/Reunion	Saint-Denis	2022-05-24	good
-82.00919	23.04419	America/Havana	Jaruco	2021/06/07	accep
18.34717	54.60528	Europe/Warsaw	Reda	08 Aug 2014	building
-97.92977	38.06084	America/Chicago	Hutchinson	2012/12/04	accep
9.20427	48.49144	Europe/Berlin	Reutlingen	2013/08/23	average
-43.80139	-20.25333	America/Sao_Paulo	Itabirito	10/18/2016, 00:00:00	accep
29.24152	-26.93366	Africa/Johannesburg	Standerton	13 Nov 2013	average
-77.03116	3.8801	America/Bogota	Buenaventura	2018-01-05	accep
114.33333	-8.43333	Asia/Jakarta	Muncar	12 Dec 2020	accep
31.33078	47.56494	Europe/Kiev	Voznesensk	2017-03-27	average
123.33471	8.56697	Asia/Manila	Dipolog	2022-03-21	average
79.87116	6.84019	Asia/Colombo	Dehiwala-Mount Lavinia	2016-09-22	average
-71.05977	42.35843	America/New_York	Boston	07/12/2020, 00:00:00	accep
-84.67837	34.06635	America/New_York	Acworth	18 Aug 2016	maintenance
-4.0573	55.82737	Europe/London	Viewpark	14 Feb 2019	accep
77.54372	10.12268	Asia/Kolkata	Periyakulam	17 May 2021	good
4.47124	51.95838	Europe/Amsterdam	Schiebroek	06 Mar 2016	good
128.62667	34.8825	Asia/Seoul	Sinhyeon	2018-01-09	maintenance
18.84	42.28639	Europe/Podgorica	Budva	2013-11-24	good
-105.11221	39.57582	America/Denver	Ken Caryl	14 Feb 2016	maintenance
27.06365	50.18545	Europe/Kiev	Shepetivka	01/13/2014, 00:00:00	maintenance
120.97844	14.8361	Asia/Manila	Guyong	09/17/2014, 00:00:00	excellent
8.86704	50.23805	Europe/Berlin	Nidderau	2014/10/07	good
139.07204	36.24624	Asia/Tokyo	Fujioka	09/22/2014, 00:00:00	accep
-8.07257	12.74409	Africa/Bamako	Kati	07/22/2013, 00:00:00	excellent
17.58522	40.53123	Europe/Rome	Francavilla Fontana	2017/10/30	accep
-68.3	-54.8	America/Argentina/Ushuaia	Ushuaia	28 Jan 2014	excellent
-122.2608	38.17492	America/Los_Angeles	American Canyon	08/26/2020, 00:00:00	excellent
135.21667	35.06667	Asia/Tokyo	Sasayama	03 Mar 2013	average
-78.04471	34.25628	America/New_York	Leland	2015/06/26	excellent
8.73812	41.91886	Europe/Paris	Ajaccio	11 Aug 2015	excellent
78.40102	27.9247	Asia/Kolkata	Chharra	11 Sep 2020	maintenance
120.74221	31.64615	Asia/Shanghai	Changshu City	2016-02-11	maintenance
29.47306	0.49113	Africa/Lubumbashi	Beni	14 Jan 2016	maintenance
-71.23106	-32.45242	America/Santiago	La Ligua	12/13/2015, 00:00:00	average
17.22635	48.8449	Europe/Bratislava	Skalica	2015-04-01	good
104.64992	14.64056	Asia/Bangkok	Kantharalak	13 Mar 2016	average
-60.94228	14.67751	America/Martinique	Le Robert	2022-07-31	average
-37.03861	-10.90889	America/Maceio	Barra dos Coqueiros	2020-08-27	good
9.32241	44.31771	Europe/Rome	Chiavari	2018-05-16	excellent
32.6178	46.65581	Europe/Kiev	Kherson	2018-04-22	excellent
123.33471	8.56697	Asia/Manila	Dipolog	2021/08/22	building
-50.19556	-19.72806	America/Sao_Paulo	Iturama	15 Oct 2018	accep
-68.30472	9.91861	America/Caracas	Tinaquillo	30 Oct 2017	average
116.11768	24.28859	Asia/Shanghai	Meizhou	07 Nov 2019	building
120.56528	14.66	Asia/Manila	Pilar	2013-09-23	excellent
-81.38758	30.17746	America/New_York	Palm Valley	10/30/2015, 00:00:00	average
-71.19901	-30.60106	America/Santiago	Ovalle	2014/09/18	excellent
9.29109	45.39402	Europe/Rome	San Giuliano Milanese	26 Sep 2020	good
118.9707	-3.5403	Asia/Makassar	Majene	10/26/2017, 00:00:00	average
6.10237	46.18396	Europe/Zurich	Onex	06/26/2019, 00:00:00	accep
39.85331	57.30185	Europe/Moscow	Gavrilov-Yam	01/03/2016, 00:00:00	excellent
139.07204	36.24624	Asia/Tokyo	Fujioka	01/08/2016, 00:00:00	accep
-1.29243	53.49389	Europe/London	Mexborough	2015/08/25	good
-8.07257	12.74409	Africa/Bamako	Kati	04/01/2020, 00:00:00	average
10.18527	47.98372	Europe/Berlin	Memmingen	02/04/2019, 00:00:00	excellent
37.73333	-4.06667	Africa/Dar_es_Salaam	Same	2018/10/12	accep
3.87723	43.61092	Europe/Paris	Montpellier	2016-12-21	accep
9.02596	48.21644	Europe/Berlin	Albstadt	2016/10/16	good
124.95278	6.33444	Asia/Manila	Tupi	2019-05-07	excellent
72.68533	22.75218	Asia/Kolkata	Kheda	2014-05-03	average
29.00974	-24.19436	Africa/Johannesburg	Mokopane	05/09/2016, 00:00:00	excellent
10.7	4.96667	Africa/Douala	Tonga	2014-06-02	excellent
-98.1664	19.32932	America/Mexico_City	Contla	2016/09/17	average
48.41667	-17.83333	Indian/Antananarivo	Ambatondrazaka	24 Jan 2020	good
-82.00919	23.04419	America/Havana	Jaruco	17 Jun 2022	average
26.01649	44.43579	Europe/Bucharest	Sector 6	2020/07/07	good
122.05228	37.19723	Asia/Shanghai	Tianfu	12/09/2018, 00:00:00	accep
11.412	45.50369	Europe/Rome	Montecchio Maggiore-Alte Ceccato	12/04/2020, 00:00:00	excellent
-76.88442	40.2737	America/New_York	Harrisburg	09/12/2018, 00:00:00	average
2.29026	48.77644	Europe/Paris	Sceaux	2017/12/20	accep
14.30935	40.92298	Europe/Rome	Afragola	2018-10-22	accep
-82.35176	27.71809	America/New_York	Sun City Center	19 Jun 2014	average
3.39467	6.45407	Africa/Lagos	Lagos	08/29/2015, 00:00:00	excellent
-75.87877	5.6561	America/Bogota	Andes	19 Dec 2020	good
-73.86586	45.43341	America/Toronto	Beaconsfield	01 Oct 2013	maintenance
83.97573	21.46527	Asia/Kolkata	Sambalpur	2015/12/11	excellent
122.22833	40.66482	Asia/Shanghai	Yingkou	2022-05-01	maintenance
6.92917	52.31333	Europe/Amsterdam	Oldenzaal	2015-08-04	accep
-94.74049	32.5007	America/Chicago	Longview	2017-02-16	accep
-104.22884	32.42067	America/Denver	Carlsbad	2020-11-21	good
30.28491	60.02427	Europe/Moscow	Kolomyagi	2019/04/05	excellent
-105.36369	22.49396	America/Mazatlan	Acaponeta	10 Feb 2021	good
18.30056	50.5107	Europe/Warsaw	Strzelce Opolskie	17 Nov 2020	excellent
-72.27814	42.93369	America/New_York	Keene	05/01/2018, 00:00:00	excellent
39.85331	57.30185	Europe/Moscow	Gavrilov-Yam	03/30/2018, 00:00:00	maintenance
110.71639	-7.54972	Asia/Jakarta	Ngemplak	23 Jan 2017	accep
-73.75513	40.60538	America/New_York	Far Rockaway	08/19/2022, 00:00:00	average
-39.25	-12.91667	America/Bahia	Muritiba	28 May 2015	excellent
-1.4001	7.06273	Africa/Accra	Mampong	2013-07-31	average
12.87117	50.23271	Europe/Prague	Karlovy Vary	10/05/2016, 00:00:00	accep
15.07041	37.49223	Europe/Rome	Catania	2013/11/18	accep
5.55575	46.67535	Europe/Paris	Lons-le-Saunier	2014-12-28	building
4.08282	36.61954	Africa/Algiers	Beni Douala	2019/11/20	excellent
-0.45877	46.32313	Europe/Paris	Niort	2019-05-14	average
2.18967	48.8765	Europe/Paris	Rueil-Malmaison	21 Sep 2014	maintenance
43.67663	53.53041	Europe/Moscow	Nizhniy Lomov	2020-02-29	average
124.3697	9.6531	Asia/Manila	Jagna	04 Feb 2018	good
120.56528	14.66	Asia/Manila	Pilar	29 May 2015	accep
91.84128	22.83957	Asia/Dhaka	Manikchari	2014/11/13	average
-5.53715	50.11861	Europe/London	Penzance	05/01/2016, 00:00:00	excellent
-89.64066	40.56754	America/Chicago	Pekin	12 Feb 2017	accep
-93.08883	45.16024	America/Chicago	Lino Lakes	11 May 2014	average
29.00974	-24.19436	Africa/Johannesburg	Mokopane	2020/05/03	maintenance
-40.7475	-4.16694	America/Fortaleza	Guaraciaba do Norte	07/06/2019, 00:00:00	good
76.56719	24.41288	Asia/Kolkata	Aklera	2017-04-29	average
32.86389	53.95278	Europe/Moscow	Roslavl‚Äô	2018/08/04	average
-75.87877	5.6561	America/Bogota	Andes	18 Mar 2019	good
38.15035	49.41029	Europe/Zaporozhye	Svatove	15 Oct 2015	good
92.48278	58.23583	Asia/Krasnoyarsk	Lesosibirsk	2018/04/18	average
42.7125	11.15583	Africa/Djibouti	'Ali Sabieh	2018-08-11	accep
-95.36969	35.74788	America/Chicago	Muskogee	10 Feb 2022	average
-8.2503	37.08819	Europe/Lisbon	Albufeira	2014/05/21	accep
74.3092	33.37526	Asia/Kolkata	Rajaori	2013-01-21	building
1.10687	41.15612	Europe/Madrid	Reus	2013-06-19	maitennce
-74.28459	40.5576	America/New_York	Woodbridge	2014/11/12	accep
73.7553	15.5439	Asia/Kolkata	Calangute	2018-12-07	good
73	40.93333	Asia/Bishkek	Jalal-Abad	2016/05/20	excellent
35.34722	-23.85972	Africa/Maputo	Maxixe	11 Jun 2018	average
129.96972	33.4425	Asia/Tokyo	Karatsu	2016/11/06	maintenance
103.65309	16.0567	Asia/Bangkok	Roi Et	19 Nov 2014	good
-73.89125	40.67705	America/New_York	Cypress Hills	2019-02-18	accep
-72.47417	7.83389	America/Bogota	Villa del Rosario	18 Apr 2016	maintenance
22.53083	44.22639	Europe/Belgrade	Negotin	2014/04/06	average
109.3243	-7.0981	Asia/Jakarta	Randudongkal	12/08/2018, 00:00:00	excellent
114.33333	-8.43333	Asia/Jakarta	Muncar	2020-07-22	excellent
78.27539	12.95629	Asia/Kolkata	Robertsonpet	2022/02/26	excellent
136.84186	34.4833	Asia/Tokyo	Toba	2021/04/25	good
5.2875	51.65333	Europe/Amsterdam	Vught	2019-09-14	excellent
-8.53778	7.57944	Africa/Monrovia	New Yekepa	2021-03-24	maintenance
2.31889	35.21222	Africa/Algiers	Ksar Chellala	03/25/2014, 00:00:00	average
68.49143	25.80565	Asia/Karachi	Bhit Shah	04 Jun 2021	excellent
86.79271	25.92127	Asia/Kolkata	Madhipura	08 Mar 2021	average
8.77069	50.80904	Europe/Berlin	Marburg an der Lahn	01 Jul 2021	building
8.88104	45.79377	Europe/Rome	Malnate	05/07/2022, 00:00:00	good
136.51667	35	Asia/Tokyo	Komono	2013/06/21	average
-79.59415	-2.13404	America/Guayaquil	Milagro	2021-02-08	average
5.2875	51.65333	Europe/Amsterdam	Vught	26 Jan 2019	maintenance
30.28491	60.02427	Europe/Moscow	Kolomyagi	09 Dec 2012	excellent
83.62389	53.30972	Asia/Barnaul	Novosilikatnyy	2017-12-25	excellent
-103.42897	20.28527	America/Mexico_City	Jocotepec	16 Sep 2021	good
10.58082	35.72917	Africa/Tunis	Msaken	2013-02-25	average
-13.68778	9.535	Africa/Conakry	Camayenne	09/22/2017, 00:00:00	good
8.2926	9.58126	Africa/Lagos	Kafanchan	08/25/2013, 00:00:00	accep
122.05228	37.19723	Asia/Shanghai	Tianfu	19 Feb 2014	average
84.63445	24.81757	Asia/Kolkata	Rafiganj	21 Apr 2016	average
121.12251	14.62578	Asia/Manila	Antipolo	2013/01/13	good
74.80555	34.08565	Asia/Kolkata	Srinagar	2017/12/24	excellent
75.16878	30.81383	Asia/Kolkata	Moga	17 Jan 2021	accep
84.87144	47.46657	Asia/Almaty	Zaysan	2016/06/01	accep
106.92667	-6.91806	Asia/Jakarta	Sukabumi	2017-04-05	excellent
-90.10674	29.84576	America/Chicago	Estelle	2017-05-23	average
8.86374	44.89784	Europe/Rome	Tortona	16 Nov 2016	average
73.08333	19.21667	Asia/Kolkata	Dombivli	2022/07/28	average
-111.89903	33.50921	America/Phoenix	Scottsdale	2021-05-11	excellent
14.30935	40.92298	Europe/Rome	Afragola	03/14/2017, 00:00:00	good
53.47103	54.48147	Asia/Yekaterinburg	Oktyabr‚Äôskiy	2013/01/01	excellent
-95.30106	32.35126	America/Chicago	Tyler	03 Jun 2021	average
30.98551	2.41669	Africa/Kampala	Paidha	2018-02-01	maintenance
112.01667	-7.81667	Asia/Jakarta	Kediri	2020-05-19	accep
-96.72365	17.06542	America/Mexico_City	Oaxaca	02/02/2015, 00:00:00	excellent
-121.74052	38.54491	America/Los_Angeles	Davis	04/12/2013, 00:00:00	excellent
-3.53261	40.42386	Europe/Madrid	San Fernando de Henares	2019/07/12	excellent
11.32903	50.9803	Europe/Berlin	Weimar	14 May 2015	maintenance
-93.71133	41.57721	America/Chicago	West Des Moines	03/14/2021, 00:00:00	average
9.0027	11.86064	Africa/Lagos	Gaya	12 Sep 2020	good
117.7	35.85	Asia/Shanghai	Dongdu	2016/06/28	average
-3.59625	5.27247	Africa/Abidjan	Bonoua	2019-04-07	average
70.96699	30.46907	Asia/Karachi	Kot Addu	2014-09-10	maintenance
72.54566	29.69221	Asia/Karachi	Hasilpur	12/06/2021, 00:00:00	average
-71.06616	42.4251	America/New_York	Malden	2020/04/03	good
76.11996	11.12018	Asia/Kolkata	Manjeri	07/27/2018, 00:00:00	accep
77.656	28.71271	Asia/Kolkata	Pilkhua	02 Sep 2014	good
133.42825	45.47885	Asia/Vladivostok	Lesozavodsk	2016-05-02	accep
-69.96533	43.91452	America/New_York	Brunswick	2018/06/12	accep
24.43973	0.76755	Africa/Lubumbashi	Yangambi	01/16/2021, 00:00:00	average
86.59509	26.11527	Asia/Kolkata	Supaul	10 Jul 2020	accep
74.80555	34.08565	Asia/Kolkata	Srinagar	03/30/2017, 00:00:00	average
5.74861	52.71083	Europe/Amsterdam	Emmeloord	2012-10-30	maintenance
-86.57415	15.48131	America/Tegucigalpa	Olanchito	2017/01/24	building
2.44892	48.98693	Europe/Paris	Gonesse	2015-02-26	accep
83.36889	26.76628	Asia/Kolkata	Gorakhpur	07/22/2022, 00:00:00	good
139.55722	36	Asia/Tokyo	Okegawa	01/12/2018, 00:00:00	average
71.57737	21.53889	Asia/Kolkata	Gariadhar	26 Jul 2022	good
-37.65	-10.91722	America/Maceio	Lagarto	2016/12/03	average
-73.9614	10.15031	America/Bogota	El Copey	2015-12-20	excellent
51.49621	36.64852	Asia/Tehran	Nowshahr	2019/07/11	accep
69.01354	38.55632	Asia/Dushanbe	Vahdat	25 May 2022	good
73.97117	31.96258	Asia/Karachi	Naushahra Virkan	01 Jun 2013	excellent
51.49621	36.64852	Asia/Tehran	Nowshahr	2020/12/10	acceptable
-0.91979	51.42708	Europe/London	Lower Earley	01/03/2014, 00:00:00	maintenance
-74.13653	40.63316	America/New_York	Port Richmond	2013-05-10	average
-97.50417	25.87972	America/Matamoros	Heroica Matamoros	06/07/2016, 00:00:00	excellent
30.91105	3.02013	Africa/Kampala	Arua	2019-05-25	maintenance
-77.37331	37.60876	America/New_York	Mechanicsville	2019/08/02	good
117.33333	34.85	Asia/Shanghai	Taozhuang	2013-04-03	average
25.8191	53.5942	Europe/Minsk	Novogrudok	05/10/2022, 00:00:00	good
9.15214	49.97704	Europe/Berlin	Aschaffenburg	07/19/2019, 00:00:00	average
-74.28459	40.5576	America/New_York	Woodbridge	19 May 2018	average
-80.08199	35.88264	America/New_York	Thomasville	2021/03/07	excellent
-73.9614	10.15031	America/Bogota	El Copey	2018-06-29	good
69.01354	38.55632	Asia/Dushanbe	Vahdat	2020-03-30	average
129.96972	33.4425	Asia/Tokyo	Karatsu	2013/10/12	accep
114.51667	33.78333	Asia/Shanghai	Wacheng	02 Jan 2022	good
-56.52361	-33.38056	America/Montevideo	Durazno	2018-07-18	average
-5.682	5.84752	Africa/Abidjan	Lakota	2017-09-17	good
88.28637	23.07492	Asia/Kolkata	Pandua	2016/08/12	building
-81.38758	30.17746	America/New_York	Palm Valley	24 Aug 2017	average
8.51667	51.88333	Europe/Berlin	Verl	2022/03/06	good
-101.2591	21.01858	America/Mexico_City	Guanajuato	2018-11-14	building
-1.29772	50.76306	Europe/London	Cowes	2013/07/01	average
106.85417	-6.48167	Asia/Jakarta	Cibinong	2016-08-18	good
-86.19903	11.84962	America/Managua	Jinotepe	2021-08-11	building
8.77155	50.23019	Europe/Berlin	Karben	2020-08-07	accep
30.79165	-27.76952	Africa/Johannesburg	Vryheid	07/01/2015, 00:00:00	excellent
-67.15407	18.42745	America/Puerto_Rico	Aguadilla	12/21/2014, 00:00:00	excellent
122.22833	40.66482	Asia/Shanghai	Yingkou	21 Nov 2012	accep
-7.35	53.53333	Europe/Dublin	An Muileann gCearr	2020-08-31	good
128.62667	34.8825	Asia/Seoul	Sinhyeon	2018-01-28	maintenance
144.23058	-5.85746	Pacific/Port_Moresby	Mount Hagen	03/23/2016, 00:00:00	excellent
2.29275	48.79325	Europe/Paris	Fontenay-aux-Roses	28 Jan 2014	good
-82.07842	26.91756	America/New_York	Punta Gorda Isles	2019/07/08	accep
-115.98391	36.20829	America/Los_Angeles	Pahrump	15 Sep 2021	accep
-2.98884	43.32686	Europe/Madrid	Leioa	2013/06/07	accep
40.74357	37.31309	Europe/Istanbul	Mardin	2016-04-03	accep
125.21972	-8.99167	Asia/Dili	Maliana	11/02/2018, 00:00:00	average
-75.87877	5.6561	America/Bogota	Andes	11/17/2014, 00:00:00	accep
99.89166	15.46063	Asia/Bangkok	Thap Than	15 Nov 2017	average
-120.00865	46.32374	America/Los_Angeles	Sunnyside	2014/12/21	accep
72.54064	31.82539	Asia/Karachi	Sillanwali	2017/09/22	building
126.28333	45.35	Asia/Shanghai	Shuangcheng	2015/05/07	average
-87.93341	42.55308	America/Chicago	Pleasant Prairie	04/20/2014, 00:00:00	excellent
4.52514	12.74482	Africa/Lagos	Argungu	2021/07/21	average
51.67462	32.65246	Asia/Tehran	Isfahan	2017/01/30	maintenance
27.25	42.7	Europe/Sofia	Aytos	26 Oct 2021	accep
68.11759	26.9423	Asia/Karachi	Tharu Shah	2022-01-20	good
114.51667	33.78333	Asia/Shanghai	Wacheng	2019-11-08	good
-65.71875	-21.44345	America/La_Paz	Tupiza	2021/01/17	maintenance
-0.32247	50.82882	Europe/London	Lancing	2014-08-21	accep
2.18247	41.41204	Europe/Madrid	el Camp de l'Arpa del Clot	2022/03/14	average
75.16878	30.81383	Asia/Kolkata	Moga	2022-08-10	building
-73.95097	40.72371	America/New_York	Greenpoint	2016/12/10	excellent
-77.4286	39.00622	America/New_York	Sterling	2017/04/11	average
-84.13722	9.92787	America/Costa_Rica	San Rafael	2014-07-05	good
-72.09391	18.65297	America/Port-au-Prince	Thomazeau	2013/07/25	accep
30.2049	55.1904	Europe/Minsk	Vitebsk	20 Feb 2021	maitennce
43.2379	50.06	Europe/Volgograd	Mikhaylovka	2019/03/24	maintenance
-2.31938	6.46346	Africa/Accra	Bibiani	10 Dec 2013	good
-86.77917	36.02506	America/Chicago	Brentwood Estates	24 Jul 2021	average
3.47717	36.76639	Africa/Algiers	Boumerdas	2013-06-19	good
-1.05366	43.71032	Europe/Paris	Dax	07/28/2014, 00:00:00	excellent
43.63417	43.96222	Europe/Moscow	Novopavlovsk	10/18/2020, 00:00:00	good
35.7	-7.76667	Africa/Dar_es_Salaam	Iringa	13 Mar 2017	building
-6.00137	33.42585	Africa/Casablanca	Oulmes	18 Apr 2019	accep
117.4831	27.34089	Asia/Shanghai	Shaowu	09/19/2013, 00:00:00	accep
-1.48119	53.0233	Europe/London	Belper	08/28/2016, 00:00:00	good
43.2379	50.06	Europe/Volgograd	Mikhaylovka	2021-07-24	excellent
51.0193	35.6803	Asia/Tehran	Shahre Jadide Andisheh	2016/05/24	maintenance
-100.44843	20.74122	America/Mexico_City	Santa Rosa Jauregui	2015/05/07	average
86.00214	46.51872	Asia/Urumqi	Hoxtolgay	2013/07/01	maintenance
14.39024	42.22718	Europe/Rome	Lanciano	10/13/2012, 00:00:00	average
-73.95097	40.72371	America/New_York	Greenpoint	02/27/2019, 00:00:00	average
-105.11221	39.57582	America/Denver	Ken Caryl	28 Feb 2015	average
-77.37331	37.60876	America/New_York	Mechanicsville	08/28/2019, 00:00:00	building
-0.33525	53.7446	Europe/London	Kingston upon Hull	2017-02-06	maintenance
-116.56346	43.54072	America/Boise	Nampa	2021/07/10	good
-99.32556	19.32889	America/Mexico_City	San Lorenzo Acopilco	2013/05/23	average
11.18709	48.73218	Europe/Berlin	Neuburg an der Donau	07/04/2019, 00:00:00	good
178.00417	-38.65333	Pacific/Auckland	Gisborne	2017-11-24	building
100.48528	14.37395	Asia/Bangkok	Bang Ban	2017/08/23	average
-73.89875	40.93121	America/New_York	Yonkers	09/29/2019, 00:00:00	average
-74.07764	40.72816	America/New_York	Jersey City	10 Aug 2022	average
2.25	50.75	Europe/Paris	Saint-Omer	07 Jun 2018	good
-118.25508	34.14251	America/Los_Angeles	Glendale	2018/04/13	accep
5.51978	51.44889	Europe/Amsterdam	Tongelre	2015-01-28	average
2.1699	48.98994	Europe/Paris	Herblay	01 Oct 2020	average
35.59642	3.11988	Africa/Nairobi	Lodwar	02/21/2018, 00:00:00	accep
4.92235	7.65649	Africa/Lagos	Efon-Alaaye	20 Nov 2016	good
-60.1831	46.1351	America/Glace_Bay	Sydney	2020-03-26	accep
34.34691	61.78491	Europe/Moscow	Petrozavodsk	01/12/2022, 00:00:00	average
178.00417	-38.65333	Pacific/Auckland	Gisborne	2015-12-25	maintenance
8.77155	50.23019	Europe/Berlin	Karben	2022-08-25	excellent
-87.88754	41.15376	America/Chicago	Bourbonnais	2020/07/18	average
3.20639	50.74497	Europe/Brussels	Mouscron	2015/12/12	accep
24.99798	-8.73508	Africa/Lubumbashi	Kamina	2019-06-19	average
91.00632	26.32293	Asia/Kolkata	Barpeta	01/30/2020, 00:00:00	excellent
78.27539	12.95629	Asia/Kolkata	Robertsonpet	2020-12-09	excellent
121.96361	6.95194	Asia/Manila	Recodo	12/22/2017, 00:00:00	excellent
37.38115	55.63711	Europe/Moscow	Solntsevo	18 Sep 2014	average
-87.71255	41.84364	America/Chicago	South Lawndale	04/03/2015, 00:00:00	good
178.00417	-38.65333	Pacific/Auckland	Gisborne	01 Apr 2015	good
-70.6996	-33.59217	America/Santiago	San Bernardo	2015-05-23	average
10.98461	48.35693	Europe/Berlin	Friedberg	09/28/2012, 00:00:00	good
126.665	36.6009	Asia/Seoul	Hongseong	05/26/2019, 00:00:00	accep
137.4	34.81667	Asia/Tokyo	Toyokawa	12/14/2017, 00:00:00	average
120.03308	28.88162	Asia/Shanghai	Guli	2019-10-03	accep
-98.1664	19.32932	America/Mexico_City	Contla	07/11/2021, 00:00:00	good
113.69785	-7.73379	Asia/Jakarta	Besuki	22 Dec 2017	average
145.13643	-38.16604	Australia/Melbourne	Frankston South	2022-03-19	accep
-82.90375	32.54044	America/New_York	Dublin	08/15/2013, 00:00:00	excellent
75.96976	15.73628	Asia/Kolkata	Gajendragarh	30 May 2014	good
-73.89125	40.67705	America/New_York	Cypress Hills	2016-10-16	maintenance
79.5286	29.22254	Asia/Kolkata	Haldwani	2017-03-02	accep
136.13108	34.75856	Asia/Tokyo	Ueno-ebisumachi	25 Aug 2017	good
16.54165	68.79833	Europe/Oslo	Harstad	22 Mar 2015	excellent
120.56528	14.66	Asia/Manila	Pilar	01 Apr 2022	excellent
2.25	50.75	Europe/Paris	Saint-Omer	2014/12/27	excellent
15.00835	51.14942	Europe/Warsaw	Zgorzelec	2022-09-16	maintenance
39.28333	-10.33333	Africa/Dar_es_Salaam	Nyangao	2015/04/30	accep
14.01481	42.67164	Europe/Rome	Roseto degli Abruzzi	15 Nov 2020	good
136.13108	34.75856	Asia/Tokyo	Ueno-ebisumachi	04 Feb 2013	average
-122.24064	47.80527	America/Los_Angeles	Bothell West	2015-12-20	average
-71.06616	42.4251	America/New_York	Malden	04/10/2013, 00:00:00	excellent
-4.10734	38.68712	Europe/Madrid	Puertollano	07 Jan 2020	maintenance
-8.53778	7.57944	Africa/Monrovia	New Yekepa	27 Jun 2013	excellent
-2.68333	43.31667	Europe/Madrid	Gernika-Lumo	23 Mar 2015	maintenance
-0.2	51.65	Europe/London	Barnet	2014-06-01	maintenance
122.20488	29.98869	Asia/Shanghai	Zhoushan	06 Jan 2020	accep
122.74754	40.85158	Asia/Shanghai	Haicheng	10/04/2021, 00:00:00	maitennce
9.22796	48.46458	Europe/Berlin	Pfullingen	06/26/2014, 00:00:00	accep
36.7138	35.95664	Asia/Damascus	Binnish	2021-07-02	average
1.33467	43.61058	Europe/Paris	Colomiers	12/13/2014, 00:00:00	accep
5.16108	48.77275	Europe/Paris	Bar-le-Duc	08/17/2020, 00:00:00	excellent
6.74549	49.5099	Europe/Berlin	Losheim	09/28/2020, 00:00:00	excellent
-105.11221	39.57582	America/Denver	Ken Caryl	2019/01/17	building
-99.73314	32.44874	America/Chicago	Abilene	2020-12-29	good
102.3278	2.2139	Asia/Kuala_Lumpur	Kampung Ayer Molek	04/10/2014, 00:00:00	good
-119.48568	49.88307	America/Vancouver	Kelowna	07/14/2020, 00:00:00	accep
48.87498	38.45598	Asia/Baku	Astara	2022-08-08	maintenance
38.12408	53.77166	Europe/Moscow	Bogoroditsk	08/27/2017, 00:00:00	good
15.16554	-4.5833	Africa/Kinshasa	Kasangulu	2016/01/06	building
4.85668	36.27462	Africa/Algiers	Bordj Zemoura	2018/05/08	maintenance
-75.23266	43.1009	America/New_York	Utica	2020-05-30	average
35.7	-7.76667	Africa/Dar_es_Salaam	Iringa	2022-04-20	good
76.0586	16.06213	Asia/Kolkata	Hungund	06/25/2017, 00:00:00	maintenance
-122.39168	40.58654	America/Los_Angeles	Redding	04/14/2022, 00:00:00	accep
-77.37331	37.60876	America/New_York	Mechanicsville	08 Jan 2021	accep
140.11667	37.56667	Asia/Tokyo	Inawashiro	05/07/2014, 00:00:00	good
37.92792	53.93361	Europe/Moscow	Kireyevsk	2016-02-10	excellent
-3.05	53.81667	Europe/London	Blackpool	2015/03/10	good
145.13643	-38.16604	Australia/Melbourne	Frankston South	2018/03/18	accep
98.19151	14.0823	Asia/Yangon	Dawei	2016-11-14	average
13.57661	37.31065	Europe/Rome	Agrigento	2015/11/26	excellent
112.9	27.85	Asia/Shanghai	Xiangtan	07/05/2019, 00:00:00	building
-0.32247	50.82882	Europe/London	Lancing	04/09/2021, 00:00:00	average
-74.96933	39.71734	America/New_York	Sicklerville	2013-11-30	good
-122.23484	47.38093	America/Los_Angeles	Kent	03/23/2021, 00:00:00	building
24.75	55.25	Europe/Vilnius	Ukmerge	13 Apr 2022	excellent
101.96857	4.88441	Asia/Kuala_Lumpur	Gua Musang	08/08/2017, 00:00:00	accep
115.70111	37.73222	Asia/Shanghai	Hengshui	2014/10/17	average
30.38167	59.80917	Europe/Moscow	Shushary	03 Oct 2017	excellent
100.48528	14.37395	Asia/Bangkok	Bang Ban	06/14/2013, 00:00:00	building
26.01649	44.43579	Europe/Bucharest	Sector 6	12 Feb 2017	maitennce
-73.75513	40.60538	America/New_York	Far Rockaway	21 Mar 2018	accep
34.11169	0.46005	Africa/Nairobi	Busia	2017/10/27	good
-73.9625	40.81	America/New_York	Morningside Heights	2020-05-25	average
74.83554	14.62072	Asia/Kolkata	Sirsi	2013/01/09	building
43.2379	50.06	Europe/Volgograd	Mikhaylovka	02 May 2022	accep
-67.33122	10.22677	America/Caracas	La Victoria	07/21/2017, 00:00:00	average
9.40531	45.53069	Europe/Rome	Gorgonzola	23 Apr 2013	excellent
-73.58248	45.40008	America/Toronto	Sainte-Catherine	15 Jan 2017	excellent
106.85417	-6.48167	Asia/Jakarta	Cibinong	2016/04/17	maintenance
124.95278	6.33444	Asia/Manila	Tupi	05/20/2018, 00:00:00	maintenance
46.5813	54.8421	Europe/Moscow	Alatyr‚Äô	10 Dec 2019	excellent
144.23058	-5.85746	Pacific/Port_Moresby	Mount Hagen	03/17/2020, 00:00:00	accep
74.4818	30.21121	Asia/Kolkata	Malaut	2017-03-03	good
-77.70066	43.16547	America/New_York	Gates-North Gates	2019/12/08	good
-86.11084	41.75338	America/Indiana/Indianapolis	Granger	2016-03-24	good
144.09638	43.82634	Asia/Tokyo	Motomachi	01 Apr 2014	accep
-8.33147	41.20485	Europe/Lisbon	Paredes	2016-06-18	average
13.44275	38.07789	Europe/Rome	Villabate	26 Nov 2015	maintenance
88.1453	22.4711	Asia/Kolkata	Pujali	2020/12/03	maintenance
38.01667	11.85	Africa/Addis_Ababa	Debre Tabor	2013/08/12	average
98.6738	3.7278	Asia/Jakarta	Labuhan Deli	2014/10/04	excellent
-52.2	-28.44917	America/Sao_Paulo	Marau	25 Jul 2020	good
-76.51552	39.32011	America/New_York	Rosedale	2016-07-31	excellent
71.57118	32.87533	Asia/Karachi	Daud Khel	2014-01-19	excellent
141.95	39.46667	Asia/Tokyo	Yamada	04 Nov 2012	excellent
-85.76942	39.78504	America/Indiana/Indianapolis	Greenfield	04/22/2019, 00:00:00	building
4.92235	7.65649	Africa/Lagos	Efon-Alaaye	2016-12-12	good
-51.50361	-29.2975	America/Sao_Paulo	Carlos Barbosa	2018/06/19	accep
7.11393	51.08468	Europe/Berlin	Burscheid	2017-12-12	building
71.57118	32.87533	Asia/Karachi	Daud Khel	07/28/2018, 00:00:00	excellent
115.70111	37.73222	Asia/Shanghai	Hengshui	2019-12-04	average
14.72443	36.92574	Europe/Rome	Ragusa	2016-10-22	accep
-58.44417	-3.14306	America/Manaus	Itacoatiara	2020/04/27	maintenance
105.89333	34.56861	Asia/Shanghai	Beidao	06/03/2015, 00:00:00	accep
24.95034	60.18427	Europe/Helsinki	Kallio	15 Jul 2022	excellent
-5.53715	50.11861	Europe/London	Penzance	07/29/2018, 00:00:00	accep
16.91667	-21.98333	Africa/Windhoek	Okahandja	26 Dec 2018	maintenance
51.3452	53.37596	Europe/Samara	Otradnyy	04 Nov 2020	accep
30.79165	-27.76952	Africa/Johannesburg	Vryheid	2013/05/30	average
140.72287	53.14657	Asia/Vladivostok	Nikolayevsk-on-Amure	2020/07/07	maintenance
104.1451	15.79408	Asia/Bangkok	Yasothon	30 Oct 2018	accep
-73.26022	6.46838	America/Bogota	Socorro	2019/11/23	accep
-77.96389	39.45621	America/New_York	Martinsburg	2013-06-01	accep
16.86194	54.58048	Europe/Warsaw	Ustka	03/11/2013, 00:00:00	average
78.55757	17.34769	Asia/Kolkata	Lal Bahadur Nagar	15 Nov 2017	average
135.31667	34.25	Asia/Tokyo	Iwade	10/11/2018, 00:00:00	excellent
13.39954	43.62558	Europe/Rome	Falconara Marittima	19 Apr 2018	building
5.06258	7.50251	Africa/Lagos	Igbara-Odo	06/04/2014, 00:00:00	maintenance
-122.23484	47.38093	America/Los_Angeles	Kent	31 Jul 2015	excellent
15.07041	37.49223	Europe/Rome	Catania	03/11/2017, 00:00:00	excellent
113.69785	-7.73379	Asia/Jakarta	Besuki	04/02/2022, 00:00:00	good
-105.11221	39.57582	America/Denver	Ken Caryl	2021-05-06	good
139.55028	35.30889	Asia/Tokyo	Kamakura	2018/09/10	accep
83.62389	53.30972	Asia/Barnaul	Novosilikatnyy	04 May 2017	excellent
124.3697	9.6531	Asia/Manila	Jagna	2014-07-27	average
-79.2663	43.86682	America/Toronto	Markham	19 Jun 2018	excellent
-95.36969	35.74788	America/Chicago	Muskogee	07/07/2016, 00:00:00	good
75.35927	12.04161	Asia/Kolkata	Talipparamba	2022/01/27	good
117.4831	27.34089	Asia/Shanghai	Shaowu	2022/08/09	excellent
5.16108	48.77275	Europe/Paris	Bar-le-Duc	2021-06-02	good
24.43973	0.76755	Africa/Lubumbashi	Yangambi	09 Mar 2017	accep
38.28402	34.5624	Asia/Damascus	Tadmur	05/02/2020, 00:00:00	building
121.12251	14.62578	Asia/Manila	Antipolo	17 Sep 2014	excellent
-86.19903	11.84962	America/Managua	Jinotepe	2019-01-05	maintenance
78.55757	17.34769	Asia/Kolkata	Lal Bahadur Nagar	2022-04-02	maintenance
40.17171	58.1908	Europe/Moscow	Danilov	2018-11-09	accep
-3.53261	40.42386	Europe/Madrid	San Fernando de Henares	03/20/2018, 00:00:00	accep
79.87116	6.84019	Asia/Colombo	Dehiwala-Mount Lavinia	2015/01/11	average
-47.53028	-22.45667	America/Sao_Paulo	Santa Gertrudes	05/24/2017, 00:00:00	accep
32.6178	46.65581	Europe/Kiev	Kherson	26 Aug 2014	good
138.31667	36.65	Asia/Tokyo	Suzaka	2020-09-04	excellent
124.95278	6.33444	Asia/Manila	Tupi	2015/11/09	good
117.7	35.85	Asia/Shanghai	Dongdu	10 Feb 2022	building
-71.10077	18.20854	America/Santo_Domingo	Santa Cruz de Barahona	08/12/2021, 00:00:00	average
76.03889	18.18158	Asia/Kolkata	Osmanabad	11 Apr 2017	good
2.25	50.75	Europe/Paris	Saint-Omer	2016/04/22	good
1.26738	51.84819	Europe/London	Walton-on-the-Naze	12/25/2019, 00:00:00	excellent
76.12647	32.55531	Asia/Kolkata	Chamba	11 Jan 2021	maintenance
-2.58736	56.56317	Europe/London	Arbroath	2014/03/29	excellent
10.03988	53.6052	Europe/Berlin	Barmbek-Nord	04 Oct 2016	good
101.44167	0.51667	Asia/Jakarta	Pekanbaru	09 Feb 2017	maintenance
11.37703	48.06919	Europe/Berlin	Gauting	2017/11/03	excellent
-90.10674	29.84576	America/Chicago	Estelle	2017-08-22	good
-61.51889	10.66668	America/Port_of_Spain	Port of Spain	01/26/2014, 00:00:00	average
6.92917	52.31333	Europe/Amsterdam	Oldenzaal	10 Jun 2013	average
1.33467	43.61058	Europe/Paris	Colomiers	05/08/2019, 00:00:00	average
19.21437	44.75874	Europe/Sarajevo	Bijeljina	2019/03/21	excellent
24.43973	0.76755	Africa/Lubumbashi	Yangambi	2018/11/10	good
76.0586	16.06213	Asia/Kolkata	Hungund	25 Oct 2021	good
110.71639	-7.54972	Asia/Jakarta	Ngemplak	04/15/2022, 00:00:00	maintenance
112.73333	38.40917	Asia/Shanghai	Xinzhou	18 Oct 2021	excellent
-93.08883	45.16024	America/Chicago	Lino Lakes	2013-11-22	building
76.12647	32.55531	Asia/Kolkata	Chamba	2014-10-09	excellent
136.84186	34.4833	Asia/Tokyo	Toba	10/20/2021, 00:00:00	excellent
-104.22884	32.42067	America/Denver	Carlsbad	04/25/2018, 00:00:00	excellent
-86.11084	41.75338	America/Indiana/Indianapolis	Granger	20 Jul 2016	accep
8.2926	9.58126	Africa/Lagos	Kafanchan	2013/11/23	good
78.15794	12.1277	Asia/Kolkata	Dharmapuri	01/20/2016, 00:00:00	accep
10.18527	47.98372	Europe/Berlin	Memmingen	15 Sep 2021	accep
27.06365	50.18545	Europe/Kiev	Shepetivka	2022/02/01	excellent
122.22833	40.66482	Asia/Shanghai	Yingkou	2017-06-24	excellent
-93.11308	16.75973	America/Mexico_City	Tuxtla	14 May 2018	good
3.39467	6.45407	Africa/Lagos	Lagos	14 Oct 2021	accep
38.66667	-6.25	Africa/Dar_es_Salaam	Mvomero	2022/04/21	average
-80.31727	25.67927	America/New_York	Kendall	2014-08-25	excellent
-73.95097	40.72371	America/New_York	Greenpoint	02/25/2014, 00:00:00	accep
99.96667	8.43333	Asia/Bangkok	Nakhon Si Thammarat	2021/05/16	good
37.3825	37.05944	Europe/Istanbul	Gaziantep	10/21/2017, 00:00:00	good
12.38878	43.1122	Europe/Rome	Perugia	28 Mar 2017	building
113.13148	23.02677	Asia/Shanghai	Foshan	2015-02-05	excellent
122.74754	40.85158	Asia/Shanghai	Haicheng	2015/01/31	accep
8.91229	49.13645	Europe/Berlin	Eppingen	15 Jan 2022	excellent
72.68533	22.75218	Asia/Kolkata	Kheda	08 Oct 2019	excellent
4.92235	7.65649	Africa/Lagos	Efon-Alaaye	03/30/2019, 00:00:00	good
-73.95958	40.57788	America/New_York	Brighton Beach	2016/06/02	building
38.01667	-5.41667	Africa/Dar_es_Salaam	Chanika	09/03/2018, 00:00:00	accep
14.43865	40.87329	Europe/Rome	Somma Vesuviana	2016-08-15	average
-69.96533	43.91452	America/New_York	Brunswick	2015-12-20	accep
103.81667	1.6	Asia/Kuala_Lumpur	Ulu Tiram	10/31/2017, 00:00:00	accep
140.73667	41.77583	Asia/Tokyo	Hakodate	2015-02-22	maintenance
-83.55521	41.66394	America/New_York	Toledo	17 Nov 2016	accep
14.39024	42.22718	Europe/Rome	Lanciano	25 Sep 2017	average
140.72287	53.14657	Asia/Vladivostok	Nikolayevsk-on-Amure	15 Aug 2021	accep
152.70493	-25.54073	Australia/Brisbane	Maryborough	06/23/2014, 00:00:00	good
6.74549	49.5099	Europe/Berlin	Losheim	08 Jan 2015	accep
5.4584	43.32393	Europe/Paris	Les Olives	07/05/2020, 00:00:00	building
178.00417	-38.65333	Pacific/Auckland	Gisborne	02/14/2021, 00:00:00	excellent
111.4834	65.93381	Asia/Yakutsk	Aykhal	2013-02-08	maintenance
-38.79084	-10.95817	America/Bahia	Tucano	2014-12-08	good
-0.76667	53.38333	Europe/London	Gainsborough	2015/03/21	maintenance
9.15013	13.70727	Africa/Niamey	Mirriah	02/19/2018, 00:00:00	excellent
178.00417	-38.65333	Pacific/Auckland	Gisborne	25 Sep 2013	accep
78.15794	12.1277	Asia/Kolkata	Dharmapuri	2021/09/21	building
-3.05	53.81667	Europe/London	Blackpool	16 Aug 2013	building
85.37752	22.10194	Asia/Kolkata	Barbil	09/25/2020, 00:00:00	average
-93.12577	44.73941	America/Chicago	Rosemount	11/27/2016, 00:00:00	building
10.98461	48.35693	Europe/Berlin	Friedberg	06/02/2015, 00:00:00	excellent
110.71639	-7.54972	Asia/Jakarta	Ngemplak	2015/12/19	excellent
8.51667	51.88333	Europe/Berlin	Verl	05/12/2016, 00:00:00	accep
-116.56346	43.54072	America/Boise	Nampa	09/07/2022, 00:00:00	good
124.95278	6.33444	Asia/Manila	Tupi	2021/04/19	good
113.13148	23.02677	Asia/Shanghai	Foshan	2013-04-21	average
-111.90466	40.34912	America/Denver	Saratoga Springs	2022/02/28	maintenance
9.5926	52.86147	Europe/Berlin	Walsrode	2018/05/02	maintenance
86.59611	25.87498	Asia/Kolkata	Saharsa	27 Aug 2016	building
127.08472	36.20389	Asia/Seoul	Nonsan	2017/11/24	average
2.59753	8.88649	Africa/Porto-Novo	Tchaourou	2015-01-04	building
-84.13722	9.92787	America/Costa_Rica	San Rafael	26 Sep 2022	average
-4.0573	55.82737	Europe/London	Viewpark	2013/05/17	accep
18.28333	59.33333	Europe/Stockholm	Boo	26 Jan 2015	building
-97.03285	47.92526	America/Chicago	Grand Forks	13 Mar 2014	good
-58.44417	-3.14306	America/Manaus	Itacoatiara	2016/10/04	maintenance
-73.81669	45.44868	America/Toronto	Pointe-Claire	2017/11/28	good
-85.43772	10.63504	America/Costa_Rica	Liberia	2022/07/20	accep
130.57211	45.75279	Asia/Shanghai	Boli	17 Jun 2014	average
-77.43532	20.14298	America/Havana	Media Luna	2014-11-10	accep
74.3092	33.37526	Asia/Kolkata	Rajaori	18 Feb 2016	building
35.90057	56.85836	Europe/Moscow	Tver	06/08/2014, 00:00:00	accep
99.89166	15.46063	Asia/Bangkok	Thap Than	07 Feb 2022	accep
7.00417	52.26083	Europe/Amsterdam	Losser	06/21/2021, 00:00:00	good
-9.24671	38.72706	Europe/Lisbon	Carnaxide	2021-01-13	good
75.92694	14.46693	Asia/Kolkata	Davangere	23 Oct 2018	accep
-48.59278	-23.7975	America/Sao_Paulo	Buri	2019-06-24	good
140.73667	41.77583	Asia/Tokyo	Hakodate	2015/02/21	average
4.18333	7.6	Africa/Lagos	Olupona	2016-09-13	average
1.53414	42.50729	Europe/Andorra	les Escaldes	27 Sep 2017	average
-2.01111	52.66277	Europe/London	Great Wyrley	2019-01-21	accep
44.02488	32.61603	Asia/Baghdad	Karbala	10/11/2016, 00:00:00	accep
36.7138	35.95664	Asia/Damascus	Binnish	06/12/2019, 00:00:00	maintenance
-1.06667	53.78333	Europe/London	Selby	2020/01/05	building
45.36561	41.09246	Asia/Baku	Qazax	11/21/2018, 00:00:00	excellent
117.59152	3.31332	Asia/Makassar	Tarakan	08/31/2021, 00:00:00	good
44.53333	-22.9	Indian/Antananarivo	Sakaraha	2021-07-30	excellent
4.74161	7.62789	Africa/Lagos	Ilesa	10/04/2020, 00:00:00	excellent
37.55	6.03333	Africa/Addis_Ababa	Arba Minch	2019/02/23	maintenance
24.99798	-8.73508	Africa/Lubumbashi	Kamina	2022/08/21	building
126.835	37.65639	Asia/Seoul	Goyang-si	2017/07/14	building
-47.1725	-22.57306	America/Sao_Paulo	Artur Nogueira	2020-03-18	average
2.08333	48.86667	Europe/Paris	Marly-le-Roi	14 Oct 2021	good
77.5609	11.00599	Asia/Kolkata	Kangayam	2018/04/05	building
12.6723	41.72063	Europe/Rome	Ariccia	2016-07-01	excellent
-73.99681	40.94065	America/New_York	Dumont	2014/06/26	average
-6.90656	33.92866	Africa/Casablanca	Temara	2018/11/29	average
72.34424	40.78206	Asia/Tashkent	Andijon	2018-02-10	excellent
5.37429	51.03427	Europe/Brussels	Houthalen	12 May 2021	accep
4.91667	45.73333	Europe/Paris	Bron	2018-02-25	excellent
5.22778	51.955	Europe/Amsterdam	Culemborg	2016/11/10	good
-5.682	5.84752	Africa/Abidjan	Lakota	2016-08-09	average
-1.5443	50.75767	Europe/London	Lymington	2018-10-21	excellent
17.8031	48.43174	Europe/Bratislava	Hlohovec	2022-09-14	average
117.4831	27.34089	Asia/Shanghai	Shaowu	13 Sep 2021	building
83.62389	53.30972	Asia/Barnaul	Novosilikatnyy	2017/12/25	excellent
-73.86586	45.43341	America/Toronto	Beaconsfield	2020/04/12	maintenance
5.06258	7.50251	Africa/Lagos	Igbara-Odo	01/08/2016, 00:00:00	accep
-86.77917	36.02506	America/Chicago	Brentwood Estates	09 Oct 2013	excellent
30.2049	55.1904	Europe/Minsk	Vitebsk	04 Apr 2021	building
76.0586	16.06213	Asia/Kolkata	Hungund	03/18/2022, 00:00:00	average
12.38878	43.1122	Europe/Rome	Perugia	2022-03-31	accep
-84.20299	39.43534	America/New_York	Lebanon	30 Nov 2021	maintenance
139.55028	35.30889	Asia/Tokyo	Kamakura	06/13/2019, 00:00:00	good
38.2739	46.7055	Europe/Moscow	Yeysk	22 Jan 2014	good
41.00817	38.13708	Europe/Istanbul	Silvan	10/20/2017, 00:00:00	accep
46.5813	54.8421	Europe/Moscow	Alatyr‚Äô	2018-12-07	accep
-73.9625	40.81	America/New_York	Morningside Heights	2022/07/07	excellent
13.58357	-1.63333	Africa/Libreville	Franceville	2022-05-19	maintenance
-74.15987	40.82232	America/New_York	Nutley	2013-05-10	accep
29.65806	-4.83	Africa/Dar_es_Salaam	Mwandiga	2016-03-05	good
8.52462	47.30997	Europe/Zurich	Adliswil	22 Oct 2013	good
36.7138	35.95664	Asia/Damascus	Binnish	2015-01-13	average
29.00974	-24.19436	Africa/Johannesburg	Mokopane	05/10/2016, 00:00:00	good
37.99117	44.92934	Europe/Moscow	Krymsk	09/25/2014, 00:00:00	excellent
117.4831	27.34089	Asia/Shanghai	Shaowu	2019/09/10	good
-77.70066	43.16547	America/New_York	Gates-North Gates	10/10/2013, 00:00:00	good
-37.07167	-10.91111	America/Maceio	Aracaju	12 Sep 2013	average
14.66737	41.55947	Europe/Rome	Campobasso	2018-05-13	accep
-117.71978	34.09668	America/Los_Angeles	Claremont	23 Sep 2021	average
-0.91979	51.42708	Europe/London	Lower Earley	2016/01/27	maintenance
113.13148	23.02677	Asia/Shanghai	Foshan	12/30/2017, 00:00:00	excellent
-74.01042	41.50343	America/New_York	Newburgh	2018-03-23	maintenance
88.28637	23.07492	Asia/Kolkata	Pandua	11/02/2012, 00:00:00	building
99.96667	8.43333	Asia/Bangkok	Nakhon Si Thammarat	2022-05-26	good
-47.53028	-22.45667	America/Sao_Paulo	Santa Gertrudes	14 Dec 2017	good
53.26023	54.39304	Europe/Moscow	Bavly	2017-03-27	maintenance
-58.38341	-34.64966	America/Argentina/Buenos_Aires	Barracas	04/19/2014, 00:00:00	good
6.26667	51.21667	Europe/Berlin	Schwalmtal	2019-02-20	excellent
2.95924	36.76775	Africa/Algiers	Cheraga	2015/08/29	average
8.52462	47.30997	Europe/Zurich	Adliswil	2016/12/11	accep
81.54855	26.2649	Asia/Kolkata	Jais	2020/05/15	good
41.00817	38.13708	Europe/Istanbul	Silvan	06/12/2015, 00:00:00	good
9.85	53.63333	Europe/Berlin	Halstenbek	05 Mar 2017	building
2.08333	48.86667	Europe/Paris	Marly-le-Roi	2014/12/02	building
123.17306	41.27194	Asia/Shanghai	Liaoyang	2017/03/25	good
13.58357	-1.63333	Africa/Libreville	Franceville	27 Dec 2020	maintenance
28.19028	59.37722	Europe/Tallinn	Narva	2022-01-17	average
68.11759	26.9423	Asia/Karachi	Tharu Shah	2020-05-15	good
-6.90656	33.92866	Africa/Casablanca	Temara	2022/08/20	accep
-60.1831	46.1351	America/Glace_Bay	Sydney	2016/01/14	building
72.68533	22.75218	Asia/Kolkata	Kheda	2021/09/17	good
-71.06616	42.4251	America/New_York	Malden	2016-02-16	good
8.61839	49.68369	Europe/Berlin	Bensheim	2016-10-24	maintenance
120.03308	28.88162	Asia/Shanghai	Guli	11/19/2012, 00:00:00	average
-83.55521	41.66394	America/New_York	Toledo	16 Aug 2018	good
-89.64066	40.56754	America/Chicago	Pekin	30 Oct 2021	building
-91.73625	35.25064	America/Chicago	Searcy	06/17/2018, 00:00:00	building
7.02238	52.21099	Europe/Berlin	Gronau	2015/05/01	average
-2.31938	6.46346	Africa/Accra	Bibiani	2020/03/23	accep
43.83992	55.39485	Europe/Moscow	Arzamas	2019-12-17	average
-85.43772	10.63504	America/Costa_Rica	Liberia	08/14/2015, 00:00:00	good
4.91667	45.73333	Europe/Paris	Bron	2018-01-27	maintenance
-2.09814	57.14369	Europe/London	Aberdeen	05/09/2015, 00:00:00	building
35.7	-7.76667	Africa/Dar_es_Salaam	Iringa	04 Aug 2014	excellent
137.23333	35.8	Asia/Tokyo	Gero	2021-08-15	building
-86.11084	41.75338	America/Indiana/Indianapolis	Granger	2022/08/10	accep
-1.325	38.47917	Europe/Madrid	Jumilla	01/01/2018, 00:00:00	maintenance
101.44167	0.51667	Asia/Jakarta	Pekanbaru	16 Feb 2020	average
-115.98391	36.20829	America/Los_Angeles	Pahrump	2020/08/10	good
91.61356	26.44931	Asia/Kolkata	Rangia	2013/01/19	average
-2.12139	52.48173	Europe/London	Brierley Hill	2018-02-17	average
-98.11889	19.04222	America/Mexico_City	Casa Blanca	03 Feb 2015	average
4.08282	36.61954	Africa/Algiers	Beni Douala	2014/06/28	excellent
34.8732	32.05971	Asia/Jerusalem	Ganei Tikva	2016/09/20	average
-1.06667	53.78333	Europe/London	Selby	05/01/2021, 00:00:00	accep
99.96667	8.43333	Asia/Bangkok	Nakhon Si Thammarat	11/28/2012, 00:00:00	average
120.14278	32.50611	Asia/Shanghai	Jiangyan	27 Feb 2020	excellent
-1.4001	7.06273	Africa/Accra	Mampong	2019-10-14	building
26.97253	49.65186	Europe/Kiev	Krasyliv	2014-03-01	average
100.04427	13.8196	Asia/Bangkok	Nakhon Pathom	2021/11/01	building
8.88104	45.79377	Europe/Rome	Malnate	04/09/2015, 00:00:00	accep
0.30367	51.38673	Europe/London	Hartley	11 Dec 2016	good
101.02083	4.02219	Asia/Kuala_Lumpur	Teluk Intan	02/13/2022, 00:00:00	good
-41.25528	-19.32556	America/Sao_Paulo	Resplendor	2019-04-19	excellent
14.34085	40.87363	Europe/Rome	Volla	2018-02-12	accep
10.18003	24.96334	Africa/Tripoli	Ghat	2019-11-16	average
36.73307	55.38752	Europe/Moscow	Naro-Fominsk	2019-11-30	average
7.2278	50.64336	Europe/Berlin	Bad Honnef	2018/03/27	excellent
9.5586	54.52156	Europe/Berlin	Schleswig	2017/12/27	average
14.34085	40.87363	Europe/Rome	Volla	09/08/2014, 00:00:00	accep
-66.8499	18.03496	America/Puerto_Rico	Yauco	2013-04-29	accep
42.7125	11.15583	Africa/Djibouti	'Ali Sabieh	2021/07/07	good
-7.95	53.43333	Europe/Dublin	Athlone	2015/02/08	good
-119.27337	50.26729	America/Vancouver	Vernon	01/02/2018, 00:00:00	maintenance
38.07083	54.90083	Europe/Moscow	Stupino	11/23/2020, 00:00:00	building
1.6	43.11667	Europe/Paris	Pamiers	2022-04-28	good
1.00288	49.28669	Europe/Paris	Elbeuf	2021/01/03	accep
48.87498	38.45598	Asia/Baku	Astara	08 Aug 2021	maintenance
106.92667	-6.91806	Asia/Jakarta	Sukabumi	2018-08-17	excellent
126.835	37.65639	Asia/Seoul	Goyang-si	2020/06/16	maintenance
10.03988	53.6052	Europe/Berlin	Barmbek-Nord	04/12/2022, 00:00:00	building
124.3697	9.6531	Asia/Manila	Jagna	2018-10-02	building
71.30633	21.34222	Asia/Kolkata	Kundla	28 Apr 2021	average
171.25364	-44.39672	Pacific/Auckland	Timaru	05/09/2022, 00:00:00	good
-117.14392	32.9156	America/Los_Angeles	Mira Mesa	02/22/2020, 00:00:00	building
35.96944	56.03361	Europe/Moscow	Volokolamsk	08/20/2022, 00:00:00	accep
74.85849	31.28092	Asia/Kolkata	Patti	2014-12-18	accep
23.225	43.4125	Europe/Sofia	Montana	27 Nov 2018	good
-6.00137	33.42585	Africa/Casablanca	Oulmes	2014/10/02	maintenance
125.51176	42.64031	Asia/Shanghai	Dongfeng	2020-04-26	accep
136.61667	36.53333	Asia/Tokyo	Nonoichi	2013-10-08	excellent
-98.1664	19.32932	America/Mexico_City	Contla	2018-09-13	average
38.94324	44.98901	Europe/Moscow	Yablonovskiy	18 Mar 2022	accep
124.84472	10.13361	Asia/Manila	Maasin	2021-09-13	average
51.67462	32.65246	Asia/Tehran	Isfahan	11 Jan 2013	average
-74.95472	10.98778	America/Bogota	Puerto Colombia	10/22/2019, 00:00:00	maintenance
2.59753	8.88649	Africa/Porto-Novo	Tchaourou	10/26/2014, 00:00:00	accep
-52.20639	-3.20333	America/Santarem	Altamira	11/09/2012, 00:00:00	excellent
8.62118	45.44694	Europe/Rome	Novara	12 Sep 2018	maintenance
-7.35	53.53333	Europe/Dublin	An Muileann gCearr	2020-02-01	accep
6.26764	4.92675	Africa/Lagos	Yenagoa	06 Sep 2021	average
9.29109	45.39402	Europe/Rome	San Giuliano Milanese	2015-08-19	accep
-2.98333	53.83333	Europe/London	Poulton-le-Fylde	10/22/2014, 00:00:00	excellent
-117.70755	33.52253	America/Los_Angeles	Laguna Niguel	03/05/2015, 00:00:00	average
10.58082	35.72917	Africa/Tunis	Msaken	2017-07-02	good
24.43973	0.76755	Africa/Lubumbashi	Yangambi	2019-03-11	accep
9.15214	49.97704	Europe/Berlin	Aschaffenburg	2015/08/29	accep
77.70636	28.98002	Asia/Kolkata	Meerut	13 Nov 2019	maintenance
-74.13653	40.63316	America/New_York	Port Richmond	11 Apr 2022	maintenance
-87.93341	42.55308	America/Chicago	Pleasant Prairie	2021/07/13	maintenance
-2.68333	43.31667	Europe/Madrid	Gernika-Lumo	2021-07-14	accep
152.70493	-25.54073	Australia/Brisbane	Maryborough	2013/04/19	building
-72.27814	42.93369	America/New_York	Keene	2021/08/22	average
8.91229	49.13645	Europe/Berlin	Eppingen	2021/09/08	maintenance
-120.45794	34.63915	America/Los_Angeles	Lompoc	07/28/2022, 00:00:00	average
-100.44843	20.74122	America/Mexico_City	Santa Rosa Jauregui	11/15/2014, 00:00:00	average
-122.24064	47.80527	America/Los_Angeles	Bothell West	01/14/2018, 00:00:00	excellent
10.30215	53.94313	Europe/Berlin	Bad Segeberg	22 Aug 2020	maintenance
-89.66123	21.28306	America/Merida	Progreso	02/25/2021, 00:00:00	average
-117.70755	33.52253	America/Los_Angeles	Laguna Niguel	2014/01/08	building
43.38531	9.89206	Africa/Mogadishu	Baki	05/29/2013, 00:00:00	excellent
121.06761	12.35275	Asia/Manila	San Jose	01/01/2014, 00:00:00	excellent
99.1625	3.3285	Asia/Jakarta	Tebingtinggi	01/20/2020, 00:00:00	excellent
3.55665	36.72544	Africa/Algiers	Thenia	28 Jan 2014	accep
-79.62603	8.88988	America/Panama	Veracruz	05 Mar 2020	excellent
-122.39168	40.58654	America/Los_Angeles	Redding	01/04/2021, 00:00:00	building
-58.38341	-34.64966	America/Argentina/Buenos_Aires	Barracas	03/09/2015, 00:00:00	accep
-71.08977	41.9001	America/New_York	Taunton	2016-03-10	excellent
4.52529	50.71229	Europe/Brussels	Rixensart	2014-01-02	maintenance
15.00913	37.51803	Europe/Rome	Misterbianco	11/29/2013, 00:00:00	good
115.70111	37.73222	Asia/Shanghai	Hengshui	04/14/2019, 00:00:00	good
33.72798	53.53395	Europe/Moscow	Zhukovka	14 Sep 2017	accep
120.14278	32.50611	Asia/Shanghai	Jiangyan	07/26/2020, 00:00:00	good
34.37389	40.1675	Europe/Istanbul	Sungurlu	03 Apr 2016	average
4.63031	43.67681	Europe/Paris	Arles	08 Jul 2019	average
42.54536	-0.35817	Africa/Mogadishu	Kismayo	08 Jun 2022	excellent
16.4	48.25	Europe/Vienna	Floridsdorf	06/01/2016, 00:00:00	excellent
-66.8499	18.03496	America/Puerto_Rico	Yauco	2018/09/27	average
117.55417	34.86472	Asia/Shanghai	Zaozhuang	09 Nov 2013	excellent
-98.15529	26.18924	America/Chicago	San Juan	2021-03-18	average
-4.83076	39.96348	Europe/Madrid	Talavera de la Reina	2014/03/22	accep
7.60872	43.78956	Europe/Rome	Ventimiglia	12/25/2012, 00:00:00	excellent
-120.93549	37.73604	America/Los_Angeles	Riverbank	29 Oct 2018	building
8.64409	48.07667	Europe/Berlin	Trossingen	2019-07-12	good
76.32756	9.57046	Asia/Kolkata	Kalavoor	2022/09/03	building
8.86374	44.89784	Europe/Rome	Tortona	21 Aug 2020	excellent
-87.882	41.85059	America/Chicago	Westchester	24 Jul 2020	accep
144.09638	43.82634	Asia/Tokyo	Motomachi	26 Sep 2014	good
-61.51889	10.66668	America/Port_of_Spain	Port of Spain	01/19/2013, 00:00:00	building
-38.79084	-10.95817	America/Bahia	Tucano	2021/09/01	building
74.4818	30.21121	Asia/Kolkata	Malaut	2021-01-28	average
51.0193	35.6803	Asia/Tehran	Shahre Jadide Andisheh	22 Aug 2019	average
4.69889	50.56149	Europe/Brussels	Gembloux	2020-08-31	excellent
75.37991	25.75728	Asia/Kolkata	Deoli	12 Aug 2022	good
-75.23266	43.1009	America/New_York	Utica	11 Dec 2020	accep
68.88871	25.95533	Asia/Karachi	Jhol	03 Feb 2017	excellent
83.97573	21.46527	Asia/Kolkata	Sambalpur	2022/02/20	building
123.33471	8.56697	Asia/Manila	Dipolog	2018-05-26	average
-53.13722	-22.92306	America/Sao_Paulo	Loanda	2018-11-05	good
40.74357	37.31309	Europe/Istanbul	Mardin	2017-10-09	average
36.36339	0.03813	Africa/Nairobi	Nyahururu	2017-05-15	building
107.60627	51.82721	Asia/Irkutsk	Ulan-Ude	06/07/2014, 00:00:00	building
-73.9614	10.15031	America/Bogota	El Copey	04/15/2014, 00:00:00	average
24.75	55.25	Europe/Vilnius	Ukmerge	2016-02-12	accep
-88.64235	46.09273	America/Menominee	Iron River	2022/06/25	accep
78.23456	28.92694	Asia/Kolkata	Bachhraon	01 Dec 2018	maintenance
43.67663	53.53041	Europe/Moscow	Nizhniy Lomov	2017-11-02	excellent
-122.24064	47.80527	America/Los_Angeles	Bothell West	2021-06-30	average
-1.86343	38.10558	Europe/Madrid	Caravaca	05 Sep 2014	excellent
37.92792	53.93361	Europe/Moscow	Kireyevsk	07/29/2013, 00:00:00	building
0.57856	40.70995	Europe/Madrid	Amposta	29 Aug 2020	excellent
105.89333	34.56861	Asia/Shanghai	Beidao	20 Jan 2019	average
9.29109	45.39402	Europe/Rome	San Giuliano Milanese	2016/03/22	good
123.62494	12.37169	Asia/Manila	Masbate	2015-07-26	accep
-84.13722	9.92787	America/Costa_Rica	San Rafael	02/28/2022, 00:00:00	average
-77.37331	37.60876	America/New_York	Mechanicsville	12 Aug 2020	good
-117.29198	33.03699	America/Los_Angeles	Encinitas	2016/03/20	maintenance
-77.03116	3.8801	America/Bogota	Buenaventura	2022-03-02	excellent
-89.66123	21.28306	America/Merida	Progreso	04/21/2020, 00:00:00	accep
10.58082	35.72917	Africa/Tunis	Msaken	2017-02-07	excellent
7.20769	50.80019	Europe/Berlin	Siegburg	2020-09-22	average
-88.3162	42.24113	America/Chicago	Crystal Lake	02/06/2017, 00:00:00	maintenance
77.40858	24.05979	Asia/Kolkata	Leteri	12/07/2013, 00:00:00	excellent
-78.04471	34.25628	America/New_York	Leland	11 Feb 2015	building
135.21667	35.06667	Asia/Tokyo	Sasayama	2019-11-14	maintenance
-40.7475	-4.16694	America/Fortaleza	Guaraciaba do Norte	2022-05-20	building
12.87117	50.23271	Europe/Prague	Karlovy Vary	07/28/2013, 00:00:00	average
-48.29694	-20.87306	America/Sao_Paulo	Viradouro	2019/09/21	good
-117.54866	33.93113	America/Los_Angeles	Norco	2018-05-15	average
118.53333	27.92333	Asia/Shanghai	Pucheng	2014/04/21	good
74.12286	30.76468	Asia/Karachi	Kanganpur	05/29/2019, 00:00:00	good
-70.6996	-33.59217	America/Santiago	San Bernardo	02 Nov 2013	average
84.63445	24.81757	Asia/Kolkata	Rafiganj	07 Jan 2018	accep
-73.97069	40.64621	America/New_York	Kensington	12/01/2016, 00:00:00	building
-86.58208	13.48082	America/Managua	Somoto	28 Aug 2016	good
-1.47217	53.46506	Europe/London	Chapletown	2021-12-10	maintenance
-68.3	-54.8	America/Argentina/Ushuaia	Ushuaia	01 Jun 2019	excellent
-91.11667	14.93333	America/Guatemala	Chichicastenango	2012/12/30	average
-87.45476	41.47892	America/Chicago	Schererville	2022-01-31	average
-117.14392	32.9156	America/Los_Angeles	Mira Mesa	2014/11/06	average
-38.94722	-15.675	America/Bahia	Canavieiras	12 Sep 2019	good
27.25	42.7	Europe/Sofia	Aytos	2021-08-29	accep
152.70493	-25.54073	Australia/Brisbane	Maryborough	2022/01/01	good
75.06583	32.17629	Asia/Karachi	Fazilpur	14 Jun 2018	excellent
-121.74052	38.54491	America/Los_Angeles	Davis	2016-11-22	accep
-79.00453	-2.90055	America/Guayaquil	Cuenca	2020/12/31	excellent
6.10237	46.18396	Europe/Zurich	Onex	05 Apr 2016	good
33.72798	53.53395	Europe/Moscow	Zhukovka	24 Apr 2022	average
123.89071	10.31672	Asia/Manila	Cebu City	10/07/2018, 00:00:00	good
-65.71875	-21.44345	America/La_Paz	Tupiza	2013-07-17	excellent
120.33063	37.65181	Asia/Shanghai	Longgang	2017/05/18	building
6.76111	53.16167	Europe/Amsterdam	Hoogezand	2014/09/06	excellent
-82.90375	32.54044	America/New_York	Dublin	06 Sep 2017	average
79.883	6.9909	Asia/Colombo	Hendala	2019/02/18	good
0.93333	52.68333	Europe/London	East Dereham	25 Dec 2018	maintenance
34.75699	31.39547	Asia/Jerusalem	Rahat	2014-11-16	good
-122.38731	45.53929	America/Los_Angeles	Troutdale	08/29/2013, 00:00:00	accep
12.1369	51.04962	Europe/Berlin	Zeitz	07/24/2013, 00:00:00	excellent
2.08333	48.86667	Europe/Paris	Marly-le-Roi	12/05/2018, 00:00:00	accep
100.48528	14.37395	Asia/Bangkok	Bang Ban	01/10/2015, 00:00:00	average
-7.95	53.43333	Europe/Dublin	Athlone	2022-01-15	accep
19.61222	44.97639	Europe/Belgrade	Sremska Mitrovica	04/26/2018, 00:00:00	accep
141.95	39.46667	Asia/Tokyo	Yamada	2021/05/07	average
-77.96389	39.45621	America/New_York	Martinsburg	12/05/2020, 00:00:00	excellent
115.8614	-31.95224	Australia/Perth	Perth	06/10/2013, 00:00:00	excellent
38.2739	46.7055	Europe/Moscow	Yeysk	2013/01/12	accep
40.74357	37.31309	Europe/Istanbul	Mardin	13 Aug 2015	excellent
88.18466	22.19303	Asia/Kolkata	Diamond Harbour	07/31/2015, 00:00:00	accep
103.6032	1.6561	Asia/Kuala_Lumpur	Kulai	03/26/2018, 00:00:00	building
30.4347	-1.9487	Africa/Kigali	Rwamagana	2015/06/04	excellent
-58.70072	-34.74785	America/Argentina/Buenos_Aires	Pontevedra	10/19/2016, 00:00:00	good
139.55722	36	Asia/Tokyo	Okegawa	10/07/2021, 00:00:00	average
-93.11308	16.75973	America/Mexico_City	Tuxtla	2019/10/04	excellent
-91.11667	14.93333	America/Guatemala	Chichicastenango	10 Mar 2018	accep
-48.29694	-20.87306	America/Sao_Paulo	Viradouro	28 Apr 2013	building
-93.263	45.0408	America/Chicago	Columbia Heights	2016-08-27	good
76.03889	18.18158	Asia/Kolkata	Osmanabad	20 May 2021	accep
14.66737	41.55947	Europe/Rome	Campobasso	10/10/2017, 00:00:00	average
70.96699	30.46907	Asia/Karachi	Kot Addu	2014-09-13	good
75.11937	20.88098	Asia/Kolkata	Parola	2013/02/14	good
150.99292	-33.75881	Australia/Sydney	Baulkham Hills	08/14/2018, 00:00:00	average
120.14278	32.50611	Asia/Shanghai	Jiangyan	11 Jun 2021	accep
19.27498	50.20528	Europe/Warsaw	Jaworzno	2016-02-26	maintenance
1.04945	35.06544	Africa/Algiers	Frenda	12/30/2015, 00:00:00	accep
36.7138	35.95664	Asia/Damascus	Binnish	16 Jun 2017	building
35.7	-7.76667	Africa/Dar_es_Salaam	Iringa	2014/03/28	average
14.30935	40.92298	Europe/Rome	Afragola	23 May 2020	building
109.05389	-7.51611	Asia/Jakarta	Wangon	2019/11/19	good
37.55	6.03333	Africa/Addis_Ababa	Arba Minch	2021/02/15	accep
77.656	28.71271	Asia/Kolkata	Pilkhua	09 Jun 2015	maintenance
-86.78777	33.44872	America/Chicago	Vestavia Hills	18 Apr 2015	excellent
75.92694	14.46693	Asia/Kolkata	Davangere	08/02/2021, 00:00:00	excellent
-82.45426	27.09978	America/New_York	Venice	2021-12-24	maintenance
-71.8023	42.58342	America/New_York	Fitchburg	2019/01/30	maintenance
-75.87877	5.6561	America/Bogota	Andes	2020/04/07	average
117.63083	35.50056	Asia/Shanghai	Pingyi	2020-08-05	average
-87.88754	41.15376	America/Chicago	Bourbonnais	16 Oct 2018	excellent
2.12213	48.8222	Europe/Paris	Le Chesnay	2022-06-29	average
73.06784	25.13915	Asia/Kolkata	Sheoganj	11/14/2015, 00:00:00	good
-37.93278	-11.48472	America/Bahia	Rio Real	2013/10/19	accep
-72.09391	18.65297	America/Port-au-Prince	Thomazeau	2016-04-26	average
76.0586	16.06213	Asia/Kolkata	Hungund	2021-11-24	average
34.34691	61.78491	Europe/Moscow	Petrozavodsk	2021-12-08	excellent
2.95924	36.76775	Africa/Algiers	Cheraga	04/22/2019, 00:00:00	building
-0.33525	53.7446	Europe/London	Kingston upon Hull	2016-01-10	accep
99.96667	8.43333	Asia/Bangkok	Nakhon Si Thammarat	21 Jun 2014	good
35.23388	31.78336	Asia/Hebron	East Jerusalem	2020-11-24	building
-96.39774	30.16688	America/Chicago	Brenham	2021-12-11	average
-99.73314	32.44874	America/Chicago	Abilene	2015/07/27	excellent
-71.05977	42.35843	America/New_York	Boston	15 Oct 2014	good
-4.10734	38.68712	Europe/Madrid	Puertollano	07 May 2022	building
-7.35	53.53333	Europe/Dublin	An Muileann gCearr	22 May 2014	maintenance
-1.99421	51.35084	Europe/London	Devizes	2017-12-25	average
-73.58248	45.40008	America/Toronto	Sainte-Catherine	04/07/2014, 00:00:00	good
37.55	6.03333	Africa/Addis_Ababa	Arba Minch	2019/02/17	good
-2.01111	52.66277	Europe/London	Great Wyrley	2013-04-09	accep
79.82979	11.93381	Asia/Kolkata	Puducherry	2022/04/22	average
8.91229	49.13645	Europe/Berlin	Eppingen	16 Apr 2020	maintenance
-76.70944	-11.94306	America/Lima	Chosica	2012/12/27	average
-117.23991	47.64995	America/Los_Angeles	Opportunity	29 Sep 2018	good
113.82465	23.29549	Asia/Shanghai	Licheng	2016-09-24	good
77.0202	43.41949	Asia/Almaty	Otegen Batyra	02/19/2016, 00:00:00	building
2.95924	36.76775	Africa/Algiers	Cheraga	07/18/2020, 00:00:00	building
-61.4867	-31.25033	America/Argentina/Cordoba	Rafaela	2016-05-13	excellent
85.37752	22.10194	Asia/Kolkata	Barbil	23 Jul 2014	building
2.31889	35.21222	Africa/Algiers	Ksar Chellala	17 Nov 2016	average
5.37429	51.03427	Europe/Brussels	Houthalen	2019/03/30	good
-73.9625	40.81	America/New_York	Morningside Heights	07/12/2017, 00:00:00	good
3.47717	36.76639	Africa/Algiers	Boumerdas	07/23/2021, 00:00:00	good
31.33078	47.56494	Europe/Kiev	Voznesensk	2019-01-26	average
-74.15987	40.82232	America/New_York	Nutley	2012-10-06	average
5.22778	51.955	Europe/Amsterdam	Culemborg	2022/06/30	excellent
-117.54866	33.93113	America/Los_Angeles	Norco	2020-02-21	maintenance
86.59509	26.11527	Asia/Kolkata	Supaul	2020/07/03	maintenance
74.80555	34.08565	Asia/Kolkata	Srinagar	30 Dec 2015	good
37.99117	44.92934	Europe/Moscow	Krymsk	04/01/2014, 00:00:00	average
9.32241	44.31771	Europe/Rome	Chiavari	16 Sep 2020	building
6.51352	51.19139	Europe/Berlin	Korschenbroich	2014-12-08	average
32.86389	53.95278	Europe/Moscow	Roslavl‚Äô	08/19/2019, 00:00:00	accep
-78.19444	38.91817	America/New_York	Front Royal	11/19/2016, 00:00:00	good
-73.49484	41.14676	America/New_York	New Canaan	17 Feb 2015	excellent
117.63083	35.50056	Asia/Shanghai	Pingyi	29 Jul 2018	good
29.24152	-26.93366	Africa/Johannesburg	Standerton	17 Sep 2018	good
100.24529	5.4709	Asia/Kuala_Lumpur	Batu Feringgi	2018/07/31	building
89.20083	55.54028	Asia/Krasnoyarsk	Sharypovo	2018-01-01	average
-59.13316	-37.32167	America/Argentina/Buenos_Aires	Tandil	2013-12-20	good
0.57856	40.70995	Europe/Madrid	Amposta	2019/12/10	average
73.7553	15.5439	Asia/Kolkata	Calangute	2016/08/27	building
48.41667	-17.83333	Indian/Antananarivo	Ambatondrazaka	28 Apr 2013	accep
-98.15529	26.18924	America/Chicago	San Juan	03 Jul 2016	excellent
-81.26367	28.90054	America/New_York	Deltona	2021-05-19	average
76.11996	11.12018	Asia/Kolkata	Manjeri	2019/07/15	accep
-93.08883	45.16024	America/Chicago	Lino Lakes	05 Jan 2020	average
-111.89903	33.50921	America/Phoenix	Scottsdale	2019-05-27	good
9.47629	53.59337	Europe/Berlin	Stade	2015-12-29	good
151.08057	-33.79176	Australia/Sydney	Eastwood	06/23/2018, 00:00:00	excellent
-73.02841	-36.9256	America/Santiago	Chiguayante	2014-05-26	maintenance
126.28333	45.35	Asia/Shanghai	Shuangcheng	23 Jul 2018	accep
171.25364	-44.39672	Pacific/Auckland	Timaru	24 Jun 2015	average
16.91667	-21.98333	Africa/Windhoek	Okahandja	02 Dec 2017	maintenance
153.10236	-27.50578	Australia/Brisbane	Carindale	15 May 2019	excellent
38.2739	46.7055	Europe/Moscow	Yeysk	2020/04/03	average
74.3092	33.37526	Asia/Kolkata	Rajaori	11/20/2012, 00:00:00	accep
12.53463	55.67938	Europe/Copenhagen	Frederiksberg	2016/06/14	building
2.08333	48.86667	Europe/Paris	Marly-le-Roi	09/26/2015, 00:00:00	average
72.54064	31.82539	Asia/Karachi	Sillanwali	06/13/2013, 00:00:00	good
-0.76667	53.38333	Europe/London	Gainsborough	2020-02-07	average
-80.22588	26.2173	America/New_York	North Lauderdale	08 Jun 2014	accep
91.61356	26.44931	Asia/Kolkata	Rangia	05/28/2017, 00:00:00	accep
101.02083	4.02219	Asia/Kuala_Lumpur	Teluk Intan	07/30/2018, 00:00:00	average
8.86374	44.89784	Europe/Rome	Tortona	07 Apr 2019	average
-73.78458	41.0051	America/New_York	Scarsdale	2016/04/13	good
56.36091	51.78771	Asia/Yekaterinburg	Saraktash	2015/05/18	building
31.3237	52.4089	Europe/Minsk	Dobrush	09/17/2022, 00:00:00	excellent
-1.29243	53.49389	Europe/London	Mexborough	03 May 2014	average
-1.99421	51.35084	Europe/London	Devizes	2016/06/13	accep
140.72287	53.14657	Asia/Vladivostok	Nikolayevsk-on-Amure	04 Oct 2015	average
41.00817	38.13708	Europe/Istanbul	Silvan	09/13/2019, 00:00:00	accep
74.83554	14.62072	Asia/Kolkata	Sirsi	25 Feb 2013	excellent
-56.52361	-33.38056	America/Montevideo	Durazno	08/17/2014, 00:00:00	excellent
55.4504	-20.88231	Indian/Reunion	Saint-Denis	03/01/2018, 00:00:00	excellent
-61.4867	-31.25033	America/Argentina/Cordoba	Rafaela	2022/08/11	good
76.03889	18.18158	Asia/Kolkata	Osmanabad	05/25/2019, 00:00:00	maintenance
-76.78319	18.00747	America/Jamaica	New Kingston	05/16/2020, 00:00:00	excellent
153.10236	-27.50578	Australia/Brisbane	Carindale	2015-05-16	accep
3.87723	43.61092	Europe/Paris	Montpellier	28 Sep 2016	average
39.8302	64.5635	Europe/Moscow	Severodvinsk	2014/05/01	excellent
4.08282	36.61954	Africa/Algiers	Beni Douala	31 Jul 2018	building
